timestamp,heading,roll,pitch,ax,ay,az,lax,lay,laz,left_throttle,right_throttle
2026-03-07T04:48:14.468,0.0,0.0,0.0,0.0,0.31,9.42,0.0,0.0,0.0,0.8,0.8
2026-03-07T04:48:14.477,0.0,0.0,0.0,0.0,0.31,9.42,0.0,0.0,0.0,0.8,0.8
2026-03-07T04:48:14.486,0.0,0.0,0.0,0.0,0.34,9.44,0.0,0.0,0.0,0.8,0.8
2026-03-07T04:48:14.494,0.0,0.0,0.0,0.02,0.27,9.4,0.0,0.0,0.0,0.8,0.8
2026-03-07T04:48:14.503,0.0,0.0,0.0,0.03,0.3,9.4,0.0,0.0,0.0,0.8,0.8
2026-03-07T04:48:14.511,0.0,0.0,0.0,0.03,0.3,9.4,0.0,0.0,0.0,0.8,0.8
2026-03-07T04:48:14.520,0.0,0.0,0.0,0.02,0.39,9.41,0.0,0.0,0.0,0.8,0.8
2026-03-07T04:48:14.528,0.0,0.0,0.0,0.0,0.46,9.4,0.0,0.46,-0.39,0.8,0.8
2026-03-07T04:48:14.534,0.0,0.0,0.0,0.02,0.39,9.43,0.02,0.4,-0.36,0.8,0.8
2026-03-07T04:48:14.541,0.0,0.0,0.0,0.02,0.39,9.43,0.09,0.26,-0.35000000000000003,0.8,0.8
2026-03-07T04:48:14.550,0.0,0.0,0.0625,0.09,0.24,9.44,0.09,0.26,-0.35000000000000003,0.8,0.8
2026-03-07T04:48:14.555,0.0625,0.0,0.125,0.08,0.06,9.450000000000001,0.08,0.08,-0.35000000000000003,0.8,0.8
2026-03-07T04:48:14.562,0.0625,0.0,0.125,0.08,0.24,9.53,0.07,0.27,-0.27,0.8,0.8
2026-03-07T04:48:14.570,0.1875,0.0,0.125,0.08,0.24,9.53,0.02,0.15,-0.29,0.8,0.8
2026-03-07T04:48:14.577,0.375,0.0,0.0,0.03,0.14,9.51,0.02,0.15,-0.29,0.8,0.8
2026-03-07T04:48:14.583,0.625,0.1875,-1.125,0.0,0.18,9.44,-0.02,-0.01,-0.35000000000000003,0.8,0.8
2026-03-07T04:48:14.591,0.625,0.1875,-1.125,0.0,0.18,9.44,-0.04,0.09,-0.35000000000000003,0.8,0.8
2026-03-07T04:48:14.598,0.875,0.1875,-1.375,0.0,0.33,9.44,-0.04,0.09,-0.35000000000000003,0.8,0.8
2026-03-07T04:48:14.604,1.1875,0.1875,-1.5,-0.01,0.39,9.38,-0.06,0.13,-0.42,0.8,0.8
2026-03-07T04:48:14.611,1.1875,0.1875,-1.5,-0.01,0.39,9.38,-0.08,0.15,-0.44,0.8,0.8
2026-03-07T04:48:14.618,1.5,0.25,-1.5625,-0.03,0.42,9.36,-0.08,0.15,-0.44,0.8,0.8
2026-03-07T04:48:14.624,1.9375,0.3125,-1.4375,-0.01,0.31,9.42,-0.06,0.06,-0.37,0.8,0.8
2026-03-07T04:48:14.631,1.9375,0.3125,-1.4375,-0.01,0.31,9.42,0.0,0.1,-0.35000000000000003,0.8,0.8
2026-03-07T04:48:14.639,2.375,0.3125,-1.25,0.05,0.32,9.450000000000001,0.0,0.1,-0.35000000000000003,0.8,0.8
2026-03-07T04:48:14.644,2.875,0.375,-1.0625,0.0,0.25,9.53,-0.07,0.06,-0.27,0.8,0.8
2026-03-07T04:48:14.652,2.875,0.375,-1.0625,0.0,0.34,9.47,-0.06,0.15,-0.32,0.8,0.8
2026-03-07T04:48:14.658,3.375,0.4375,-1.0625,0.0,0.34,9.47,-0.06,0.15,-0.32,0.8,0.8
2026-03-07T04:48:14.664,3.875,0.4375,-1.0625,0.0,0.42,9.48,-0.09,0.23,-0.32,0.8,0.8
2026-03-07T04:48:14.671,3.875,0.4375,-1.0625,0.0,0.42,9.48,-0.1,0.08,-0.37,0.8,0.8
2026-03-07T04:48:14.679,4.4375,0.5,-1.0625,0.0,0.26,9.43,-0.1,0.08,-0.37,0.8,0.8
2026-03-07T04:48:14.685,5.0625,0.5625,-1.0625,0.06,0.34,9.43,-0.03,0.16,-0.36,0.8,0.8
2026-03-07T04:48:14.692,5.0625,0.5625,-1.0625,0.05,0.39,9.48,-0.05,0.2,-0.32,0.8,0.8
2026-03-07T04:48:14.700,5.625,0.625,-1.0625,0.05,0.39,9.48,-0.06,0.13,-0.29,0.8,0.8
2026-03-07T04:48:14.705,6.25,0.6875,-1.0625,0.05,0.32,9.5,-0.06,0.13,-0.29,0.8,0.8
2026-03-07T04:48:14.711,6.25,0.6875,-1.0625,0.06,0.11,9.35,-0.06,-0.06,-0.45,0.8,0.8
2026-03-07T04:48:14.719,6.875,0.75,-1.0,0.06,0.11,9.35,-0.06,-0.06,-0.45,0.8,0.8
2026-03-07T04:48:14.725,7.5,0.75,-1.0625,0.05,0.23,9.42,-0.07,0.05,-0.37,0.8,0.8
2026-03-07T04:48:14.732,7.5,0.75,-1.0625,0.03,0.08,9.41,-0.11,-0.1,-0.38,0.8,0.8
2026-03-07T04:48:14.740,8.1875,0.8125,-1.0625,0.03,0.08,9.41,-0.14,-0.2,-0.37,0.8,0.8
2026-03-07T04:48:14.746,8.8125,0.875,-1.1875,0.0,0.0,9.43,-0.14,-0.2,-0.37,0.8,0.8
2026-03-07T04:48:14.753,8.8125,0.875,-1.1875,0.0,0.22,9.46,-0.16,-0.01,-0.33,0.8,0.8
2026-03-07T04:48:14.761,9.4375,0.9375,-1.375,0.0,0.22,9.46,-0.18,-0.2,-0.38,0.8,0.8
2026-03-07T04:48:14.769,10.125,0.9375,-1.4375,-0.01,0.04,9.41,-0.16,0.12,-0.4,0.8,0.8
2026-03-07T04:48:14.775,10.75,1.0,-1.5625,0.0,0.39,9.39,-0.16,0.12,-0.4,0.8,0.8
2026-03-07T04:48:14.782,10.75,1.0,-1.5625,0.03,0.3,9.450000000000001,-0.14,0.0,-0.34,0.8,0.8
2026-03-07T04:48:14.790,11.3125,1.0625,-1.6875,0.03,0.3,9.450000000000001,-0.08,0.03,-0.31,0.8,0.8
2026-03-07T04:48:14.797,11.875,1.125,-1.8125,0.1,0.35000000000000003,9.48,-0.08,0.03,-0.31,0.8,0.8
2026-03-07T04:48:14.803,12.5,1.125,-2.0,0.09,0.43,9.47,-0.11,0.08,-0.32,0.8,0.8
2026-03-07T04:48:14.808,12.5,1.125,-2.0,0.09,0.43,9.47,-0.11,0.08,-0.32,0.8,0.8
2026-03-07T04:48:14.814,13.0,1.1875,-2.25,0.1,0.59,9.44,-0.1,0.2,-0.35000000000000003,0.8,0.8
2026-03-07T04:48:14.820,13.0,1.1875,-2.25,0.1,0.59,9.44,-0.12,0.01,-0.42,0.8,0.8
2026-03-07T04:48:14.826,13.5625,1.25,-2.4375,0.09,0.43,9.370000000000001,-0.12,0.01,-0.42,0.8,0.8
2026-03-07T04:48:14.832,14.1875,1.3125,-2.5625,0.09,0.54,9.32,-0.13,0.09,-0.46,0.8,0.8
2026-03-07T04:48:14.840,14.1875,1.3125,-2.5625,0.09,0.54,9.32,-0.16,0.12,-0.31,0.8,0.8
2026-03-07T04:48:14.847,14.75,1.375,-2.75,0.06,0.59,9.48,-0.16,0.12,-0.31,0.8,0.8
2026-03-07T04:48:14.853,15.375,1.375,-2.9375,0.05,0.64,9.47,-0.18,0.13,-0.31,0.8,0.8
2026-03-07T04:48:14.858,15.375,1.375,-2.9375,0.05,0.64,9.47,-0.18,0.13,-0.31,0.8,0.8
2026-03-07T04:48:14.864,16.0,1.4375,-3.125,0.0,0.74,9.38,-0.24,0.19,-0.4,0.8,0.8
2026-03-07T04:48:14.869,16.0,1.4375,-3.125,0.0,0.74,9.38,-0.27,0.07,-0.52,0.8,0.8
2026-03-07T04:48:14.874,16.625,1.5,-3.375,-0.01,0.66,9.25,-0.27,0.07,-0.52,0.8,0.8
2026-03-07T04:48:14.881,16.625,1.5,-3.375,0.0,0.85,9.3,-0.27,0.23,-0.47000000000000003,0.8,0.8
2026-03-07T04:48:14.889,17.25,1.5,-3.625,0.0,0.85,9.3,-0.27,0.23,-0.47000000000000003,0.8,0.8
2026-03-07T04:48:14.895,17.875,1.5625,-3.75,-0.04,0.51,9.17,-0.31,-0.13,-0.6,0.8,0.8
2026-03-07T04:48:14.902,17.875,1.5625,-3.75,-0.01,0.84,9.39,-0.29,0.17,-0.38,0.8,0.8
2026-03-07T04:48:14.907,18.5625,1.5625,-3.9375,-0.01,0.84,9.39,-0.29,0.17,-0.38,0.8,0.8
2026-03-07T04:48:14.913,18.5625,1.5625,-3.9375,0.0,0.74,9.370000000000001,-0.29,0.04,-0.4,0.8,0.8
2026-03-07T04:48:14.918,19.25,1.625,-4.0625,0.0,0.74,9.370000000000001,-0.29,0.04,-0.4,0.8,0.8
2026-03-07T04:48:14.923,19.9375,1.6875,-4.1875,-0.03,0.71,9.42,-0.32,-0.01,-0.35000000000000003,0.8,0.8
2026-03-07T04:48:14.930,19.9375,1.6875,-4.1875,-0.03,0.71,9.42,-0.32,-0.02,-0.37,0.8,0.8
2026-03-07T04:48:14.938,20.625,1.6875,-4.375,-0.02,0.73,9.39,-0.32,-0.02,-0.37,0.8,0.8
2026-03-07T04:48:14.944,21.375,1.75,-4.5625,-0.09,0.71,9.4,-0.39,-0.06,-0.36,0.8,0.8
2026-03-07T04:48:14.951,21.375,1.75,-4.5625,-0.12,1.0,9.42,-0.43,0.18,-0.33,0.8,0.8
2026-03-07T04:48:14.956,22.0625,1.75,-4.75,-0.12,1.0,9.42,-0.43,0.18,-0.33,0.8,0.8
2026-03-07T04:48:14.962,22.0625,1.75,-4.75,-0.11,0.71,9.28,-0.41000000000000003,-0.12,-0.47000000000000003,0.8,0.8
2026-03-07T04:48:14.967,22.75,1.75,-4.875,-0.11,0.71,9.28,-0.41000000000000003,-0.12,-0.47000000000000003,0.8,0.8
2026-03-07T04:48:14.972,23.375,1.8125,-5.0625,-0.1,1.04,9.370000000000001,-0.41000000000000003,0.17,-0.39,0.8,0.8
2026-03-07T04:48:14.979,23.375,1.8125,-5.0625,-0.1,1.04,9.370000000000001,-0.38,0.12,-0.44,0.8,0.8
2026-03-07T04:48:14.986,24.0625,1.8125,-5.1875,-0.07,1.01,9.31,-0.38,0.12,-0.44,0.8,0.8
2026-03-07T04:48:14.992,24.6875,1.875,-5.4375,-0.05,0.9400000000000001,9.38,-0.37,0.01,-0.37,0.8,0.8
2026-03-07T04:48:15.000,24.6875,1.875,-5.4375,-0.05,0.9400000000000001,9.38,-0.39,0.14,-0.35000000000000003,0.8,0.8
2026-03-07T04:48:15.005,25.3125,1.875,-5.625,-0.06,1.1,9.39,-0.39,0.14,-0.35000000000000003,0.8,0.8
2026-03-07T04:48:15.010,25.3125,1.875,-5.625,-0.06,1.1,9.39,-0.43,0.0,-0.42,0.8,0.8
2026-03-07T04:48:15.015,25.9375,1.875,-5.8125,-0.1,0.99,9.32,-0.43,0.0,-0.42,0.8,0.8
2026-03-07T04:48:15.021,25.9375,1.875,-5.8125,-0.12,1.1,9.290000000000001,-0.45,0.06,-0.45,0.8,0.8
2026-03-07T04:48:15.027,26.5,1.875,-6.0625,-0.12,1.1,9.290000000000001,-0.45,0.06,-0.45,0.8,0.8
2026-03-07T04:48:15.032,27.0625,1.9375,-6.25,-0.07,0.93,9.27,-0.41000000000000003,-0.14,-0.46,0.8,0.8
2026-03-07T04:48:15.040,27.0625,1.9375,-6.25,-0.07,0.93,9.27,-0.39,-0.21,-0.43,0.8,0.8
2026-03-07T04:48:15.047,27.625,1.9375,-6.4375,-0.05,0.88,9.3,-0.39,-0.21,-0.43,0.8,0.8
2026-03-07T04:48:15.053,28.1875,1.9375,-6.5625,-0.03,0.93,9.32,-0.37,-0.18,-0.4,0.8,0.8
2026-03-07T04:48:15.058,28.1875,1.9375,-6.5625,-0.03,0.93,9.32,-0.37,-0.18,-0.4,0.8,0.8
2026-03-07T04:48:15.063,28.75,2.0,-6.8125,-0.03,0.91,9.39,-0.38,-0.24,-0.34,0.8,0.8
2026-03-07T04:48:15.069,28.75,2.0,-6.8125,-0.03,0.91,9.39,-0.42,-0.39,-0.43,0.8,0.8
2026-03-07T04:48:15.074,29.3125,2.0,-7.0625,-0.08,0.81,9.28,-0.42,-0.39,-0.43,0.8,0.8
2026-03-07T04:48:15.080,29.3125,2.0,-7.0625,-0.04,0.9500000000000001,9.24,-0.39,-0.3,-0.47000000000000003,0.8,0.8
2026-03-07T04:48:15.088,29.9375,2.0,-7.375,-0.04,0.9500000000000001,9.24,-0.39,-0.3,-0.47000000000000003,0.8,0.8
2026-03-07T04:48:15.093,30.5,2.0,-7.6875,-0.03,0.99,9.36,-0.38,-0.32,-0.34,0.8,0.8
2026-03-07T04:48:15.101,30.5,2.0,-7.6875,-0.02,1.25,9.370000000000001,-0.37,-0.12,-0.33,0.8,0.8
2026-03-07T04:48:15.106,31.125,2.0,-8.0625,-0.02,1.25,9.370000000000001,-0.37,-0.12,-0.33,0.8,0.8
2026-03-07T04:48:15.111,31.125,2.0,-8.0625,-0.04,1.33,9.27,-0.4,-0.12,-0.41000000000000003,0.8,0.8
2026-03-07T04:48:15.117,31.6875,2.0625,-8.5,-0.04,1.33,9.27,-0.4,-0.12,-0.41000000000000003,0.8,0.8
2026-03-07T04:48:15.122,32.3125,2.125,-9.0,0.01,1.54,9.26,-0.34,0.0,-0.41000000000000003,0.8,0.8
2026-03-07T04:48:15.130,32.3125,2.125,-9.0,0.01,1.54,9.26,-0.34,0.08,-0.49,0.8,0.8
2026-03-07T04:48:15.138,32.875,2.125,-9.5,0.02,1.7,9.16,-0.34,0.08,-0.49,0.8,0.8
2026-03-07T04:48:15.144,33.4375,2.1875,-10.0,0.03,1.6,9.16,-0.33,-0.1,-0.48,0.8,0.8
2026-03-07T04:48:15.151,33.4375,2.1875,-10.0,0.0,1.75,9.25,-0.39,-0.02,-0.37,0.8,0.8
2026-03-07T04:48:15.157,34.0,2.1875,-10.4375,0.0,1.75,9.25,-0.39,-0.02,-0.37,0.8,0.8
2026-03-07T04:48:15.162,34.5625,2.25,-10.875,-0.03,1.68,9.14,-0.42,-0.17,-0.48,0.8,0.8
2026-03-07T04:48:15.167,34.5625,2.25,-10.875,-0.03,1.68,9.14,-0.42,-0.17,-0.48,0.8,0.8
2026-03-07T04:48:15.172,35.125,2.3125,-11.3125,-0.11,1.76,9.09,-0.51,-0.16,-0.5,0.8,0.8
2026-03-07T04:48:15.180,35.125,2.3125,-11.3125,-0.15,1.81,9.040000000000001,-0.55,-0.19,-0.54,0.8,0.8
2026-03-07T04:48:15.187,35.75,2.3125,-11.75,-0.15,1.81,9.040000000000001,-0.55,-0.19,-0.54,0.8,0.8
2026-03-07T04:48:15.193,36.3125,2.3125,-12.1875,-0.18,1.94,9.1,-0.58,-0.12,-0.46,0.8,0.8
2026-03-07T04:48:15.200,36.3125,2.3125,-12.1875,-0.15,1.95,9.24,-0.55,-0.18,-0.31,0.8,0.8
2026-03-07T04:48:15.206,37.0,2.3125,-12.625,-0.15,1.95,9.24,-0.55,-0.18,-0.31,0.8,0.8
2026-03-07T04:48:15.211,37.0,2.3125,-12.625,-0.16,2.22,9.23,-0.5700000000000001,0.0,-0.31,0.8,0.8
2026-03-07T04:48:15.216,37.625,2.375,-13.0625,-0.16,2.22,9.23,-0.5700000000000001,0.0,-0.31,0.8,0.8
2026-03-07T04:48:15.222,38.3125,2.375,-13.5,-0.15,2.19,9.06,-0.56,-0.09,-0.45,0.8,0.8
2026-03-07T04:48:15.229,38.3125,2.375,-13.5,-0.15,2.19,9.06,-0.58,0.08,-0.39,0.8,0.8
2026-03-07T04:48:15.262,39.0,2.4375,-14.0,0.09,3.41,8.700000000000001,-0.34,0.8300000000000001,-0.74,0.8,0.8
2026-03-07T04:48:15.268,41.0,2.5625,-15.25,0.09,3.41,8.700000000000001,-0.41000000000000003,0.79,-0.93,0.8,0.8
2026-03-07T04:48:15.275,41.625,2.625,-15.5625,0.03,3.41,8.5,-0.41000000000000003,0.79,-0.93,0.8,0.8
2026-03-07T04:48:15.281,41.625,2.625,-15.5625,0.06,3.62,8.34,-0.39,0.9500000000000001,-1.08,0.8,0.8
2026-03-07T04:48:15.289,42.1875,2.625,-15.75,0.06,3.62,8.34,-0.51,0.96,-1.1,0.8,0.8
2026-03-07T04:48:15.297,42.8125,2.6875,-15.875,-0.04,3.64,8.31,-0.51,0.96,-1.1,0.8,0.8
2026-03-07T04:48:15.303,43.375,2.75,-16.0,-0.17,3.44,8.33,-0.64,0.74,-1.07,0.8,0.8
2026-03-07T04:48:15.308,43.375,2.75,-16.0,-0.17,3.44,8.33,-0.75,0.68,-1.04,0.8,0.8
2026-03-07T04:48:15.313,43.875,2.75,-15.9375,-0.27,3.38,8.370000000000001,-0.75,0.68,-1.04,0.8,0.8
2026-03-07T04:48:15.319,43.875,2.75,-15.9375,-0.27,3.38,8.370000000000001,-0.79,0.5,-0.63,0.8,0.8
2026-03-07T04:48:15.326,44.375,2.75,-15.875,-0.31,3.18,8.78,-0.79,0.5,-0.63,0.8,0.8
2026-03-07T04:48:15.333,44.9375,2.8125,-15.75,-0.14,3.1,8.9,-0.63,0.44,-0.52,0.8,0.8
2026-03-07T04:48:15.340,44.9375,2.8125,-15.75,0.01,3.0100000000000002,9.0,-0.47000000000000003,0.36,-0.42,0.8,0.8
2026-03-07T04:48:15.348,45.4375,2.875,-15.6875,0.01,3.0100000000000002,9.0,-0.18,0.23,-0.6,0.8,0.8
2026-03-07T04:48:15.354,46.0,2.875,-15.625,0.32,2.88,8.82,-0.18,0.23,-0.6,0.8,0.8
2026-03-07T04:48:15.359,46.0,2.875,-15.625,0.32,2.88,8.82,-0.12,0.13,-0.61,0.8,0.8
2026-03-07T04:48:15.364,46.5,2.9375,-15.5,0.38,2.75,8.82,-0.12,0.13,-0.61,0.8,0.8
2026-03-07T04:48:15.369,46.5,2.9375,-15.5,0.38,2.71,8.790000000000001,-0.12,0.12,-0.65,0.8,0.8
2026-03-07T04:48:15.377,46.9375,3.0,-15.375,0.38,2.71,8.790000000000001,-0.12,0.12,-0.65,0.8,0.8
2026-03-07T04:48:15.384,47.4375,3.0,-15.125,0.29,2.8000000000000003,8.89,-0.22,0.24,-0.55,0.8,0.8
2026-03-07T04:48:15.390,47.4375,3.0,-15.125,-0.03,2.6,9.03,-0.55,0.07,-0.42,0.8,0.8
2026-03-07T04:48:15.399,47.8125,3.0,-14.9375,-0.03,2.6,9.03,-0.66,0.15,-0.51,0.8,0.8
2026-03-07T04:48:15.404,48.25,3.0,-14.75,-0.14,2.65,8.950000000000001,-0.66,0.15,-0.51,0.8,0.8
2026-03-07T04:48:15.410,48.25,3.0,-14.75,-0.23,2.49,8.93,-0.76,0.03,-0.54,0.8,0.8
2026-03-07T04:48:15.416,48.6875,3.0,-14.5,-0.23,2.49,8.93,-0.76,0.03,-0.54,0.8,0.8
2026-03-07T04:48:15.421,49.0625,3.0625,-14.25,-0.29,2.46,8.96,-0.81,0.04,-0.52,0.8,0.8
2026-03-07T04:48:15.429,49.0625,3.0625,-14.25,-0.29,2.46,8.96,-0.73,-0.02,-0.47000000000000003,0.8,0.8
2026-03-07T04:48:15.437,49.5,3.0625,-14.0,-0.21,2.34,9.02,-0.73,-0.02,-0.47000000000000003,0.8,0.8
2026-03-07T04:48:15.444,49.9375,3.0625,-13.75,-0.11,2.2800000000000002,9.040000000000001,-0.64,-0.04,-0.47000000000000003,0.8,0.8
2026-03-07T04:48:15.450,49.9375,3.0625,-13.75,-0.15,2.16,8.98,-0.68,-0.11,-0.53,0.8,0.8
2026-03-07T04:48:15.456,50.3125,3.0625,-13.4375,-0.15,2.16,8.98,-0.68,-0.11,-0.53,0.8,0.8
2026-03-07T04:48:15.461,50.75,3.125,-13.25,-0.31,2.0100000000000002,9.0,-0.85,-0.23,-0.52,0.8,0.8
2026-03-07T04:48:15.467,50.75,3.125,-13.25,-0.31,2.0100000000000002,9.0,-0.85,-0.23,-0.52,0.8,0.8
2026-03-07T04:48:15.472,51.1875,3.125,-13.0625,-0.67,1.96,9.47,-1.2,-0.25,-0.06,0.8,0.8
2026-03-07T04:48:15.479,51.1875,3.125,-13.0625,-0.17,1.98,9.51,-0.7000000000000001,-0.2,-0.03,0.8,0.8
2026-03-07T04:48:15.488,51.75,3.0625,-12.875,-0.17,1.98,9.51,-0.31,-0.1,-0.29,0.8,0.8
2026-03-07T04:48:15.495,52.25,3.125,-12.625,0.22,2.0300000000000002,9.26,-0.31,-0.1,-0.29,0.8,0.8
2026-03-07T04:48:15.501,52.8125,3.25,-12.375,0.72,1.9000000000000001,9.07,0.16,-0.19,-0.48,0.8,0.8
2026-03-07T04:48:15.507,52.8125,3.25,-12.375,0.72,1.9000000000000001,9.07,0.16,-0.19,-0.48,0.8,0.8
2026-03-07T04:48:15.512,53.4375,3.25,-12.125,0.71,1.96,9.07,0.15,-0.1,-0.49,0.8,0.8
2026-03-07T04:48:15.517,53.4375,3.25,-12.125,0.71,1.96,9.07,0.15,-0.1,-0.49,0.8,0.8
2026-03-07T04:48:15.524,54.0,3.3125,-11.9375,0.63,1.9100000000000001,8.99,0.06,-0.11,-0.58,0.8,0.8
2026-03-07T04:48:15.530,54.0,3.3125,-11.9375,0.46,1.82,8.96,-0.1,-0.15,-0.62,0.8,0.8
2026-03-07T04:48:15.538,54.625,3.3125,-11.625,0.46,1.82,8.96,-0.59,-0.02,-0.32,0.8,0.8
2026-03-07T04:48:15.546,55.1875,3.3125,-11.375,-0.01,1.9100000000000001,9.27,-0.59,-0.02,-0.32,0.8,0.8
2026-03-07T04:48:15.552,55.8125,3.375,-11.1875,-0.2,1.85,9.25,-0.78,-0.04,-0.35000000000000003,0.8,0.8
2026-03-07T04:48:15.557,55.8125,3.375,-11.1875,-0.2,1.85,9.25,-0.78,-0.04,-0.35000000000000003,0.8,0.8
2026-03-07T04:48:15.562,56.4375,3.375,-10.9375,-0.37,1.58,9.27,-0.9500000000000001,-0.28,-0.33,0.8,0.8
2026-03-07T04:48:15.567,56.4375,3.375,-10.9375,-0.37,1.58,9.27,-0.98,-0.11,-0.38,0.8,0.8
2026-03-07T04:48:15.574,57.0625,3.375,-10.75,-0.39,1.71,9.22,-0.98,-0.11,-0.38,0.8,0.8
2026-03-07T04:48:15.580,57.0625,3.375,-10.75,-0.36,1.48,9.33,-0.96,-0.29,-0.28,0.8,0.8
2026-03-07T04:48:15.588,57.6875,3.4375,-10.5,-0.36,1.48,9.33,-0.85,-0.37,-0.21,0.8,0.8
2026-03-07T04:48:15.596,58.3125,3.4375,-10.25,-0.25,1.36,9.41,-0.85,-0.37,-0.21,0.8,0.8
2026-03-07T04:48:15.602,58.9375,3.5,-10.0625,-0.15,1.36,9.27,-0.76,-0.34,-0.36,0.8,0.8
2026-03-07T04:48:15.607,58.9375,3.5,-10.0625,-0.15,1.36,9.27,-0.68,-0.33,-0.4,0.8,0.8
2026-03-07T04:48:15.612,59.5625,3.5,-9.875,-0.08,1.35,9.23,-0.68,-0.33,-0.4,0.8,0.8
2026-03-07T04:48:15.618,59.5625,3.5,-9.875,-0.08,1.35,9.23,-0.52,-0.32,-0.4,0.8,0.8
2026-03-07T04:48:15.625,60.1875,3.5625,-9.75,0.09,1.34,9.24,-0.52,-0.32,-0.4,0.8,0.8
2026-03-07T04:48:15.631,60.875,3.5625,-9.625,0.15,1.06,9.21,-0.46,-0.5700000000000001,-0.43,0.8,0.8
2026-03-07T04:48:15.638,60.875,3.5625,-9.625,0.16,1.3800000000000001,9.28,-0.46,-0.22,-0.36,0.8,0.8
2026-03-07T04:48:15.647,61.5,3.625,-9.4375,0.16,1.3800000000000001,9.28,-0.46,-0.22,-0.36,0.8,0.8
2026-03-07T04:48:15.652,62.1875,3.625,-9.25,0.04,1.45,9.33,-0.58,-0.13,-0.32,0.8,0.8
2026-03-07T04:48:15.657,62.1875,3.625,-9.25,0.04,1.45,9.33,-0.58,-0.5700000000000001,-0.43,0.8,0.8
2026-03-07T04:48:15.663,62.875,3.6875,-9.125,0.04,0.97,9.22,-0.58,-0.5700000000000001,-0.43,0.8,0.8
2026-03-07T04:48:15.668,62.875,3.6875,-9.125,0.04,0.97,9.22,-0.68,-0.1,-0.29,0.8,0.8
2026-03-07T04:48:15.674,63.5625,3.6875,-8.9375,-0.04,1.42,9.36,-0.68,-0.1,-0.29,0.8,0.8
2026-03-07T04:48:15.680,63.5625,3.6875,-8.9375,-0.13,1.26,9.22,-0.76,-0.24,-0.44,0.8,0.8
2026-03-07T04:48:15.688,64.25,3.625,-8.875,-0.13,1.26,9.22,-0.8,-0.34,-0.29,0.8,0.8
2026-03-07T04:48:15.695,65.0,3.625,-8.75,-0.17,1.1500000000000001,9.370000000000001,-0.8,-0.34,-0.29,0.8,0.8
2026-03-07T04:48:15.701,65.6875,3.5625,-8.625,-0.13,1.22,9.32,-0.75,-0.24,-0.34,0.8,0.8
2026-03-07T04:48:15.706,65.6875,3.5625,-8.625,-0.13,1.22,9.32,-0.75,-0.24,-0.34,0.8,0.8
2026-03-07T04:48:15.711,66.4375,3.5625,-8.5,-0.1,1.1400000000000001,9.3,-0.72,-0.29,-0.37,0.8,0.8
2026-03-07T04:48:15.717,66.4375,3.5625,-8.5,-0.1,1.1400000000000001,9.3,-0.67,-0.04,-0.38,0.8,0.8
2026-03-07T04:48:15.722,67.125,3.5625,-8.375,-0.05,1.3800000000000001,9.290000000000001,-0.67,-0.04,-0.38,0.8,0.8
2026-03-07T04:48:15.728,67.125,3.5625,-8.375,0.04,1.3,9.24,-0.56,-0.11,-0.43,0.8,0.8
2026-03-07T04:48:15.736,67.875,3.5625,-8.3125,0.04,1.3,9.24,-0.56,-0.11,-0.43,0.8,0.8
2026-03-07T04:48:15.741,68.5625,3.5625,-8.25,0.11,1.19,9.35,-0.49,-0.21,-0.33,0.8,0.8
2026-03-07T04:48:15.751,68.5625,3.5625,-8.25,0.11,0.96,9.36,-0.49,-0.42,-0.32,0.8,0.8
2026-03-07T04:48:15.757,69.25,3.5625,-8.125,0.11,0.96,9.36,-0.49,-0.02,-0.33,0.8,0.8
2026-03-07T04:48:15.762,69.9375,3.5625,-8.0,0.11,1.34,9.35,-0.49,-0.02,-0.33,0.8,0.8
2026-03-07T04:48:15.767,69.9375,3.5625,-8.0,0.11,1.34,9.35,-0.51,-0.31,-0.35000000000000003,0.8,0.8
2026-03-07T04:48:15.772,70.625,3.5,-7.875,0.09,1.02,9.34,-0.51,-0.31,-0.35000000000000003,0.8,0.8
2026-03-07T04:48:15.779,70.625,3.5,-7.875,0.04,1.12,9.38,-0.56,-0.19,-0.31,0.8,0.8
2026-03-07T04:48:15.786,71.3125,3.5,-7.6875,0.04,1.12,9.38,-0.56,-0.19,-0.31,0.8,0.8
2026-03-07T04:48:15.793,71.9375,3.5,-7.5625,0.0,0.8,9.23,-0.6,-0.48,-0.46,0.8,0.8
2026-03-07T04:48:15.799,71.9375,3.5,-7.5625,-0.05,-326.8,9.38,-0.66,-0.38,-0.32,0.8,0.8
2026-03-07T04:48:15.805,72.625,3.5,-7.4375,-0.05,0.88,9.38,-0.66,-0.38,-0.32,0.8,0.8
2026-03-07T04:48:15.810,73.25,3.5625,-7.375,-0.11,0.91,9.31,-0.73,-0.33,-0.38,0.8,0.8
2026-03-07T04:48:15.815,73.25,3.5625,-7.375,-0.11,0.91,9.31,-0.73,-0.33,-0.38,0.8,0.8
2026-03-07T04:48:15.822,73.875,3.5625,-7.25,-0.06,0.77,9.23,-0.68,-0.46,-0.47000000000000003,0.8,0.8
2026-03-07T04:48:15.828,73.875,3.5625,-7.25,-0.07,0.97,9.25,-0.6900000000000001,-0.25,-0.45,0.8,0.8
2026-03-07T04:48:15.837,74.5625,3.625,-7.1875,-0.07,0.97,9.25,-0.67,-0.37,-0.39,0.8,0.8
2026-03-07T04:48:15.843,75.1875,3.625,-7.125,-0.04,0.84,9.31,-0.67,-0.37,-0.39,0.8,0.8
2026-03-07T04:48:15.850,75.875,3.625,-7.0625,0.0,0.8,9.290000000000001,-0.62,-0.4,-0.41000000000000003,0.8,0.8
2026-03-07T04:48:15.855,75.875,3.625,-7.0625,0.0,0.8,9.290000000000001,-0.62,-0.4,-0.41000000000000003,0.8,0.8
2026-03-07T04:48:15.860,76.5,3.5625,-7.0,0.02,0.85,9.34,-0.59,-0.34,-0.37,0.8,0.8
2026-03-07T04:48:15.865,76.5,3.5625,-7.0,0.02,0.85,9.34,-0.59,-0.34,-0.37,0.8,0.8
2026-03-07T04:48:15.870,77.1875,3.5625,-6.875,0.02,0.76,9.5,-0.58,-0.41000000000000003,-0.21,0.8,0.8
2026-03-07T04:48:15.877,77.1875,3.5625,-6.875,0.02,0.76,9.5,-0.59,-0.31,-0.29,0.8,0.8
2026-03-07T04:48:15.883,77.875,3.5,-6.8125,0.01,0.85,9.42,-0.59,-0.31,-0.29,0.8,0.8
2026-03-07T04:48:15.889,78.5625,3.5,-6.75,-0.01,0.78,9.35,-0.62,-0.37,-0.36,0.8,0.8
2026-03-07T04:48:15.897,78.5625,3.5,-6.75,-0.01,0.78,9.35,-0.62,-0.4,-0.42,0.8,0.8
2026-03-07T04:48:15.902,79.25,3.4375,-6.6875,-0.02,0.73,9.290000000000001,-0.62,-0.4,-0.42,0.8,0.8
2026-03-07T04:48:15.908,79.25,3.4375,-6.6875,-0.01,0.9400000000000001,9.290000000000001,-0.6,-0.18,-0.42,0.8,0.8
2026-03-07T04:48:15.913,79.9375,3.4375,-6.5625,-0.01,0.9400000000000001,9.290000000000001,-0.6,-0.18,-0.42,0.8,0.8
2026-03-07T04:48:15.918,79.9375,3.4375,-6.5625,-0.03,0.88,9.47,-0.62,-0.22,-0.25,0.8,0.8
2026-03-07T04:48:15.925,80.5625,3.375,-6.4375,-0.03,0.88,9.47,-0.62,-0.22,-0.25,0.8,0.8
2026-03-07T04:48:15.930,81.25,3.375,-6.3125,-0.04,0.68,9.46,-0.62,-0.39,-0.26,0.8,0.8
2026-03-07T04:48:15.937,81.25,3.375,-6.3125,-0.04,0.68,9.46,-0.6,-0.21,-0.35000000000000003,0.8,0.8
2026-03-07T04:48:15.945,81.875,3.3125,-6.25,-0.02,0.85,9.370000000000001,-0.6,-0.21,-0.35000000000000003,0.8,0.8
2026-03-07T04:48:15.951,82.4375,3.3125,-6.25,-0.05,0.79,9.34,-0.62,-0.26,-0.38,0.8,0.8
2026-03-07T04:48:15.956,82.4375,3.3125,-6.25,-0.05,0.79,9.34,-0.58,-0.19,-0.35000000000000003,0.8,0.8
2026-03-07T04:48:15.961,83.0625,3.25,-6.1875,-0.01,0.87,9.38,-0.58,-0.19,-0.35000000000000003,0.8,0.8
2026-03-07T04:48:15.967,83.0625,3.25,-6.1875,-0.01,0.87,9.38,-0.59,-0.39,-0.3,0.8,0.8
2026-03-07T04:48:15.972,83.625,3.25,-6.1875,-0.03,0.66,9.42,-0.59,-0.39,-0.3,0.8,0.8
2026-03-07T04:48:15.978,83.625,3.25,-6.1875,0.01,0.65,9.36,-0.53,-0.38,-0.36,0.8,0.8
2026-03-07T04:48:15.986,84.25,3.1875,-6.0625,0.01,0.65,9.36,-0.5700000000000001,-0.32,-0.35000000000000003,0.8,0.8
2026-03-07T04:48:15.992,84.8125,3.1875,-6.0,-0.02,0.7000000000000001,9.38,-0.5700000000000001,-0.32,-0.35000000000000003,0.8,0.8
2026-03-07T04:48:15.999,84.8125,3.1875,-6.0,-0.02,0.73,9.33,-0.56,-0.28,-0.4,0.8,0.8
2026-03-07T04:48:16.004,85.4375,3.125,-5.9375,-0.02,0.73,9.33,-0.56,-0.28,-0.4,0.8,0.8
2026-03-07T04:48:16.009,86.0625,3.125,-5.875,-0.06,0.63,9.28,-0.59,-0.37,-0.45,0.8,0.8
2026-03-07T04:48:16.015,86.0625,3.125,-5.875,-0.06,0.63,9.28,-0.59,-0.37,-0.45,0.8,0.8
2026-03-07T04:48:16.020,86.6875,3.0625,-5.8125,-0.07,0.6900000000000001,9.31,-0.6,-0.29,-0.42,0.8,0.8
2026-03-07T04:48:16.026,86.6875,3.0625,-5.8125,-0.07,0.6900000000000001,9.31,-0.6,-0.26,-0.39,0.8,0.8
2026-03-07T04:48:16.034,87.375,3.0625,-5.75,-0.07,0.71,9.34,-0.6,-0.26,-0.39,0.8,0.8
2026-03-07T04:48:16.039,88.0625,3.0625,-5.625,-0.03,0.71,9.41,-0.56,-0.24,-0.33,0.8,0.8
2026-03-07T04:48:16.047,88.0625,3.0625,-5.625,-0.03,0.71,9.41,-0.53,-0.56,-0.31,0.8,0.8
2026-03-07T04:48:16.052,88.75,3.0625,-5.4375,0.0,0.36,9.43,-0.53,-0.56,-0.31,0.8,0.8
2026-03-07T04:48:16.057,88.75,3.0625,-5.4375,0.0,0.71,9.44,-0.51,-0.2,-0.3,0.8,0.8
2026-03-07T04:48:16.063,89.4375,3.0625,-5.3125,0.0,0.71,9.44,-0.51,-0.2,-0.3,0.8,0.8
2026-03-07T04:48:16.068,89.4375,3.0625,-5.3125,0.0,0.46,9.370000000000001,-0.51,-0.43,-0.37,0.8,0.8
2026-03-07T04:48:16.073,90.125,3.0625,-5.25,0.0,0.46,9.370000000000001,-0.51,-0.43,-0.37,0.8,0.8
2026-03-07T04:48:16.079,90.875,3.0625,-5.1875,0.03,0.71,9.39,-0.49,-0.17,-0.35000000000000003,0.8,0.8
2026-03-07T04:48:16.087,90.875,3.0625,-5.1875,0.03,0.71,9.39,-0.43,-0.27,-0.4,0.8,0.8
2026-03-07T04:48:16.094,91.5625,3.0,-5.125,0.08,0.6,9.35,-0.43,-0.27,-0.4,0.8,0.8
2026-03-07T04:48:16.100,92.3125,3.0,-5.0625,0.11,0.43,9.39,-0.4,-0.43,-0.35000000000000003,0.8,0.8
2026-03-07T04:48:16.105,92.3125,3.0,-5.0625,0.11,0.43,9.39,-0.4,-0.43,-0.35000000000000003,0.8,0.8
2026-03-07T04:48:16.110,93.0625,3.0,-4.9375,0.13,0.52,9.42,-0.38,-0.32,-0.32,0.8,0.8
2026-03-07T04:48:16.116,93.0625,3.0,-4.9375,0.13,0.52,9.42,-0.44,-0.39,-0.36,0.8,0.8
2026-03-07T04:48:16.121,93.75,3.0,-4.875,0.07,0.44,9.39,-0.44,-0.39,-0.36,0.8,0.8
2026-03-07T04:48:16.127,93.75,3.0,-4.875,0.03,0.26,9.4,-0.48,-0.55,-0.35000000000000003,0.8,0.8
2026-03-07T04:48:16.135,94.5,3.0,-4.75,0.03,0.26,9.4,-0.48,-0.55,-0.35000000000000003,0.8,0.8
2026-03-07T04:48:16.141,95.25,2.9375,-4.6875,-0.03,0.28,9.42,-0.54,-0.51,-0.33,0.8,0.8
2026-03-07T04:48:16.148,95.25,2.9375,-4.6875,-0.04,0.54,9.540000000000001,-0.55,-0.24,-0.21,0.8,0.8
2026-03-07T04:48:16.153,96.0,2.9375,-4.5625,-0.04,0.54,9.540000000000001,-0.55,-0.24,-0.21,0.8,0.8
2026-03-07T04:48:16.158,96.0,2.9375,-4.5625,-0.07,-0.03,9.41,-0.58,-0.79,-0.34,0.8,0.8
2026-03-07T04:48:16.163,96.75,2.9375,-4.4375,-0.07,-0.03,9.41,-0.58,-0.79,-0.34,0.8,0.8
2026-03-07T04:48:16.169,96.75,2.9375,-4.4375,-0.12,0.38,9.46,-0.63,-0.35000000000000003,-0.3,0.8,0.8
2026-03-07T04:48:16.176,97.4375,2.9375,-4.3125,-0.12,0.38,9.46,-0.6900000000000001,-0.63,-0.42,0.8,0.8
2026-03-07T04:48:16.183,98.125,2.9375,-4.1875,-0.17,0.08,9.33,-0.6900000000000001,-0.63,-0.42,0.8,0.8
2026-03-07T04:48:16.189,98.8125,2.9375,-4.0625,-0.18,0.49,9.33,-0.6900000000000001,-0.19,-0.43,0.8,0.8
2026-03-07T04:48:16.197,98.8125,2.9375,-4.0625,-0.18,0.49,9.33,-0.71,-0.25,-0.37,0.8,0.8
2026-03-07T04:48:16.202,99.5,2.875,-3.9375,-0.21,0.42,9.39,-0.71,-0.25,-0.37,0.8,0.8
2026-03-07T04:48:16.207,99.5,2.875,-3.9375,-0.13,0.29,9.370000000000001,-0.63,-0.35000000000000003,-0.4,0.8,0.8
2026-03-07T04:48:16.216,100.1875,2.875,-3.75,-0.13,0.29,9.370000000000001,-0.51,-0.09,-0.32,0.8,0.8
2026-03-07T04:48:16.221,100.8125,2.875,-3.625,-0.01,0.53,9.44,-0.51,-0.09,-0.32,0.8,0.8
2026-03-07T04:48:16.227,100.8125,2.875,-3.625,-0.01,0.3,9.43,-0.5,-0.3,-0.33,0.8,0.8
2026-03-07T04:48:16.235,101.5,2.875,-3.5,-0.01,0.3,9.43,-0.5,-0.3,-0.33,0.8,0.8
2026-03-07T04:48:16.241,102.1875,2.875,-3.375,-0.01,0.09,9.43,-0.5,-0.48,-0.33,0.8,0.8
2026-03-07T04:48:16.248,102.1875,2.875,-3.375,-0.01,0.26,9.38,-0.51,-0.28,-0.39,0.8,0.8
2026-03-07T04:48:16.253,102.875,2.8125,-3.25,-0.01,0.26,9.38,-0.51,-0.28,-0.39,0.8,0.8
2026-03-07T04:48:16.258,102.875,2.8125,-3.25,-0.09,0.12,9.450000000000001,-0.58,-0.41000000000000003,-0.32,0.8,0.8
2026-03-07T04:48:16.263,103.5625,2.8125,-3.125,-0.09,0.12,9.450000000000001,-0.58,-0.41000000000000003,-0.32,0.8,0.8
2026-03-07T04:48:16.269,104.1875,2.8125,-3.0,-0.11,0.11,9.51,-0.59,-0.39,-0.26,0.8,0.8
2026-03-07T04:48:16.275,104.1875,2.8125,-3.0,-0.11,0.11,9.51,-0.59,-0.39,-0.26,0.8,0.8
2026-03-07T04:48:16.281,104.875,2.8125,-2.875,-0.11,0.11,9.450000000000001,-0.6,-0.38,-0.32,0.8,0.8
2026-03-07T04:48:16.287,104.875,2.8125,-2.875,-0.19,-0.04,9.5,-0.66,-0.51,-0.28,0.8,0.8
2026-03-07T04:48:16.295,105.5625,2.75,-2.75,-0.19,-0.04,9.5,-0.58,-0.41000000000000003,-0.22,0.8,0.8
2026-03-07T04:48:16.300,106.1875,2.75,-2.625,-0.11,0.03,9.55,-0.58,-0.41000000000000003,-0.22,0.8,0.8
2026-03-07T04:48:16.305,106.1875,2.75,-2.625,-0.11,0.03,9.55,-0.5700000000000001,-0.33,-0.31,0.8,0.8
2026-03-07T04:48:16.310,106.8125,2.6875,-2.5625,-0.1,0.1,9.46,-0.5700000000000001,-0.33,-0.31,0.8,0.8
2026-03-07T04:48:16.316,106.8125,2.6875,-2.5625,-0.1,0.1,9.46,-0.5,-0.48,-0.3,0.8,0.8
2026-03-07T04:48:16.321,107.4375,2.6875,-2.5,-0.04,-0.05,9.48,-0.5,-0.48,-0.3,0.8,0.8
2026-03-07T04:48:16.327,107.4375,2.6875,-2.5,0.12,0.05,9.47,-0.33,-0.36,-0.31,0.8,0.8
2026-03-07T04:48:16.335,108.0625,2.6875,-2.375,0.12,0.05,9.47,-0.31,-0.42,-0.3,0.8,0.8
2026-03-07T04:48:16.341,108.6875,2.6875,-2.3125,0.14,-0.02,9.48,-0.31,-0.42,-0.3,0.8,0.8
2026-03-07T04:48:16.348,108.6875,2.6875,-2.3125,0.15,0.09,9.43,-0.31,-0.3,-0.35000000000000003,0.8,0.8
2026-03-07T04:48:16.353,109.375,2.6875,-2.25,0.15,0.09,9.43,-0.31,-0.3,-0.35000000000000003,0.8,0.8
2026-03-07T04:48:16.358,109.375,2.6875,-2.25,0.17,0.08,9.48,-0.29,-0.3,-0.3,0.8,0.8
2026-03-07T04:48:16.363,110.0,2.6875,-2.1875,0.17,0.08,9.48,-0.29,-0.3,-0.3,0.8,0.8
2026-03-07T04:48:16.368,110.625,2.6875,-2.1875,0.15,0.22,9.4,-0.31,-0.14,-0.38,0.8,0.8
2026-03-07T04:48:16.375,110.625,2.6875,-2.1875,0.15,0.22,9.4,-0.39,-0.49,-0.36,0.8,0.8
2026-03-07T04:48:16.381,111.3125,2.6875,-2.0625,0.07,-0.12,9.42,-0.39,-0.49,-0.36,0.8,0.8
2026-03-07T04:48:16.387,111.3125,2.6875,-2.0625,0.03,0.38,9.64,-0.43,0.03,-0.14,0.8,0.8
2026-03-07T04:48:16.395,111.9375,2.6875,-2.0,0.03,0.38,9.64,-0.47000000000000003,-0.15,-0.31,0.8,0.8
2026-03-07T04:48:16.400,112.625,2.6875,-1.9375,0.0,0.18,9.47,-0.47000000000000003,-0.15,-0.31,0.8,0.8
2026-03-07T04:48:16.407,112.625,2.6875,-1.9375,0.0,0.18,9.47,-0.5700000000000001,-0.31,-0.3,0.8,0.8
2026-03-07T04:48:16.412,113.3125,2.6875,-1.875,-0.1,0.0,9.48,-0.5700000000000001,-0.31,-0.3,0.8,0.8
2026-03-07T04:48:16.417,113.3125,2.6875,-1.875,-0.13,0.11,9.43,-0.6,-0.18,-0.35000000000000003,0.8,0.8
2026-03-07T04:48:16.424,113.9375,2.6875,-1.75,-0.13,0.11,9.43,-0.6,-0.18,-0.35000000000000003,0.8,0.8
2026-03-07T04:48:16.430,114.5625,2.6875,-1.6875,-0.12,0.01,9.38,-0.58,-0.26,-0.41000000000000003,0.8,0.8
2026-03-07T04:48:16.437,114.5625,2.6875,-1.6875,0.02,-0.38,9.5,-0.44,-0.65,-0.29,0.8,0.8
2026-03-07T04:48:16.445,115.1875,2.6875,-1.5625,0.02,-0.38,9.5,-0.4,-0.46,-0.41000000000000003,0.8,0.8
2026-03-07T04:48:16.450,115.8125,2.75,-1.4375,0.07,-0.2,9.38,-0.4,-0.46,-0.41000000000000003,0.8,0.8
2026-03-07T04:48:16.456,115.8125,2.75,-1.4375,0.07,-0.2,9.38,-0.39,-0.35000000000000003,-0.33,0.8,0.8
2026-03-07T04:48:16.461,116.4375,2.75,-1.375,0.08,-0.11,9.450000000000001,-0.39,-0.35000000000000003,-0.33,0.8,0.8
2026-03-07T04:48:16.466,116.4375,2.75,-1.375,0.14,-0.39,9.49,-0.33,-0.61,-0.29,0.8,0.8
2026-03-07T04:48:16.474,117.125,2.75,-1.25,0.14,-0.39,9.49,-0.33,-0.61,-0.29,0.8,0.8
2026-03-07T04:48:16.481,117.8125,2.8125,-1.1875,0.15,-0.16,9.42,-0.32,-0.37,-0.36,0.8,0.8
2026-03-07T04:48:16.487,117.8125,2.8125,-1.1875,0.12,-0.38,9.43,-0.35000000000000003,-0.58,-0.35000000000000003,0.8,0.8
2026-03-07T04:48:16.495,118.5,2.8125,-1.125,0.12,-0.38,9.43,-0.41000000000000003,-0.55,-0.29,0.8,0.8
2026-03-07T04:48:16.500,119.1875,2.8125,-1.0,0.07,-0.37,9.49,-0.41000000000000003,-0.55,-0.29,0.8,0.8
2026-03-07T04:48:16.506,119.1875,2.8125,-1.0,0.07,-0.37,9.49,-0.42,-0.41000000000000003,-0.19,0.8,0.8
2026-03-07T04:48:16.511,119.875,2.75,-0.9375,0.05,-0.24,9.59,-0.42,-0.41000000000000003,-0.19,0.8,0.8
2026-03-07T04:48:16.516,119.875,2.75,-0.9375,-0.03,-0.35000000000000003,9.46,-0.51,-0.51,-0.32,0.8,0.8
2026-03-07T04:48:16.522,120.5625,2.75,-0.875,-0.03,-0.35000000000000003,9.46,-0.51,-0.51,-0.32,0.8,0.8
2026-03-07T04:48:16.528,121.25,2.75,-0.8125,-0.03,-0.33,9.44,-0.5,-0.47000000000000003,-0.34,0.8,0.8
2026-03-07T04:48:16.535,121.25,2.75,-0.8125,-0.03,-0.33,9.44,-0.46,-0.21,-0.34,0.8,0.8
2026-03-07T04:48:16.543,121.9375,2.6875,-0.75,0.0,-0.08,9.450000000000001,-0.46,-0.21,-0.34,0.8,0.8
2026-03-07T04:48:16.548,122.625,2.6875,-0.625,-0.03,-0.06,9.450000000000001,-0.5,-0.17,-0.34,0.8,0.8
2026-03-07T04:48:16.554,122.625,2.6875,-0.625,-0.03,-0.06,9.450000000000001,-0.5,-0.17,-0.34,0.8,0.8
2026-03-07T04:48:16.559,123.25,2.6875,-0.5625,-0.02,-0.4,9.49,-0.49,-0.5,-0.29,0.8,0.8
2026-03-07T04:48:16.564,123.25,2.6875,-0.5625,-0.02,-0.4,9.49,-0.46,-0.04,-0.31,0.8,0.8
2026-03-07T04:48:16.569,123.8125,2.6875,-0.4375,0.0,0.03,9.48,-0.46,-0.04,-0.31,0.8,0.8
2026-03-07T04:48:16.576,123.8125,2.6875,-0.4375,0.0,0.03,9.48,-0.49,-0.25,-0.35000000000000003,0.8,0.8
2026-03-07T04:48:16.583,124.4375,2.6875,-0.3125,-0.02,-0.19,9.44,-0.49,-0.25,-0.35000000000000003,0.8,0.8
2026-03-07T04:48:16.588,125.0,2.625,-0.1875,-0.04,-0.29,9.47,-0.5,-0.33,-0.31,0.8,0.8
2026-03-07T04:48:16.596,125.0,2.625,-0.1875,-0.02,-0.2,9.44,-0.48,-0.22,-0.35000000000000003,0.8,0.8
2026-03-07T04:48:16.601,125.625,2.625,-0.0625,-0.02,-0.2,9.44,-0.48,-0.22,-0.35000000000000003,0.8,0.8
2026-03-07T04:48:16.606,125.625,2.625,-0.0625,0.0,-1.6600000000000001,9.53,-0.46,-0.37,-0.26,0.8,0.8
2026-03-07T04:48:16.611,126.1875,2.625,0.0,0.0,-0.38,9.53,-0.46,-0.37,-0.26,0.8,0.8
2026-03-07T04:48:16.617,126.1875,2.625,0.0,-0.04,-0.33,9.6,-0.49,-0.3,-0.19,0.8,0.8
2026-03-07T04:48:16.623,126.75,2.625,0.1875,-0.04,-0.33,9.6,-0.49,-0.3,-0.19,0.8,0.8
2026-03-07T04:48:16.629,127.3125,2.5625,0.3125,-0.04,-0.5,9.5,-0.49,-0.44,-0.29,0.8,0.8
2026-03-07T04:48:16.636,127.3125,2.5625,0.3125,-0.02,-0.66,9.450000000000001,-0.47000000000000003,-0.5700000000000001,-0.33,0.8,0.8
2026-03-07T04:48:16.644,127.875,2.625,0.5,-0.02,-0.66,9.450000000000001,-0.5,-0.47000000000000003,-0.26,0.8,0.8
2026-03-07T04:48:16.650,128.4375,2.625,0.625,-0.05,-0.58,9.52,-0.5,-0.47000000000000003,-0.26,0.8,0.8
2026-03-07T04:48:16.655,128.4375,2.625,0.625,-0.05,-0.58,9.52,-0.54,-0.42,-0.28,0.8,0.8
2026-03-07T04:48:16.660,129.0,2.625,0.75,-0.09,-0.56,9.5,-0.54,-0.42,-0.28,0.8,0.8
2026-03-07T04:48:16.665,129.0,2.625,0.75,-0.09,-0.56,9.5,-0.52,-0.6,-0.31,0.8,0.8
2026-03-07T04:48:16.672,129.5625,2.625,0.8125,-0.06,-0.74,9.48,-0.52,-0.6,-0.31,0.8,0.8
2026-03-07T04:48:16.683,130.0625,2.625,0.9375,-0.04,-0.59,9.51,-0.49,-0.43,-0.28,0.8,0.8
2026-03-07T04:48:16.688,130.5625,2.5625,1.0,0.01,-0.61,9.39,-0.43,-0.43,-0.39,0.8,0.8
2026-03-07T04:48:16.696,130.5625,2.5625,1.0,0.02,-0.8,9.48,-0.41000000000000003,-0.61,-0.3,0.8,0.8
2026-03-07T04:48:16.701,131.0625,2.5625,1.125,0.02,-0.8,9.48,-0.41000000000000003,-0.61,-0.3,0.8,0.8
2026-03-07T04:48:16.706,131.0625,2.5625,1.125,0.08,-0.72,9.5,-0.35000000000000003,-0.51,-0.29,0.8,0.8
2026-03-07T04:48:16.712,131.625,2.5,1.1875,0.08,-0.72,9.5,-0.35000000000000003,-0.51,-0.29,0.8,0.8
2026-03-07T04:48:16.717,132.125,2.5,1.1875,0.06,-0.67,9.43,-0.37,-0.46,-0.35000000000000003,0.8,0.8
2026-03-07T04:48:16.723,132.125,2.5,1.1875,0.06,-0.67,9.43,-0.37,-0.46,-0.35000000000000003,0.8,0.8
2026-03-07T04:48:16.729,132.6875,2.5,1.25,0.05,-0.84,9.48,-0.37,-0.62,-0.3,0.8,0.8
2026-03-07T04:48:16.736,132.6875,2.5,1.25,0.0,-0.79,9.48,-0.41000000000000003,-0.56,-0.31,0.8,0.8
2026-03-07T04:48:16.744,133.25,2.4375,1.3125,0.0,-0.79,9.48,-0.41000000000000003,-0.56,-0.31,0.8,0.8
2026-03-07T04:48:16.749,133.8125,2.4375,1.3125,-0.01,-0.71,9.47,-0.43,-0.48,-0.32,0.8,0.8
2026-03-07T04:48:16.754,133.8125,2.4375,1.3125,-0.01,-0.71,9.47,-0.43,-0.46,-0.34,0.8,0.8
2026-03-07T04:48:16.759,134.375,2.4375,1.3125,-0.01,-0.6900000000000001,9.44,-0.43,-0.46,-0.34,0.8,0.8
2026-03-07T04:48:16.765,134.375,2.4375,1.3125,-0.01,-0.6900000000000001,9.44,-0.42,-0.59,-0.27,0.8,0.8
2026-03-07T04:48:16.770,135.0,2.375,1.3125,0.0,-0.8300000000000001,9.52,-0.42,-0.59,-0.27,0.8,0.8
2026-03-07T04:48:16.776,135.0,2.375,1.3125,0.05,-0.6,9.49,-0.35000000000000003,-0.37,-0.29,0.8,0.8
2026-03-07T04:48:16.784,135.5625,2.375,1.3125,0.05,-0.6,9.49,-0.34,-0.45,-0.33,0.8,0.8
2026-03-07T04:48:16.790,136.125,2.375,1.3125,0.06,-0.68,9.450000000000001,-0.34,-0.45,-0.33,0.8,0.8
2026-03-07T04:48:16.796,136.125,2.375,1.3125,0.07,-0.68,9.47,-0.33,-0.45,-0.31,0.8,0.8
2026-03-07T04:48:16.802,136.75,2.375,1.3125,0.07,-0.68,9.47,-0.33,-0.45,-0.31,0.8,0.8
2026-03-07T04:48:16.807,137.3125,2.375,1.3125,0.09,-0.61,9.540000000000001,-0.31,-0.38,-0.24,0.8,0.8
2026-03-07T04:48:16.812,137.3125,2.375,1.3125,0.09,-0.61,9.540000000000001,-0.31,-0.38,-0.24,0.8,0.8
2026-03-07T04:48:16.817,137.8125,2.375,1.25,0.09,-0.5,9.47,-0.31,-0.28,-0.32,0.8,0.8
2026-03-07T04:48:16.824,137.8125,2.375,1.25,0.09,-0.5,9.47,-0.31,-0.44,-0.33,0.8,0.8
2026-03-07T04:48:16.830,138.3125,2.3125,1.25,0.08,-0.67,9.450000000000001,-0.31,-0.44,-0.33,0.8,0.8
2026-03-07T04:48:16.836,138.3125,2.3125,1.25,0.15,-0.72,9.48,-0.25,-0.5,-0.3,0.8,0.8
2026-03-07T04:48:16.844,138.8125,2.3125,1.3125,0.15,-0.72,9.48,-0.3,-0.3,-0.3,0.8,0.8
2026-03-07T04:48:16.849,139.25,2.3125,1.25,0.09,-0.52,9.49,-0.3,-0.3,-0.3,0.8,0.8
2026-03-07T04:48:16.855,139.25,2.3125,1.25,0.09,-0.52,9.49,-0.34,-0.44,-0.32,0.8,0.8
2026-03-07T04:48:16.860,139.75,2.3125,1.25,0.05,-0.65,9.47,-0.34,-0.44,-0.32,0.8,0.8
2026-03-07T04:48:16.865,139.75,2.3125,1.25,0.04,-0.62,9.46,-0.35000000000000003,-0.4,-0.33,0.8,0.8
2026-03-07T04:48:16.871,140.25,2.3125,1.25,0.04,-0.62,9.46,-0.35000000000000003,-0.4,-0.33,0.8,0.8
2026-03-07T04:48:16.876,140.75,2.3125,1.25,0.02,-0.55,9.46,-0.36,-0.33,-0.32,0.8,0.8
2026-03-07T04:48:16.884,140.75,2.3125,1.25,0.02,-0.55,9.46,-0.39,-0.38,-0.33,0.8,0.8
2026-03-07T04:48:16.891,141.25,2.25,1.25,0.0,-0.6,9.450000000000001,-0.39,-0.38,-0.33,0.8,0.8
2026-03-07T04:48:16.897,141.75,2.25,1.3125,-0.03,-0.62,9.48,-0.42,-0.39,-0.31,0.8,0.8
2026-03-07T04:48:16.902,141.75,2.25,1.3125,-0.03,-0.62,9.48,-0.42,-0.39,-0.31,0.8,0.8
2026-03-07T04:48:16.908,142.3125,2.25,1.3125,0.0,-0.53,9.450000000000001,-0.39,-0.31,-0.34,0.8,0.8
2026-03-07T04:48:16.913,142.3125,2.25,1.3125,0.0,-0.53,9.450000000000001,-0.39,-0.31,-0.34,0.8,0.8
2026-03-07T04:48:16.918,142.8125,2.25,1.3125,0.0,-0.55,9.46,-0.38,-0.32,-0.32,0.8,0.8
2026-03-07T04:48:16.925,142.8125,2.25,1.3125,0.04,-0.67,9.42,-0.33,-0.43,-0.37,0.8,0.8
2026-03-07T04:48:16.932,143.375,2.1875,1.375,0.04,-0.67,9.42,-0.33,-0.43,-0.37,0.8,0.8
2026-03-07T04:48:16.938,143.9375,2.1875,1.4375,0.05,-0.59,9.450000000000001,-0.33,-0.34,-0.33,0.8,0.8
2026-03-07T04:48:16.945,143.9375,2.1875,1.4375,0.04,-0.63,9.48,-0.33,-0.38,-0.31,0.8,0.8
2026-03-07T04:48:16.950,144.5,2.1875,1.4375,0.04,-0.63,9.48,-0.33,-0.38,-0.31,0.8,0.8
2026-03-07T04:48:16.956,144.5,2.1875,1.4375,0.02,-0.55,9.41,-0.35000000000000003,-0.29,-0.37,0.8,0.8
2026-03-07T04:48:16.961,145.125,2.1875,1.4375,0.02,-0.55,9.41,-0.35000000000000003,-0.29,-0.37,0.8,0.8
2026-03-07T04:48:16.966,145.125,2.1875,1.4375,0.0,-0.6,9.5,-0.37,-0.33,-0.29,0.8,0.8
2026-03-07T04:48:16.973,145.6875,2.1875,1.5,0.0,-0.6,9.5,-0.37,-0.33,-0.29,0.8,0.8
2026-03-07T04:48:16.979,146.1875,2.1875,1.5625,0.01,-0.58,9.450000000000001,-0.35000000000000003,-0.31,-0.34,0.8,0.8
2026-03-07T04:48:16.985,146.1875,2.1875,1.5625,0.0,-0.53,9.39,-0.37,-0.25,-0.39,0.8,0.8
2026-03-07T04:48:16.993,146.75,2.1875,1.625,0.0,-0.53,9.39,-0.36,-0.43,-0.31,0.8,0.8
2026-03-07T04:48:16.998,147.3125,2.1875,1.6875,0.0,-0.72,9.48,-0.36,-0.43,-0.31,0.8,0.8
2026-03-07T04:48:17.003,147.3125,2.1875,1.6875,0.0,-0.72,9.48,-0.39,-0.3,-0.18,0.8,0.8
2026-03-07T04:48:17.008,147.875,2.1875,1.75,-0.02,-0.61,9.6,-0.39,-0.3,-0.18,0.8,0.8
2026-03-07T04:48:17.014,147.875,2.1875,1.75,-0.02,-0.61,9.6,-0.42,-0.27,-0.3,0.8,0.8
2026-03-07T04:48:17.019,148.5,2.125,1.8125,-0.04,-0.59,9.48,-0.42,-0.27,-0.3,0.8,0.8
2026-03-07T04:48:17.025,148.5,2.125,1.8125,-0.09,-0.74,9.49,-0.46,-0.41000000000000003,-0.29,0.8,0.8
2026-03-07T04:48:17.033,149.0625,2.125,1.9375,-0.09,-0.74,9.49,-0.42,-0.37,-0.31,0.8,0.8
2026-03-07T04:48:17.039,149.625,2.125,2.0,-0.06,-0.72,9.47,-0.42,-0.37,-0.31,0.8,0.8
2026-03-07T04:48:17.046,149.625,2.125,2.0,-0.07,-0.6900000000000001,9.450000000000001,-0.44,-0.33,-0.33,0.8,0.8
2026-03-07T04:48:17.051,150.1875,2.125,2.0625,-0.07,-0.6900000000000001,9.450000000000001,-0.44,-0.33,-0.33,0.8,0.8
2026-03-07T04:48:17.056,150.75,2.0625,2.1875,-0.04,-0.87,9.450000000000001,-0.4,-0.49,-0.33,0.8,0.8
2026-03-07T04:48:17.061,150.75,2.0625,2.1875,-0.04,-0.87,9.450000000000001,-0.4,-0.49,-0.33,0.8,0.8
2026-03-07T04:48:17.066,-1896.6875,2.0625,2.25,-0.03,-0.8,9.64,-0.39,-0.41000000000000003,-0.14,0.8,0.8
2026-03-07T04:48:17.072,151.3125,2.0625,2.25,-0.03,-0.8,9.64,-0.39,-0.41000000000000003,-0.14,0.8,0.8
2026-03-07T04:48:17.078,151.875,2.0625,2.3125,-0.03,-0.81,9.48,-0.39,-0.41000000000000003,-0.3,0.8,0.8
2026-03-07T04:48:17.085,151.875,2.0625,2.3125,-0.06,-0.84,9.48,-0.41000000000000003,-0.42,-0.31,0.8,0.8
2026-03-07T04:48:17.093,152.4375,2.0,2.4375,-0.06,-0.84,9.48,-0.42,-0.41000000000000003,-0.26,0.8,0.8
2026-03-07T04:48:17.098,152.9375,2.0,2.4375,-0.07,-0.84,9.52,-0.42,-0.41000000000000003,-0.26,0.8,0.8
2026-03-07T04:48:17.103,152.9375,2.0,2.4375,-0.07,-0.84,9.52,-0.43,-0.33,-0.32,0.8,0.8
2026-03-07T04:48:17.108,153.4375,2.0,2.5,-0.08,-0.76,9.46,-0.43,-0.33,-0.32,0.8,0.8
2026-03-07T04:48:17.114,153.4375,2.0,2.5,-0.08,-0.76,9.46,-0.39,-0.37,-0.34,0.8,0.8
2026-03-07T04:48:17.119,153.9375,2.0,2.5,-0.05,-0.8,9.44,-0.39,-0.37,-0.34,0.8,0.8
2026-03-07T04:48:17.125,153.9375,2.0,2.5,0.0,-0.93,9.450000000000001,-0.32,-0.49,-0.33,0.8,0.8
2026-03-07T04:48:17.136,154.4375,1.9375,2.5625,0.0,-0.93,9.450000000000001,-0.29,-0.44,-0.31,0.8,0.8
2026-03-07T04:48:17.144,154.875,1.9375,2.5625,0.04,-0.88,9.47,-0.29,-0.35000000000000003,-0.35000000000000003,0.8,0.8
2026-03-07T04:48:17.149,155.375,1.9375,2.5625,0.03,-0.79,9.43,-0.29,-0.18,-0.01,0.8,0.8
2026-03-07T04:48:17.155,155.375,1.9375,2.5625,0.03,-0.8,9.5,-0.29,-0.36,-0.29,0.8,0.8
2026-03-07T04:48:17.160,155.9375,1.9375,2.5625,0.03,-0.8,9.5,-0.29,-0.36,-0.29,0.8,0.8
2026-03-07T04:48:17.165,155.9375,1.9375,2.5625,0.01,-0.88,9.5,-0.31,-0.42,-0.28,0.8,0.8
2026-03-07T04:48:17.171,156.4375,1.9375,2.625,0.01,-0.88,9.5,-0.31,-0.42,-0.28,0.8,0.8
2026-03-07T04:48:17.176,156.9375,1.9375,2.625,-0.01,-0.76,9.47,-0.35000000000000003,-0.31,-0.31,0.8,0.8
2026-03-07T04:48:17.184,156.9375,1.9375,2.625,-0.01,-0.76,9.47,-0.35000000000000003,-0.36,-0.33,0.8,0.8
2026-03-07T04:48:17.191,157.5,1.875,2.625,-0.01,-0.81,9.450000000000001,-0.35000000000000003,-0.36,-0.33,0.8,0.8
2026-03-07T04:48:17.196,158.0625,1.875,2.5625,-0.11,-0.79,9.43,-0.44,-0.34,-0.35000000000000003,0.8,0.8
2026-03-07T04:48:17.202,158.0625,1.875,2.5625,-0.11,-0.79,9.43,-0.44,-0.34,-0.35000000000000003,0.8,0.8
2026-03-07T04:48:17.207,158.6875,1.875,2.5625,-0.12,-0.81,9.450000000000001,-0.45,-0.38,-0.33,0.8,0.8
2026-03-07T04:48:17.212,158.6875,1.875,2.5625,-0.12,-0.81,9.450000000000001,-0.43,-0.42,-0.32,0.8,0.8
2026-03-07T04:48:17.218,159.25,1.875,2.5,-0.11,-0.85,9.47,-0.43,-0.42,-0.32,0.8,0.8
2026-03-07T04:48:17.224,159.25,1.875,2.5,-0.1,-0.68,9.55,-0.42,-0.26,-0.23,0.8,0.8
2026-03-07T04:48:17.232,159.875,1.875,2.4375,-0.1,-0.68,9.55,-0.42,-0.26,-0.23,0.8,0.8
2026-03-07T04:48:17.238,160.5,1.875,2.375,-0.04,-0.71,9.48,-0.37,-0.3,-0.31,0.8,0.8
2026-03-07T04:48:17.245,160.5,1.875,2.375,0.0,-0.6900000000000001,9.5,-0.33,-0.3,-0.29,0.8,0.8
2026-03-07T04:48:17.250,161.125,1.875,2.25,0.0,-0.6900000000000001,9.5,-0.33,-0.3,-0.29,0.8,0.8
2026-03-07T04:48:17.255,161.125,1.875,2.25,0.0,-0.51,9.47,-0.33,-0.14,-0.32,0.8,0.8
2026-03-07T04:48:17.260,161.75,1.875,2.125,0.0,-0.51,9.47,-0.33,-0.14,-0.32,0.8,0.8
2026-03-07T04:48:17.266,162.375,1.875,2.0625,0.1,-0.8,9.49,-0.22,-0.45,-0.29,0.8,0.8
2026-03-07T04:48:17.272,162.375,1.875,2.0625,0.1,-0.8,9.49,-0.22,-0.45,-0.29,0.8,0.8
2026-03-07T04:48:17.278,162.9375,1.9375,1.9375,0.13,-0.55,9.5,-0.19,-0.21,-0.29,0.8,0.8
2026-03-07T04:48:17.285,162.9375,1.9375,1.9375,0.15,-0.52,9.5,-0.18,-0.18,-0.28,0.8,0.8
2026-03-07T04:48:17.292,163.5,1.9375,1.9375,0.15,-0.52,9.5,-0.2,-0.22,-0.33,0.8,0.8
2026-03-07T04:48:17.297,164.0625,1.9375,1.875,0.12,-0.54,9.450000000000001,-0.2,-0.22,-0.33,0.8,0.8
2026-03-07T04:48:17.303,164.0625,1.9375,1.875,0.12,-0.54,9.450000000000001,-0.2,-0.19,-0.25,0.8,0.8
2026-03-07T04:48:17.308,164.625,1.9375,1.8125,0.13,-0.51,9.53,-0.2,-0.19,-0.25,0.8,0.8
2026-03-07T04:48:17.313,164.625,1.9375,1.8125,0.14,-0.41000000000000003,9.39,-0.19,-0.1,-0.39,0.8,0.8
2026-03-07T04:48:17.319,165.1875,2.0,1.75,0.14,-0.41000000000000003,9.39,-0.19,-0.1,-0.39,0.8,0.8
2026-03-07T04:48:17.325,165.1875,2.0,1.75,0.1,-0.61,9.38,-0.24,-0.31,-0.41000000000000003,0.8,0.8
2026-03-07T04:48:17.332,165.75,2.0,1.75,0.1,-0.61,9.38,-0.25,-0.3,-0.29,0.8,0.8
2026-03-07T04:48:17.339,166.3125,2.0,1.75,0.09,-0.6,9.5,-0.25,-0.3,-0.29,0.8,0.8
2026-03-07T04:48:17.345,166.875,2.0,1.75,0.0,-0.6,9.370000000000001,-0.33,-0.29,-0.42,0.8,0.8
2026-03-07T04:48:17.350,166.875,2.0,1.75,0.0,-0.6,9.370000000000001,-0.33,-0.29,-0.42,0.8,0.8
2026-03-07T04:48:17.356,167.5,2.0,1.8125,0.0,-0.73,9.46,-0.34,-0.42,-0.33,0.8,0.8
2026-03-07T04:48:17.361,167.5,2.0,1.8125,0.0,-0.73,9.46,-0.34,-0.42,-0.33,0.8,0.8
2026-03-07T04:48:17.366,168.0625,2.0,1.875,0.0,-0.61,9.52,-0.35000000000000003,-0.29,-0.26,0.8,0.8
2026-03-07T04:48:17.372,168.0625,2.0,1.875,0.0,-0.61,9.52,-0.37,-0.19,-0.34,0.8,0.8
2026-03-07T04:48:17.379,168.625,2.0,1.875,-0.03,-0.52,9.450000000000001,-0.37,-0.19,-0.34,0.8,0.8
2026-03-07T04:48:17.385,169.25,2.0,1.875,-0.03,-0.74,9.39,-0.37,-0.41000000000000003,-0.39,0.8,0.8
2026-03-07T04:48:17.393,169.25,2.0,1.875,-0.03,-0.74,9.39,-0.36,-0.39,-0.36,0.8,0.8
2026-03-07T04:48:17.398,169.8125,2.0,1.9375,-0.02,-0.73,9.42,-0.36,-0.39,-0.36,0.8,0.8
2026-03-07T04:48:17.403,169.8125,2.0,1.9375,0.01,-0.65,9.52,-0.32,-0.31,-0.27,0.8,0.8
2026-03-07T04:48:17.409,170.4375,2.0,2.0,0.01,-0.65,9.52,-0.32,-0.31,-0.27,0.8,0.8
2026-03-07T04:48:17.415,171.0,1.9375,2.0625,0.03,-0.72,9.43,-0.3,-0.37,-0.36,0.8,0.8
2026-03-07T04:48:17.421,171.0,1.9375,2.0625,0.03,-0.72,9.43,-0.3,-0.37,-0.36,0.8,0.8
2026-03-07T04:48:17.427,171.625,1.9375,2.125,0.05,-0.66,9.47,-0.28,-0.29,-0.31,0.8,0.8
2026-03-07T04:48:17.434,171.625,1.9375,2.125,0.02,-0.62,9.42,-0.31,-0.24,-0.36,0.8,0.8
2026-03-07T04:48:17.442,172.25,2.0,2.1875,0.02,-0.62,9.42,-0.31,-0.24,-0.36,0.8,0.8
2026-03-07T04:48:17.447,172.875,2.0,2.3125,0.02,-0.8200000000000001,9.53,-0.31,-0.42,-0.25,0.8,0.8
2026-03-07T04:48:17.452,172.875,2.0,2.3125,0.02,-0.8200000000000001,9.53,-0.4,-0.13,-0.33,0.8,0.8
2026-03-07T04:48:17.457,173.5,2.0,2.375,-0.06,-0.55,9.450000000000001,-0.4,-0.13,-0.33,0.8,0.8
2026-03-07T04:48:17.463,173.5,2.0,2.375,-0.06,-0.55,9.450000000000001,-0.36,-0.36,-0.35000000000000003,0.8,0.8
2026-03-07T04:48:17.468,174.1875,2.0,2.4375,-0.02,-0.79,9.43,-0.36,-0.36,-0.35000000000000003,0.8,0.8
2026-03-07T04:48:17.474,174.1875,2.0,2.4375,0.0,-0.7000000000000001,9.47,-0.35000000000000003,-0.26,-0.31,0.8,0.8
2026-03-07T04:48:43.738,0.0,0.0,0.0,0.02,-0.79,9.48,0.0,0.0,0.0,0.8,0.8
2026-03-07T04:48:43.747,0.0,0.0,0.0,0.02,-0.79,9.48,0.0,0.0,0.0,0.8,0.8
2026-03-07T04:48:43.756,0.0,0.0,0.0,0.02,-0.8,9.49,0.0,0.0,0.0,0.8,0.8
2026-03-07T04:48:43.764,0.0,0.0,0.0,0.03,-0.81,9.450000000000001,0.0,0.0,0.0,0.8,0.8
2026-03-07T04:48:43.772,0.0,0.0,0.0,0.03,-0.81,9.450000000000001,0.0,0.0,0.0,0.8,0.8
2026-03-07T04:48:43.781,0.0,0.0,0.0,0.06,-0.81,9.46,0.0,0.0,0.0,0.8,0.8
2026-03-07T04:48:43.789,0.0,0.0,0.0,0.04,-0.67,9.35,0.0,0.0,0.0,0.8,0.8
2026-03-07T04:48:43.795,0.0,0.0,0.25,0.11,-0.81,9.09,0.11,-0.76,-0.7000000000000001,0.8,0.8
2026-03-07T04:48:43.802,0.0,0.0,0.25,0.08,-0.91,9.120000000000001,0.07,-0.74,-0.68,0.8,0.8
2026-03-07T04:48:43.810,0.125,0.0,1.0,0.08,-0.91,9.120000000000001,0.07,-0.74,-0.68,0.8,0.8
2026-03-07T04:48:43.817,0.25,0.0,1.9375,0.1,-0.98,9.42,0.09,-0.64,-0.37,0.8,0.8
2026-03-07T04:48:43.824,0.25,0.0,1.9375,0.07,-1.25,9.59,0.07,-0.74,-0.2,0.8,0.8
2026-03-07T04:48:43.831,0.375,0.0,2.9375,0.07,-1.25,9.59,-0.01,-0.47000000000000003,-0.13,0.8,0.8
2026-03-07T04:48:43.839,0.4375,0.0,3.75,-0.01,-1.12,9.65,-0.01,-0.47000000000000003,-0.13,0.8,0.8
2026-03-07T04:48:43.845,0.4375,0.0,4.5625,0.01,-1.41,9.36,0.0,-0.62,-0.4,0.8,0.8
2026-03-07T04:48:43.852,0.4375,0.0,4.5625,0.0,-1.51,9.34,0.0,-0.58,-0.41000000000000003,0.8,0.8
2026-03-07T04:48:43.860,0.4375,0.0,5.4375,0.0,-1.51,9.34,0.0,-0.58,-0.41000000000000003,0.8,0.8
2026-03-07T04:48:43.867,0.4375,0.0,6.3125,0.04,-1.72,9.38,0.03,-0.64,-0.36,0.8,0.8
2026-03-07T04:48:43.873,0.4375,0.0,6.3125,0.08,-1.73,9.36,0.06,-0.5,-0.36,0.8,0.8
2026-03-07T04:48:43.880,0.375,0.0625,7.1875,0.08,-1.73,9.36,0.09,-0.67,-0.31,0.8,0.8
2026-03-07T04:48:43.888,0.375,0.0625,8.0625,0.1,-2.06,9.39,0.09,-0.67,-0.31,0.8,0.8
2026-03-07T04:48:43.894,0.375,0.0625,8.0625,0.11,-2.11,9.28,0.1,-0.5700000000000001,-0.4,0.8,0.8
2026-03-07T04:48:43.901,0.375,0.0625,9.0,0.11,-2.11,9.28,0.17,-1.28,0.13,0.8,0.8
2026-03-07T04:48:43.910,0.375,0.0625,9.875,0.19,-2.97,9.790000000000001,0.17,-1.28,0.13,0.8,0.8
2026-03-07T04:48:43.916,0.375,0.0625,10.3125,0.23,-3.98,10.1,0.22,-2.23,0.46,0.8,0.8
2026-03-07T04:48:43.923,0.375,0.0625,10.3125,0.0,-3.94,8.64,-0.02,-2.16,-0.99,0.8,0.8
2026-03-07T04:48:43.930,0.4375,0.0625,10.4375,0.0,-3.94,8.64,-0.02,-2.16,-0.99,0.8,0.8
2026-03-07T04:48:43.937,0.4375,0.0625,10.5625,-0.05,-3.85,8.57,-0.07,-2.05,-1.06,0.8,0.8
2026-03-07T04:48:43.943,0.4375,0.0625,10.5625,0.02,-4.55,9.46,0.01,-2.7600000000000002,-0.17,0.8,0.8
2026-03-07T04:48:43.951,0.375,0.0625,10.5,0.02,-4.55,9.46,-0.01,-1.23,-0.78,0.8,0.8
2026-03-07T04:48:43.959,0.25,0.0625,10.1875,0.0,-2.97,8.86,-0.01,-1.23,-0.78,0.8,0.8
2026-03-07T04:48:43.966,0.0625,0.0625,10.0,0.0,-2.98,9.27,-0.01,-1.28,-0.38,0.8,0.8
2026-03-07T04:48:43.973,0.0625,0.0625,10.0,0.0,-2.86,9.53,-0.01,-1.19,-0.12,0.8,0.8
2026-03-07T04:48:43.980,359.8125,0.0625,9.8125,0.0,-2.86,9.53,-0.05,-0.9400000000000001,-0.26,0.8,0.8
2026-03-07T04:48:43.987,359.625,0.0625,9.625,-0.03,-2.58,9.4,-0.05,-0.9400000000000001,-0.26,0.8,0.8
2026-03-07T04:48:43.993,359.625,0.0625,9.625,0.03,-2.36,9.120000000000001,0.01,-0.73,-0.54,0.8,0.8
2026-03-07T04:48:44.001,359.5,0.0625,9.5,0.03,-2.36,9.120000000000001,0.06,-0.85,-0.51,0.8,0.8
2026-03-07T04:48:44.009,359.375,0.125,9.5,0.09,-2.48,9.16,0.06,-0.85,-0.51,0.8,0.8
2026-03-07T04:48:44.015,359.3125,0.125,9.625,0.23,-2.54,9.26,0.21,-0.89,-0.4,0.8,0.8
2026-03-07T04:48:44.022,359.3125,0.125,9.625,0.26,-2.75,9.36,0.24,-1.09,-0.3,0.8,0.8
2026-03-07T04:48:44.029,359.25,0.125,9.75,0.26,-2.75,9.36,0.24,-1.09,-0.3,0.8,0.8
2026-03-07T04:48:44.038,359.25,0.125,9.875,0.26,-2.88,9.21,0.24,-1.19,-0.44,0.8,0.8
2026-03-07T04:48:44.045,359.25,0.125,9.9375,0.22,-2.94,9.21,0.19,-1.24,-0.44,0.8,0.8
2026-03-07T04:48:44.052,359.25,0.125,9.9375,0.15,-2.96,9.23,0.12,-1.25,-0.42,0.8,0.8
2026-03-07T04:48:44.060,359.25,0.125,10.0625,0.15,-2.96,9.23,-0.01,-1.09,-0.49,0.8,0.8
2026-03-07T04:48:44.067,359.25,0.125,10.0625,0.0,-2.81,9.15,-0.01,-1.09,-0.49,0.8,0.8
2026-03-07T04:48:44.073,359.25,0.125,10.0625,0.0,-2.75,9.17,-0.02,-1.04,-0.48,0.8,0.8
2026-03-07T04:48:44.078,359.25,0.125,10.0,0.0,-2.75,9.17,-0.02,-1.04,-0.48,0.8,0.8
2026-03-07T04:48:44.084,359.25,0.125,16.6875,-0.01,-2.71,9.24,-0.04,0.11,-0.15,0.8,0.8
2026-03-07T04:48:44.089,359.25,0.125,16.6875,-0.01,-2.71,9.24,-0.04,0.11,-0.15,0.8,0.8
2026-03-07T04:48:44.095,359.25,0.125,16.6875,0.03,-2.77,9.32,0.0,0.04,-0.06,0.8,0.8
2026-03-07T04:48:44.102,359.25,0.125,16.6875,0.21,-2.63,9.200000000000001,0.18,0.18,-0.18,0.8,0.8
2026-03-07T04:48:44.110,359.25,0.125,16.6875,0.21,-2.63,9.200000000000001,0.18,0.18,-0.18,0.8,0.8
2026-03-07T04:48:44.116,359.25,0.125,16.6875,0.25,-2.5500000000000003,9.23,0.22,0.25,-0.15,0.8,0.8
2026-03-07T04:48:44.123,359.25,0.125,16.6875,0.3,-2.65,9.3,0.26,0.15,-0.09,0.8,0.8
2026-03-07T04:48:44.128,359.3125,0.1875,16.625,0.3,-2.65,9.3,0.26,0.15,-0.09,0.8,0.8
2026-03-07T04:48:44.133,359.3125,0.1875,16.625,0.34,-2.57,9.35,0.31,0.24,-0.04,0.8,0.8
2026-03-07T04:48:44.139,359.3125,0.1875,16.625,0.34,-2.57,9.35,0.31,0.24,-0.04,0.8,0.8
2026-03-07T04:48:44.146,359.3125,0.1875,16.625,0.28,-2.54,9.290000000000001,0.25,0.26,-0.09,0.8,0.8
2026-03-07T04:48:44.152,359.3125,0.1875,16.625,0.28,-2.65,9.3,0.24,0.15,-0.08,0.8,0.8
2026-03-07T04:48:44.160,359.3125,0.1875,16.625,0.28,-2.65,9.3,0.16,0.16,-0.04,0.8,0.8
2026-03-07T04:48:44.167,359.3125,0.1875,16.625,0.2,-2.64,9.35,0.16,0.16,-0.04,0.8,0.8
2026-03-07T04:48:44.173,359.3125,0.1875,16.625,0.14,-2.56,9.21,0.1,0.25,-0.18,0.8,0.8
2026-03-07T04:48:44.178,359.3125,0.1875,16.625,0.14,-2.56,9.21,0.1,0.25,-0.18,0.8,0.8
2026-03-07T04:48:44.183,359.3125,0.1875,16.625,0.02,-2.58,9.23,0.0,0.22,-0.15,0.8,0.8
2026-03-07T04:48:44.189,359.3125,0.1875,16.625,0.02,-2.58,9.23,0.0,0.22,-0.15,0.8,0.8
2026-03-07T04:48:44.194,359.3125,0.1875,16.5625,0.0,-2.46,9.19,-0.03,0.33,-0.2,0.8,0.8
2026-03-07T04:48:44.201,359.3125,0.1875,16.5625,0.0,-2.46,9.19,-0.06,0.29,-0.2,0.8,0.8
2026-03-07T04:48:44.209,359.3125,0.1875,16.5,-0.02,-2.49,9.19,-0.06,0.29,-0.2,0.8,0.8
2026-03-07T04:48:44.214,359.3125,0.125,16.5,0.0,-2.61,9.32,-0.02,0.17,-0.07,0.8,0.8
2026-03-07T04:48:44.222,359.3125,0.125,16.5,0.07,-2.64,9.23,0.04,0.14,-0.16,0.8,0.8
2026-03-07T04:48:44.228,359.3125,0.125,16.5625,0.07,-2.64,9.23,0.04,0.14,-0.16,0.8,0.8
2026-03-07T04:48:44.233,359.375,0.125,16.5,0.18,-2.65,9.23,0.15,0.14,-0.16,0.8,0.8
2026-03-07T04:48:44.241,359.375,0.125,16.5,0.18,-2.65,9.23,0.16,0.18,-0.16,0.8,0.8
2026-03-07T04:48:44.248,359.375,0.125,16.5,0.19,-2.6,9.23,0.16,0.18,-0.16,0.8,0.8
2026-03-07T04:48:44.254,359.375,0.125,16.4375,0.15,-2.5100000000000002,9.27,0.12,0.26,-0.12,0.8,0.8
2026-03-07T04:48:44.261,359.375,0.125,16.4375,0.08,-2.45,9.33,0.05,0.32,-0.06,0.8,0.8
2026-03-07T04:48:44.269,359.375,0.125,16.4375,0.08,-2.45,9.33,0.05,0.32,-0.06,0.8,0.8
2026-03-07T04:48:44.274,359.375,0.125,16.375,0.0,-2.47,9.36,-0.03,0.3,-0.03,0.8,0.8
2026-03-07T04:48:44.280,359.375,0.125,16.375,0.0,-2.47,9.36,-0.03,0.3,-0.03,0.8,0.8
2026-03-07T04:48:44.285,359.375,0.125,16.375,-0.07,-2.43,9.41,-0.09,0.33,0.0,0.8,0.8
2026-03-07T04:48:44.290,359.375,0.125,16.375,-0.07,-2.43,9.41,-0.23,0.53,-0.09,0.8,0.8
2026-03-07T04:48:44.295,359.375,0.0625,16.3125,-0.21,-2.22,9.31,-0.23,0.53,-0.09,0.8,0.8
2026-03-07T04:48:44.302,359.375,0.0625,16.3125,-0.25,-2.17,9.370000000000001,-0.27,0.5700000000000001,-0.03,0.8,0.8
2026-03-07T04:48:44.310,359.375,0.0625,16.25,-0.25,-2.17,9.370000000000001,-0.21,0.66,-0.09,0.8,0.8
2026-03-07T04:48:44.318,359.375,0.0625,16.1875,-0.19,-2.07,9.32,-0.21,0.66,-0.09,0.8,0.8
2026-03-07T04:48:44.323,359.3125,0.0625,16.1875,-0.11,-2.08,9.41,-0.12,0.65,0.0,0.8,0.8
2026-03-07T04:48:44.329,359.3125,0.0625,16.1875,-0.11,-2.08,9.41,-0.12,0.65,0.0,0.8,0.8
2026-03-07T04:48:44.334,359.3125,0.0625,16.3125,0.0,-2.46,9.44,-0.01,0.29,0.03,0.8,0.8
2026-03-07T04:48:44.339,359.3125,0.0625,16.3125,0.0,-2.46,9.44,-0.01,0.29,0.03,0.8,0.8
2026-03-07T04:48:44.345,359.3125,0.0625,16.4375,0.06,-2.43,9.4,0.04,0.33,0.0,0.8,0.8
2026-03-07T04:48:44.351,359.3125,0.0625,16.4375,0.14,-2.44,9.120000000000001,0.12,0.33,-0.28,0.8,0.8
2026-03-07T04:48:44.359,359.3125,0.0625,16.4375,0.14,-2.44,9.120000000000001,0.1,0.3,-0.43,0.8,0.8
2026-03-07T04:48:44.367,359.3125,0.0625,16.4375,0.12,-2.47,8.96,0.1,0.3,-0.43,0.8,0.8
2026-03-07T04:48:44.373,359.375,0.0625,16.5,0.15,-2.79,9.26,0.13,0.0,-0.13,0.8,0.8
2026-03-07T04:48:44.378,359.375,0.0625,16.5,0.15,-2.79,9.26,0.13,0.0,-0.13,0.8,0.8
2026-03-07T04:48:44.383,359.375,0.0625,16.625,0.14,-2.81,9.370000000000001,0.12,0.0,-0.02,0.8,0.8
2026-03-07T04:48:44.388,359.375,0.0625,16.625,0.14,-2.81,9.370000000000001,0.12,0.0,-0.02,0.8,0.8
2026-03-07T04:48:44.395,359.3125,0.0625,16.625,0.08,-2.89,9.33,0.06,-0.08,-0.05,0.8,0.8
2026-03-07T04:48:44.402,359.3125,0.0625,16.625,-0.06,-2.45,9.040000000000001,-0.08,0.33,-0.35000000000000003,0.8,0.8
2026-03-07T04:48:44.410,359.3125,0.0625,16.5625,-0.06,-2.45,9.040000000000001,-0.09,0.24,-0.19,0.8,0.8
2026-03-07T04:48:44.418,359.3125,0.0625,16.4375,-0.07,-2.5300000000000002,9.21,-0.09,0.24,-0.19,0.8,0.8
2026-03-07T04:48:44.423,359.3125,0.125,16.4375,-0.03,-2.66,9.5,-0.05,0.1,0.09,0.8,0.8
2026-03-07T04:48:44.429,359.3125,0.125,16.4375,-0.03,-2.66,9.5,-0.05,0.1,0.09,0.8,0.8
2026-03-07T04:48:44.434,359.3125,0.125,16.4375,0.0,-2.58,9.56,-0.01,0.19,0.16,0.8,0.8
2026-03-07T04:48:44.439,359.3125,0.125,16.4375,0.0,-2.58,9.56,0.11,0.5,-0.18,0.8,0.8
2026-03-07T04:48:44.445,359.3125,0.125,16.375,0.14,-2.2600000000000002,9.21,0.11,0.5,-0.18,0.8,0.8
2026-03-07T04:48:44.451,359.3125,0.125,16.375,0.26,-2.27,9.19,0.23,0.48,-0.21,0.8,0.8
2026-03-07T04:48:44.459,359.3125,0.125,16.3125,0.26,-2.27,9.19,0.34,0.66,-0.1,0.8,0.8
2026-03-07T04:48:44.467,359.3125,0.1875,16.25,0.38,-2.09,9.3,0.34,0.66,-0.1,0.8,0.8
2026-03-07T04:48:44.473,359.3125,0.1875,16.3125,0.33,-2.25,9.41,0.29,0.51,0.0,0.8,0.8
2026-03-07T04:48:44.478,359.3125,0.1875,16.3125,0.33,-2.25,9.41,0.29,0.51,0.0,0.8,0.8
2026-03-07T04:48:44.483,359.3125,0.1875,16.375,0.33,-2.27,9.46,0.3,0.49,0.05,0.8,0.8
2026-03-07T04:48:44.489,359.3125,0.1875,16.375,0.33,-2.27,9.46,0.19,0.51,-0.09,0.8,0.8
2026-03-07T04:48:44.495,359.25,0.1875,16.375,0.22,-2.25,9.31,0.19,0.51,-0.09,0.8,0.8
2026-03-07T04:48:44.502,359.25,0.1875,16.375,0.12,-2.14,9.18,0.09,0.61,-0.22,0.8,0.8
2026-03-07T04:48:44.510,359.25,0.1875,16.3125,0.12,-2.14,9.18,-0.01,0.5700000000000001,-0.24,0.8,0.8
2026-03-07T04:48:44.517,359.25,0.1875,16.25,0.01,-2.17,9.17,-0.01,0.5700000000000001,-0.24,0.8,0.8
2026-03-07T04:48:44.550,359.25,0.125,16.25,0.0,-2.68,9.31,-0.05,0.01,-0.29,0.8,0.8
2026-03-07T04:48:44.558,359.25,0.125,16.4375,-0.02,-2.7600000000000002,9.1,-0.05,0.01,-0.29,0.8,0.8
2026-03-07T04:48:44.565,359.3125,0.125,16.4375,-0.03,-2.77,9.32,-0.06,0.0,-0.08,0.8,0.8
2026-03-07T04:48:44.571,359.3125,0.125,16.4375,0.0,-2.79,9.52,-0.03,0.0,0.12,0.8,0.8
2026-03-07T04:48:44.577,359.3125,0.125,16.5,0.0,-2.79,9.52,-0.03,0.0,0.12,0.8,0.8
2026-03-07T04:48:44.582,359.3125,0.1875,16.5,-0.04,-2.81,9.5,-0.07,-0.01,0.09,0.8,0.8
2026-03-07T04:48:44.587,359.3125,0.1875,16.5,-0.04,-2.81,9.5,-0.07,-0.01,0.09,0.8,0.8
2026-03-07T04:48:44.592,359.3125,0.1875,16.4375,0.0,-2.22,9.15,-0.03,0.55,-0.25,0.8,0.8
2026-03-07T04:48:44.600,359.3125,0.1875,16.4375,0.0,-2.22,9.15,-0.12,0.5700000000000001,-0.29,0.8,0.8
2026-03-07T04:48:44.608,359.3125,0.1875,16.3125,-0.09,-2.18,9.11,-0.12,0.5700000000000001,-0.29,0.8,0.8
2026-03-07T04:48:44.615,359.3125,0.1875,16.1875,-0.03,-2.16,9.39,-0.07,0.5700000000000001,-0.02,0.8,0.8
2026-03-07T04:48:44.621,359.3125,0.1875,16.1875,0.0,-2.22,9.42,-0.03,0.51,0.0,0.8,0.8
2026-03-07T04:48:44.626,359.3125,0.1875,16.25,0.0,325.46,-0.01,-0.03,0.51,0.0,0.8,0.8
2026-03-07T04:48:44.632,359.3125,0.1875,16.25,0.0,-2.33,9.42,-0.04,0.41000000000000003,0.01,0.8,0.8
2026-03-07T04:48:44.637,359.3125,0.1875,16.25,0.0,-2.33,9.42,-0.04,0.41000000000000003,0.01,0.8,0.8
2026-03-07T04:48:44.642,359.3125,0.1875,16.3125,0.0,-2.08,9.33,-0.03,0.66,-0.07,0.8,0.8
2026-03-07T04:48:44.650,359.3125,0.1875,16.3125,0.0,-2.08,9.33,0.01,0.59,-0.23,0.8,0.8
2026-03-07T04:48:44.657,359.3125,0.1875,16.25,0.05,-2.15,9.17,0.01,0.59,-0.23,0.8,0.8
2026-03-07T04:48:44.662,359.3125,0.25,16.25,0.12,-2.19,9.17,0.08,0.55,-0.23,0.8,0.8
2026-03-07T04:48:44.670,359.3125,0.25,16.25,0.12,-2.19,9.17,0.19,0.17,0.03,0.8,0.8
2026-03-07T04:48:44.675,359.3125,0.25,16.3125,0.23,-2.59,9.44,0.19,0.17,0.03,0.8,0.8
2026-03-07T04:48:44.680,359.3125,0.25,16.3125,0.26,-2.63,9.370000000000001,0.21,0.14,-0.03,0.8,0.8
2026-03-07T04:48:44.686,359.3125,0.25,16.375,0.26,-2.63,9.370000000000001,0.21,0.14,-0.03,0.8,0.8
2026-03-07T04:48:44.691,359.3125,0.25,16.375,0.18,-2.59,9.16,0.13,0.17,-0.24,0.8,0.8
2026-03-07T04:48:44.699,359.3125,0.25,16.375,0.18,-2.59,9.16,0.03,0.2,-0.34,0.8,0.8
2026-03-07T04:48:44.707,359.375,0.25,16.3125,0.09,-2.5500000000000003,9.06,0.03,0.2,-0.34,0.8,0.8
2026-03-07T04:48:44.713,359.375,0.3125,16.25,0.02,-2.63,9.17,-0.02,0.11,-0.23,0.8,0.8
2026-03-07T04:48:44.720,359.375,0.3125,16.25,0.0,-2.75,9.4,-0.05,0.0,0.0,0.8,0.8
2026-03-07T04:48:44.726,359.375,0.3125,16.3125,0.0,-2.75,9.4,-0.05,0.0,0.0,0.8,0.8
2026-03-07T04:48:44.731,359.375,0.3125,16.3125,0.0,-2.81,9.370000000000001,-0.05,-0.05,-0.03,0.8,0.8
2026-03-07T04:48:44.736,359.375,0.3125,16.3125,0.0,-2.81,9.370000000000001,-0.05,-0.05,-0.03,0.8,0.8
2026-03-07T04:48:44.742,359.375,0.3125,16.3125,0.12,-2.49,9.26,0.06,0.25,-0.14,0.8,0.8
2026-03-07T04:48:44.748,359.3125,0.3125,16.25,0.12,-2.49,9.26,0.16,0.15,-0.28,0.8,0.8
2026-03-07T04:48:44.754,359.3125,0.3125,16.1875,0.22,-2.58,9.13,0.16,0.15,-0.28,0.8,0.8
2026-03-07T04:48:44.761,359.3125,0.3125,16.1875,0.33,-2.37,9.28,0.26,0.35000000000000003,-0.13,0.8,0.8
2026-03-07T04:48:44.769,359.375,0.375,16.125,0.33,-2.37,9.28,0.37,0.3,-0.03,0.8,0.8
2026-03-07T04:48:44.774,359.375,0.375,16.1875,0.44,-2.43,9.38,0.37,0.3,-0.03,0.8,0.8
2026-03-07T04:48:44.780,359.375,0.375,16.1875,0.42,-2.2600000000000002,9.5,0.35000000000000003,0.47000000000000003,0.09,0.8,0.8
2026-03-07T04:48:44.785,359.375,0.375,16.25,0.42,-2.2600000000000002,9.5,0.35000000000000003,0.47000000000000003,0.09,0.8,0.8
2026-03-07T04:48:44.790,359.375,0.375,16.25,0.36,-2.24,9.28,0.3,0.49,-0.12,0.8,0.8
2026-03-07T04:48:44.798,359.375,0.375,16.1875,0.36,-2.24,9.28,0.18,0.66,-0.15,0.8,0.8
2026-03-07T04:48:44.805,359.375,0.375,16.0625,0.25,325.63,9.26,0.18,0.66,-0.15,0.8,0.8
2026-03-07T04:48:44.811,359.375,0.375,16.0625,0.17,-2.23,9.23,0.1,0.47000000000000003,-0.18,0.8,0.8
2026-03-07T04:48:44.819,359.375,0.375,16.0,0.17,-2.23,9.23,-0.06,0.32,-0.15,0.8,0.8
2026-03-07T04:48:44.825,359.3125,0.375,16.0625,0.0,-2.38,9.27,-0.06,0.32,-0.15,0.8,0.8
