Timestamp,Pressure_hPa,Temp_C,Altitude_m,Heading,Roll,Pitch,AccelX,AccelY,AccelZ
1765363381.68,1019.60,26.48,-52.71,0.00,0.00,0.00,2.29,1.88,8.74
1765363381.81,1019.60,26.49,-52.73,0.31,1.31,1.25,2.56,1.28,9.01
1765363381.94,1019.60,26.50,-52.74,0.56,2.19,3.88,3.18,1.10,9.05
1765363382.09,1019.59,26.50,-52.69,359.31,1.25,6.19,1.77,-0.18,8.40
1765363382.21,1019.60,26.51,-52.71,359.81,1.25,7.19,2.64,0.38,8.67
1765363382.33,1019.60,26.52,-52.71,0.00,2.44,7.06,3.15,0.34,8.91
1765363382.45,1019.59,26.52,-52.62,359.19,3.25,6.12,2.87,0.76,9.46
1765363382.56,1019.59,26.53,-52.64,359.56,17.75,-3.25,3.09,-0.11,8.61
1765363382.68,1019.59,26.53,-52.64,359.12,17.50,-3.06,2.12,0.03,8.37
1765363382.80,1019.59,26.53,-52.64,359.38,18.06,-4.31,2.94,0.55,9.23
1765363382.91,1019.59,26.53,-52.63,359.50,18.38,-4.12,3.23,0.44,8.69
1765363383.04,1019.59,26.53,-52.63,359.00,18.31,-4.56,2.77,0.62,8.27
1765363383.16,1019.59,26.55,-52.63,359.94,19.19,-6.31,4.53,0.57,9.29
1765363383.28,1019.59,26.55,-52.61,359.44,18.25,-5.62,2.97,1.05,9.50
1765363383.41,1019.59,26.55,-52.61,357.69,14.06,-1.88,1.26,-0.60,9.46
1765363383.54,1019.59,26.55,-52.65,358.25,13.81,-0.75,2.53,0.35,8.77
1765363383.65,1019.59,26.55,-52.65,358.81,14.44,-1.00,2.56,0.22,9.75
1765363383.76,1019.59,26.55,-52.66,358.81,14.94,-0.31,3.02,-0.26,9.30
1765363383.87,1019.59,26.56,-52.67,358.75,15.25,-0.31,2.96,0.08,9.16
1765363383.98,1019.59,26.56,-52.64,358.19,14.56,0.25,0.63,1.18,8.59
1765363384.09,1019.59,26.56,-52.65,358.56,13.81,0.50,2.42,-0.55,9.11
1765363384.20,1019.59,26.57,-52.65,357.94,13.06,0.94,1.71,-0.47,9.41
1765363384.31,1019.59,26.57,-52.65,357.88,13.00,1.00,2.22,-0.25,9.21
1765363384.42,1019.59,26.57,-52.66,358.69,13.12,0.94,2.71,-0.04,9.76
1765363384.53,1019.59,26.57,-52.65,357.19,12.75,1.31,1.43,-0.88,9.57
1765363384.64,1019.59,26.58,-52.66,357.75,12.94,1.38,2.64,0.30,8.97
1765363384.75,1019.59,26.58,-52.66,357.50,12.50,1.50,1.39,0.82,8.09
1765363384.86,1019.59,26.59,-52.67,357.38,13.06,1.12,1.96,-0.58,8.92
1765363384.97,1019.59,26.59,-52.66,358.56,13.56,0.75,3.90,-0.28,10.19
1765363385.08,1019.59,26.59,-52.67,357.38,12.62,1.38,2.03,-0.50,10.19
1765363385.20,1019.59,26.59,-52.68,357.50,13.00,1.88,2.77,0.07,8.93
1765363385.31,1019.59,26.60,-52.69,357.94,12.88,1.31,2.05,-1.23,9.44
1765363385.42,1019.60,26.60,-52.70,358.00,12.31,2.12,2.50,-0.35,9.51
1765363385.53,1019.60,26.60,-52.71,357.69,12.38,2.75,2.49,-0.39,8.99
1765363385.64,1019.60,26.60,-52.72,358.44,12.12,2.31,2.01,-0.33,9.42
1765363385.75,1019.60,26.60,-52.72,359.69,10.62,3.75,1.81,-0.77,8.79
1765363385.86,1019.60,26.61,-52.73,0.12,8.56,6.19,0.90,-1.61,8.71
1765363385.97,1019.60,26.61,-52.75,359.44,8.56,6.25,1.81,-0.51,9.33
1765363386.08,1019.60,26.61,-52.76,359.31,8.31,6.25,1.03,-0.64,8.27
1765363386.19,1019.60,26.61,-52.76,359.44,7.44,6.38,1.18,-1.11,9.61
1765363386.31,1019.60,26.62,-52.77,0.88,7.94,6.81,1.35,-1.34,8.89
1765363386.42,1019.60,26.62,-52.73,2.50,7.31,7.12,2.19,-1.22,8.94
1765363386.54,1019.60,26.62,-52.74,3.69,8.12,5.94,0.97,-1.17,9.54
1765363386.64,1019.60,26.62,-52.70,5.50,8.81,5.31,1.66,-1.06,9.15
1765363386.75,1019.60,26.62,-52.70,7.56,9.06,4.50,1.62,-1.29,9.27
1765363386.86,1019.60,26.62,-52.71,6.94,8.94,4.00,1.06,0.90,9.43
1765363386.98,1019.60,26.62,-52.72,6.25,9.50,3.94,2.16,0.16,9.44
1765363387.09,1019.59,26.62,-52.68,6.81,9.88,5.12,2.33,-0.28,9.35
1765363387.20,1019.59,26.63,-52.69,7.38,9.62,5.56,1.01,-1.18,9.28
1765363387.30,1019.59,26.63,-52.68,8.31,9.56,5.81,1.03,-1.16,9.24
1765363387.41,1019.60,26.63,-52.71,9.38,9.81,4.75,2.61,-1.20,9.31
1765363387.53,1019.60,26.64,-52.72,9.25,11.19,3.12,2.08,-1.06,8.68
1765363387.64,1019.59,26.64,-52.69,7.00,11.00,4.62,-0.35,-0.93,8.45
1765363387.75,1019.59,26.64,-52.69,7.75,10.94,5.19,1.64,-0.35,9.69
1765363387.86,1019.59,26.64,-52.67,8.94,10.75,5.25,1.20,-0.73,9.32
1765363387.97,1019.59,26.65,-52.68,10.06,10.62,4.88,1.80,-0.01,9.22
1765363388.08,1019.60,26.65,-52.72,10.38,11.06,4.38,1.73,-0.19,9.51
1765363388.19,1019.60,26.65,-52.72,8.94,11.31,4.62,1.47,-0.62,8.79
1765363388.30,1019.60,26.65,-52.72,7.88,10.69,6.94,1.24,-2.26,9.28
1765363388.41,1019.60,26.65,-52.73,9.50,10.88,7.50,2.23,-1.17,8.49
1765363388.52,1019.60,26.65,-52.74,11.00,9.69,6.38,1.63,0.85,9.81
1765363388.63,1019.60,26.66,-52.75,11.69,10.19,4.94,2.35,-0.37,9.16
1765363388.74,1019.61,26.66,-52.78,9.88,10.56,4.56,2.07,-0.56,9.67
1765363388.85,1019.61,26.66,-52.78,10.50,9.38,5.19,0.62,-1.45,9.97
1765363388.96,1019.60,26.67,-52.78,11.06,9.75,3.75,1.82,-0.59,9.14
1765363389.07,1019.60,26.67,-52.77,11.75,9.50,3.19,1.23,-0.95,8.66
1765363389.18,1019.61,26.68,-52.78,12.00,10.44,1.00,2.21,-0.58,9.29
1765363389.29,1019.60,26.68,-52.76,11.50,11.44,1.44,1.69,-0.38,8.26
1765363389.41,1019.60,26.68,-52.77,11.62,11.44,3.56,1.56,-2.21,8.81
1765363389.52,1019.60,26.68,-52.70,11.94,11.00,2.38,1.31,-0.22,9.08
1765363389.63,1019.60,26.68,-52.70,12.81,11.62,1.81,1.80,-0.69,8.03
1765363389.74,1019.59,26.68,-52.69,13.25,11.19,1.25,1.46,0.65,9.33
1765363389.85,1019.59,26.68,-52.68,13.50,11.00,1.00,1.91,-0.18,9.34
1765363389.96,1019.60,26.68,-52.71,12.50,11.38,1.94,2.24,0.11,8.33
1765363390.07,1019.60,26.68,-52.71,12.81,11.50,2.75,2.04,-0.84,10.29
1765363390.18,1019.59,26.68,-52.69,13.62,11.25,2.75,1.68,-0.58,9.08
1765363390.29,1019.60,26.69,-52.70,14.50,10.88,2.81,2.29,-0.43,9.07
1765363390.40,1019.59,26.69,-52.67,14.38,10.19,2.81,1.67,-0.47,8.86
1765363390.51,1019.59,26.69,-52.68,13.88,10.38,2.88,2.53,-0.70,10.05
1765363390.62,1019.60,26.69,-52.71,12.69,10.38,4.31,1.30,-0.89,9.86
1765363390.73,1019.60,26.69,-52.73,13.38,10.12,4.44,1.80,0.23,9.44
1765363390.84,1019.60,26.70,-52.73,14.94,10.00,3.25,1.29,-0.30,9.86
1765363390.95,1019.60,26.70,-52.71,17.00,10.12,3.31,1.64,-0.10,9.15
1765363391.06,1019.60,26.71,-52.73,18.12,10.12,3.56,1.91,-0.37,8.93
1765363391.17,1019.60,26.71,-52.72,18.88,10.19,2.69,1.73,-0.16,9.60
1765363391.28,1019.60,26.72,-52.73,18.44,10.06,3.50,2.10,-0.45,8.98
1765363391.39,1019.61,26.72,-52.79,16.31,10.12,4.69,1.22,-0.61,9.20
1765363391.51,1019.61,26.73,-52.80,15.44,10.19,5.94,0.94,-1.71,8.90
1765363391.62,1019.61,26.73,-52.84,16.69,10.75,5.06,2.12,0.59,9.87
1765363391.73,1019.61,26.73,-52.84,19.12,11.19,5.69,2.13,-0.40,8.71
1765363391.84,1019.61,26.73,-52.80,20.50,11.38,6.00,1.46,-0.68,9.31
1765363391.96,1019.61,26.74,-52.81,22.31,11.38,7.06,1.53,-1.33,9.04
1765363392.07,1019.61,26.74,-52.81,23.44,11.44,7.31,1.64,-1.24,8.99
1765363392.18,1019.61,26.74,-52.80,23.62,11.25,7.06,1.85,-0.98,9.44
1765363392.30,1019.61,26.74,-52.81,23.62,11.19,7.62,3.03,-1.13,9.24
1765363392.41,1019.61,26.74,-52.85,18.69,11.00,6.44,2.27,-0.83,9.28
1765363392.52,1019.61,26.75,-52.86,15.19,11.56,2.56,1.72,-1.42,7.86
1765363392.63,1019.62,26.75,-52.92,14.88,11.56,-0.81,1.56,0.99,9.29
1765363392.74,1019.62,26.75,-52.92,15.38,10.50,-2.69,1.17,0.90,8.85
1765363392.85,1019.63,26.75,-52.96,17.31,10.38,-3.69,1.36,0.31,9.39
1765363392.96,1019.63,26.75,-52.96,19.69,10.31,-2.38,1.76,0.04,8.61
1765363393.07,1019.61,26.75,-52.84,20.56,9.50,-2.56,1.91,0.83,9.66
1765363393.18,1019.61,26.75,-52.85,21.50,8.56,-2.19,0.72,0.55,9.40
1765363393.29,1019.61,26.75,-52.82,23.12,9.62,-2.75,1.76,1.61,9.29
1765363393.41,1019.61,26.76,-52.82,25.44,9.50,-5.31,1.05,2.18,10.65
1765363393.52,1019.60,26.76,-52.75,27.94,9.94,-5.94,1.58,1.60,10.01
1765363393.63,1019.60,26.76,-52.70,30.81,9.38,-5.50,1.36,1.35,10.39
1765363393.74,1019.60,26.76,-52.70,34.44,9.56,-3.50,1.73,1.32,10.50
1765363393.85,1019.59,26.76,-52.66,40.31,4.62,-2.50,-0.78,-0.11,7.76
1765363393.98,1019.59,26.77,-52.67,41.56,4.56,-6.00,-0.32,2.31,11.10
1765363394.09,1019.59,26.77,-52.69,48.12,3.50,-2.62,0.01,0.04,8.37
1765363394.20,1019.59,26.77,-52.69,51.19,4.94,-1.44,0.68,1.24,10.15
1765363394.32,1019.59,26.77,-52.65,51.25,5.69,-0.25,0.86,0.55,8.93
1765363394.43,1019.59,26.77,-52.65,51.38,5.69,1.31,1.65,0.37,8.72
1765363394.54,1019.59,26.77,-52.61,49.62,4.62,1.12,0.92,-0.34,9.59
1765363394.65,1019.59,26.77,-52.62,46.38,3.75,0.06,1.13,1.56,10.60
1765363394.76,1019.59,26.78,-52.66,42.06,5.38,-0.44,1.05,2.49,10.17
1765363394.87,1019.60,26.78,-52.73,36.38,8.38,5.75,0.51,-1.38,8.80
1765363394.98,1019.60,26.78,-52.74,34.44,9.50,8.81,1.66,-1.97,8.74
1765363395.09,1019.58,26.78,-52.60,32.50,11.25,7.88,2.04,-1.14,9.11
1765363395.21,1019.58,26.78,-52.60,31.38,12.12,6.94,1.90,-0.94,9.39
1765363395.32,1019.57,26.78,-52.45,29.75,12.81,7.56,1.92,-1.10,9.38
1765363395.43,1019.56,26.77,-52.43,28.19,12.75,7.31,2.26,-0.99,9.65
1765363395.54,1019.55,26.77,-52.34,26.50,12.12,7.06,1.13,-0.67,8.91
1765363395.65,1019.55,26.77,-52.34,26.31,12.12,8.69,1.52,-0.82,9.67
1765363395.76,1019.54,26.77,-52.25,26.38,13.19,10.62,1.72,-2.27,8.48
1765363395.87,1019.54,26.77,-52.26,25.94,15.19,11.00,2.66,-1.92,8.46
1765363395.98,1019.54,26.77,-52.20,24.38,16.81,7.00,3.27,-0.07,9.38
1765363396.09,1019.54,26.77,-52.20,19.25,18.38,1.81,2.98,-0.37,8.80
1765363396.20,1019.53,26.77,-52.15,9.69,21.06,-4.88,2.60,1.22,9.65
1765363396.31,1019.53,26.77,-52.15,5.25,23.62,-6.19,3.60,2.17,5.40
1765363396.42,1019.52,26.77,-52.09,5.06,26.06,-4.25,4.37,0.93,8.23
1765363396.53,1019.51,26.77,-52.01,7.69,27.69,-4.25,4.57,0.05,7.58
1765363396.64,1019.51,26.78,-52.02,9.50,29.06,-5.19,5.39,1.42,7.85
1765363396.75,1019.50,26.78,-51.93,9.50,29.31,-7.94,4.32,0.83,8.00
1765363396.86,1019.50,26.78,-51.92,11.44,28.00,-8.62,4.53,1.15,7.55
1765363396.97,1019.49,26.78,-51.84,11.06,29.31,-8.88,5.13,1.58,7.72
1765363397.08,1019.49,26.77,-51.83,9.88,30.69,-8.44,4.24,2.44,6.63
1765363397.19,1019.48,26.77,-51.76,9.50,31.56,-7.94,4.89,1.34,6.75
1765363397.30,1019.48,26.77,-51.76,12.56,29.12,-6.12,5.34,1.38,8.21
1765363397.41,1019.49,26.77,-51.79,14.75,26.19,-7.19,3.62,1.57,9.03
1765363397.53,1019.49,26.78,-51.80,15.19,23.19,-5.50,4.12,2.15,8.86
1765363397.64,1019.50,26.78,-51.87,12.88,23.38,-3.00,3.94,1.17,9.44
1765363397.75,1019.50,26.78,-51.87,11.38,24.06,-1.19,4.22,0.18,8.72
1765363397.86,1019.50,26.78,-51.90,10.88,22.56,-0.19,4.01,-0.79,9.16
1765363397.97,1019.50,26.79,-51.87,10.88,19.62,-2.62,3.51,0.88,8.50
1765363398.08,1019.50,26.79,-51.87,12.50,17.25,-6.56,2.65,1.65,8.34
1765363398.20,1019.49,26.79,-51.84,15.81,17.00,-6.44,3.19,1.41,8.92
1765363398.31,1019.49,26.80,-51.85,19.31,16.44,-6.62,1.99,1.38,8.87
1765363398.42,1019.49,26.80,-51.84,20.06,17.12,-6.00,2.55,0.39,9.29
1765363398.53,1019.49,26.81,-51.84,20.75,19.38,-4.56,4.16,0.73,9.06
1765363398.64,1019.49,26.81,-51.83,23.69,20.94,-4.44,2.65,1.37,9.80
1765363398.75,1019.49,26.80,-51.82,25.06,22.31,-4.00,3.47,1.11,8.65
1765363398.86,1019.50,26.80,-51.91,26.00,23.62,-3.62,4.36,0.64,8.59
1765363398.97,1019.50,26.81,-51.92,29.81,24.06,-4.00,4.23,0.37,8.80
1765363399.08,1019.50,26.81,-51.94,35.62,24.00,-6.62,3.27,1.37,7.81
1765363399.19,1019.51,26.82,-51.95,41.19,23.50,-8.12,1.29,2.79,4.47
1765363399.30,1019.51,26.82,-51.99,43.38,23.44,-4.50,2.82,-0.12,9.25
1765364067.77,1019.51,26.83,-52.01,44.56,24.00,-4.56,4.16,0.52,8.55
1765364067.88,1019.52,26.83,-52.10,44.62,22.75,-6.50,3.37,2.26,7.53
1765364067.99,1019.53,26.83,-52.14,44.81,20.94,-7.06,3.02,1.91,8.82
1765364068.10,1019.53,26.83,-52.15,44.12,19.19,-6.81,3.04,1.75,9.06
1765364068.21,1019.53,26.83,-52.14,43.69,18.56,-5.62,2.48,1.17,9.18
1765364068.32,1019.53,26.83,-52.14,40.88,19.31,-3.50,3.15,0.78,7.06
1765364068.44,1019.52,26.83,-52.06,36.75,19.06,-0.62,2.74,0.88,7.41
1765364068.55,1019.52,26.83,-52.07,32.38,17.31,2.38,3.23,0.28,8.00
1765364068.66,1019.52,26.83,-52.05,28.00,15.38,4.62,2.39,-0.47,9.54
1765364068.77,1019.52,26.84,-52.05,25.56,12.69,4.38,0.37,-0.56,10.10
1765364068.88,1019.52,26.84,-52.09,22.75,11.44,3.69,0.51,-0.25,10.04
1765364068.99,1019.52,26.83,-52.08,19.31,13.12,3.88,1.75,-0.75,10.30
1765364069.10,1019.52,26.83,-52.10,13.62,13.75,-0.25,1.84,0.07,9.32
1765364069.21,1019.52,26.84,-52.11,9.44,13.88,-6.06,2.36,0.91,9.16
1765364069.32,1019.52,26.84,-52.07,4.94,12.94,-11.81,0.94,1.31,7.97
1765364069.43,1019.52,26.85,-52.08,358.69,14.94,-11.38,3.03,2.13,8.47
1765364069.54,1019.52,26.86,-52.04,356.00,15.56,-9.19,2.83,1.69,8.45
1765364069.65,1019.52,26.86,-52.05,358.25,18.69,-8.56,1.24,2.05,5.56
1765364069.76,1019.52,26.86,-52.05,0.19,32.75,-19.75,7.37,7.42,10.09
1765364069.91,1019.52,26.86,-52.10,204.12,25.75,-13.75,3.89,1.90,7.90
1765364070.03,1019.52,26.85,-52.08,204.44,23.75,-10.88,3.65,1.75,8.38
1765364070.14,1019.53,26.85,-52.15,203.38,23.25,-12.06,3.44,1.87,8.38
1765364070.26,1019.53,26.85,-52.14,201.62,22.56,-17.00,3.85,3.31,7.59
1765364070.37,1019.53,26.85,-52.14,201.38,19.50,-27.25,3.87,4.58,6.67
1765364070.49,1019.52,26.85,-52.10,199.81,15.25,-32.69,2.56,4.57,7.52
1765364070.59,1019.52,26.86,-52.11,200.00,9.12,-36.38,2.06,6.07,7.15
1765364070.71,1019.52,26.86,-52.09,200.38,5.88,-42.69,0.88,6.85,6.50
1765364070.82,1019.52,26.86,-52.09,201.12,3.12,-45.19,0.42,6.69,5.93
1765364070.93,1019.52,26.86,-52.09,203.00,1.62,-43.50,0.06,6.92,6.22
1765364071.04,1019.52,26.86,-52.10,202.06,2.69,-43.38,0.69,7.16,6.84
1765364071.15,1019.54,26.86,-52.25,201.69,3.00,-41.94,0.76,5.70,6.16
1765364071.26,1019.54,26.87,-52.26,201.94,5.75,-35.50,0.75,5.20,7.26
1765364071.37,1019.54,26.87,-52.26,203.62,7.94,-28.62,0.18,3.83,6.38
1765364071.48,1019.54,26.88,-52.27,203.81,14.19,-23.56,1.53,3.93,8.40
1765364071.59,1019.56,26.88,-52.38,199.88,16.62,-22.12,2.72,4.09,8.83
1765364071.70,1019.56,26.88,-52.39,196.94,16.88,-19.94,4.01,2.30,7.71
1765364071.82,1019.55,26.88,-52.36,197.00,17.00,-16.75,3.18,3.94,9.26
1765364071.95,1019.55,26.88,-52.35,197.00,16.44,-15.56,2.63,2.62,8.40
1765364072.06,1019.55,26.89,-52.35,198.44,15.94,-13.38,1.58,1.64,9.19
1765364072.18,1019.55,26.89,-52.35,200.00,14.38,-9.00,3.31,1.14,9.36
1765364072.29,1019.55,26.89,-52.35,201.75,8.44,-7.31,1.63,0.97,7.67
1765364072.40,1019.55,26.89,-52.33,202.44,6.12,-5.31,4.02,3.56,10.06
1765364072.51,1019.55,26.89,-52.34,202.12,5.81,-6.00,1.07,0.44,8.23
1765364072.63,1019.55,26.89,-52.35,202.88,3.56,-4.56,0.48,1.26,8.54
1765364072.74,1019.55,26.90,-52.36,202.88,2.94,-5.50,-0.28,0.70,9.24
1765364072.85,1019.56,26.90,-52.36,202.88,3.00,-6.06,0.60,1.25,9.26
1765364072.98,1019.55,26.90,-52.35,202.56,5.50,-5.31,1.33,0.74,9.83
1765364073.09,1019.55,26.91,-52.36,202.69,5.56,-5.50,1.10,1.14,9.74
1765364073.21,1019.56,26.91,-52.38,202.88,3.12,-8.12,0.51,0.75,8.85
1765364073.36,1019.56,26.91,-52.38,202.88,1.19,-11.69,0.35,2.15,9.43
1765364073.48,1019.56,26.91,-52.42,202.44,1.38,2035.50,0.38,2.16,10.01
1765364073.61,1019.56,26.91,-52.44,202.69,1.31,-14.12,0.20,2.29,8.87
1765364073.72,1019.56,26.92,-52.44,202.94,1.62,-18.19,0.38,3.24,8.36
1765364073.84,1019.57,26.92,-52.47,202.25,1.38,-19.19,3.40,4.29,11.73
1765364073.96,1019.57,26.92,-52.48,201.56,-0.56,-17.31,0.00,2.77,9.05
1765364074.07,1019.57,26.92,-52.49,203.25,-0.12,-14.38,0.07,2.59,9.51
1765364074.19,1019.57,26.92,-52.50,204.38,-0.12,-12.94,0.14,2.44,9.81
1765364074.33,1019.57,26.93,-52.52,206.25,-0.31,-15.56,0.37,2.49,10.12
1765364074.44,1019.57,26.93,-52.52,209.44,-0.62,-20.50,0.29,3.29,9.21
1765364074.57,1019.57,26.93,-52.52,213.81,-1.44,-27.69,1.08,2.94,6.90
1765364074.69,1019.57,26.93,-52.49,215.00,2.00,-31.75,0.08,5.00,7.55
1765364074.81,1019.57,26.94,-52.50,213.12,5.69,-35.31,0.33,5.63,7.11
1765364074.94,1019.57,26.94,-52.44,203.62,11.50,-32.81,2.96,4.35,6.97
1765364075.06,1019.57,26.94,-52.44,199.25,18.06,-23.00,2.58,3.35,8.12
1765364075.19,1019.57,26.95,-52.45,198.75,19.69,-19.12,3.76,2.33,9.14
1765364075.30,1019.57,26.95,-52.48,199.75,22.06,-18.44,2.82,2.06,8.19
1765364075.42,1019.57,26.95,-52.48,199.19,21.50,-16.62,3.54,2.34,8.29
1765364075.54,1019.57,26.95,-52.45,198.12,24.56,-17.19,4.16,2.68,8.43
1765364075.67,1019.56,26.95,-52.43,192.19,32.88,-17.88,5.12,2.19,7.38
1765364075.79,1019.56,26.95,-52.43,189.62,34.25,-14.38,5.73,2.08,7.13
1765364075.92,1019.56,26.95,-52.39,188.44,31.94,-12.00,5.03,1.68,7.74
1765364076.07,1019.56,26.95,-52.37,190.81,24.50,-13.06,3.72,1.99,7.56
1765364076.21,1019.56,26.96,-52.38,192.00,21.12,-15.38,3.36,2.48,8.54
1765364076.37,1019.56,26.96,-52.36,186.44,27.50,-17.25,4.34,2.75,7.56
1765364076.54,1019.55,26.96,-52.35,180.00,37.75,-18.75,5.40,3.52,6.26
1765364076.67,1019.55,26.96,-52.36,176.88,41.56,-19.44,6.08,2.27,5.85
1765364076.79,1019.55,26.96,-52.33,173.88,43.56,-16.69,6.82,1.55,5.69
1765364076.92,1019.55,26.96,-52.34,175.50,42.19,-15.75,6.96,1.79,7.19
1765364077.03,1019.55,26.97,-52.35,178.31,39.00,-16.12,6.31,2.13,6.80
1765364077.15,1019.55,26.97,-52.35,184.12,30.25,-18.50,4.14,2.37,6.82
1765364077.28,1019.55,26.97,-52.35,189.50,19.50,-16.50,3.20,2.21,8.14
1765364077.42,1019.56,26.98,-52.38,199.50,9.06,-13.56,0.88,3.20,9.66
1765364077.55,1019.56,26.98,-52.39,203.38,2.19,-11.12,-0.19,1.76,9.35
1765364077.67,1019.56,26.97,-52.38,203.38,-3.88,-7.50,-0.97,0.54,9.11
1765364077.80,1019.56,26.97,-52.38,202.00,-5.56,-7.44,-0.74,2.32,9.52
1765364077.94,1019.56,26.98,-52.40,203.44,2.12,-7.69,0.28,1.92,8.92
1765364078.08,1019.56,26.99,-52.41,204.06,3.62,-3.56,-1.15,0.68,8.86
1765364078.21,1019.56,26.99,-52.42,203.12,4.88,-6.06,1.47,1.31,9.96
1765364078.34,1019.56,26.99,-52.42,202.88,5.00,-6.00,0.95,1.14,8.98
1765364078.45,1019.56,26.99,-52.40,202.38,-2042.81,-5.62,0.35,0.74,10.24
1765364078.59,1019.56,26.99,-52.41,201.81,5.06,-5.50,1.23,0.93,9.84
1765364078.72,1019.56,27.00,-52.42,203.88,1.19,-8.31,1.10,3.15,8.32
1765364078.84,1019.56,27.00,-52.41,205.31,-3.31,-10.19,-1.07,2.47,7.73
1765364078.96,1019.56,26.99,-52.41,204.31,-5.81,-10.44,-0.97,0.42,8.89
1765364079.08,1019.56,26.99,-52.39,204.31,0.69,-9.19,0.67,1.74,10.14
1765364079.20,1019.56,26.99,-52.40,204.50,-1.62,-9.00,-0.61,1.89,8.19
1765364079.32,1019.56,27.00,-52.42,205.00,-5.56,-9.81,-0.94,1.40,9.73
1765364079.44,1019.56,27.00,-52.38,205.62,-7.69,-6.94,-1.29,1.70,9.28
1765364079.57,1019.56,27.00,-52.38,204.38,-6.69,-4.38,-0.92,0.37,8.82
1765364079.72,1019.55,27.01,-52.33,203.88,-8.06,-4.00,-1.43,0.52,9.67
1765364079.83,1019.55,27.01,-52.29,205.69,-6.38,-7.44,-1.03,1.06,9.18
1765364079.94,1019.55,27.00,-52.29,207.12,-6.88,-12.25,-1.03,2.59,8.96
1765364080.05,1019.54,27.00,-52.23,208.69,-6.50,-16.12,-1.01,3.14,8.89
1765364080.16,1019.54,27.01,-52.24,209.75,-5.62,-19.94,-1.11,3.14,8.77
1765364080.27,1019.53,27.01,-52.17,209.88,-2.75,-22.06,-0.03,3.67,8.22
1765364080.38,1019.53,27.01,-52.17,210.25,1.44,-24.62,-0.28,4.78,8.46
1765364080.50,1019.52,27.01,-52.09,208.50,4.38,-26.94,0.97,4.31,7.96
1765364080.61,1019.52,27.01,-52.09,205.88,6.06,-28.69,1.06,4.45,7.75
1765364080.72,1019.52,27.01,-52.05,202.75,6.56,-29.62,1.19,4.70,8.22
1765364080.83,1019.52,27.01,-52.04,200.38,7.38,-30.56,1.25,4.95,8.12
1765364080.94,1019.52,27.02,-52.05,199.94,9.25,-31.56,1.64,5.19,7.67
1765364081.06,1019.52,27.02,-52.05,198.25,12.88,-33.75,1.81,5.41,7.14
1765364081.17,1019.52,27.02,-52.06,196.31,17.38,-35.12,3.28,5.43,7.10
1765364081.28,1019.52,27.02,-52.08,197.06,19.31,-34.88,3.23,5.28,6.49
1765364081.39,1019.52,27.02,-52.08,196.88,19.94,-34.12,3.64,4.81,7.00
1765364081.50,1019.52,27.02,-52.09,197.06,19.81,-34.06,3.42,4.93,6.47
1765364081.61,1019.52,27.02,-52.10,197.81,18.06,-36.00,3.27,4.98,6.50
1765364081.72,1019.53,27.02,-52.17,200.56,15.00,-38.12,2.29,5.94,7.20
1765364081.83,1019.53,27.03,-52.18,202.50,13.81,-39.75,1.77,6.37,7.11
1765364081.94,1019.54,27.03,-52.26,202.19,16.12,-40.19,3.14,5.92,6.41
1765364082.05,1019.54,27.03,-52.26,201.94,20.12,-36.81,3.48,5.37,6.19
1765364082.16,1019.54,27.03,-52.25,203.06,20.50,-36.44,3.68,4.96,7.57
1765364082.27,1019.54,27.03,-52.25,202.19,20.00,-35.31,4.02,5.13,6.89
1765364082.38,1019.54,27.04,-52.25,202.12,20.50,-35.25,3.25,5.42,7.35
1765364082.49,1019.54,27.04,-52.24,200.19,21.88,-34.56,3.48,4.35,5.79
1765364082.60,1019.54,27.04,-52.24,200.38,21.44,-33.38,3.30,5.52,7.64
1765364082.71,1019.54,27.04,-52.28,200.38,21.12,-33.88,3.41,4.70,6.66
1765364082.82,1019.54,27.04,-52.28,200.88,21.12,-34.56,3.40,5.05,7.00
1765364082.94,1019.55,27.04,-52.33,200.50,21.06,-34.56,3.91,5.39,7.02
1765364083.05,1019.55,27.05,-52.34,200.56,20.94,-35.00,3.18,5.31,6.76
1765364083.16,1019.55,27.05,-52.36,200.81,19.94,-35.19,2.76,4.67,6.83
1765364083.27,1019.56,27.06,-52.37,201.69,16.25,-33.44,3.08,5.35,7.85
1765364083.38,1019.55,27.06,-52.36,202.94,14.06,-31.94,2.44,4.95,7.37
1765364083.49,1019.56,27.06,-52.36,203.62,14.00,-31.31,2.20,4.73,7.59
1765364083.61,1019.55,27.06,-52.32,203.38,14.19,-29.00,2.33,4.24,7.90
1765364083.72,1019.55,27.06,-52.32,204.06,13.00,-27.12,2.12,4.06,8.07
1765364083.83,1019.55,27.06,-52.30,204.50,11.81,-25.56,1.98,3.98,8.22
1765364083.94,1019.55,27.06,-52.29,204.81,10.75,-25.12,1.58,4.06,7.95
1765364084.06,1019.55,27.07,-52.29,204.75,10.31,-24.88,1.71,3.50,8.37
1765364084.17,1019.54,27.07,-52.27,204.88,9.56,-24.50,1.60,4.10,8.36
1765364084.28,1019.55,27.08,-52.28,205.31,7.75,-24.19,0.99,3.42,8.23
1765364084.39,1019.54,27.08,-52.27,204.75,7.44,-22.81,1.60,4.17,8.97
1765364084.50,1019.54,27.08,-52.27,205.19,6.75,-22.94,0.89,3.60,8.36
1765364084.61,1019.54,27.08,-52.26,204.88,6.62,-23.00,1.12,4.05,9.03
1765364084.73,1019.54,27.08,-52.26,204.94,6.56,-23.69,0.97,4.06,8.97
1765364084.84,1019.54,27.08,-52.24,205.56,6.94,-24.06,1.29,4.33,9.17
1765364084.95,1019.54,27.08,-52.24,207.56,6.56,-24.69,1.11,3.81,8.51
1765364085.06,1019.54,27.08,-52.24,208.69,6.44,-25.31,1.43,4.21,9.14
1765364085.17,1019.54,27.08,-52.25,210.50,6.25,-25.88,1.26,4.43,8.78
1765364085.28,1019.54,27.08,-52.23,212.62,4.88,-27.69,1.04,4.44,8.92
1765364085.39,1019.53,27.08,-52.19,212.81,4.25,-29.69,0.37,5.53,9.43
1765364085.50,1019.53,27.08,-52.19,212.25,4.38,-32.25,0.92,5.12,7.39
1765364085.61,1019.53,27.08,-52.18,210.00,7.06,-32.12,0.41,5.25,7.76
1765364085.72,1019.53,27.09,-52.18,207.19,10.31,-28.94,1.88,5.05,8.77
1765364085.83,1019.53,27.09,-52.18,205.25,12.81,-25.31,2.35,3.86,8.77
1765364085.94,1019.53,27.09,-52.18,205.81,13.19,-23.88,2.68,3.84,10.41
1765364086.05,1019.53,27.09,-52.15,206.50,13.19,-23.62,1.93,3.92,8.74
1765364086.16,1019.53,27.09,-52.16,206.00,13.75,-22.69,2.48,3.46,9.80
1765364086.27,1019.53,27.09,-52.16,206.25,14.31,-21.19,2.21,4.06,8.85
1765364086.38,1019.53,27.10,-52.16,207.31,20.00,-18.94,3.58,3.66,7.92
1765364086.50,1019.53,27.10,-52.17,208.06,23.50,-17.44,3.68,2.49,8.56
1765364086.60,1019.53,27.10,-52.17,208.06,25.25,-15.81,3.64,2.18,9.70
1765364086.71,1019.53,27.10,-52.15,206.44,25.56,-14.44,4.21,2.10,8.75
1765364086.82,1019.53,27.11,-52.16,207.00,25.62,-13.75,4.53,2.69,9.58
1765364086.94,1019.53,27.11,-52.14,205.94,25.62,-13.00,4.93,1.95,7.64
1765364087.05,1019.53,27.11,-52.12,205.94,25.00,-10.75,4.19,1.40,7.99
1765364087.16,1019.53,27.11,-52.12,206.19,22.44,-9.06,3.39,1.15,10.27
1765364087.27,1019.53,27.11,-52.13,206.62,21.31,-10.00,3.33,1.36,9.18
1765364087.37,1019.53,27.11,-52.13,207.44,19.31,-12.25,3.61,2.34,7.97
1765364087.49,1019.53,27.11,-52.13,208.25,19.25,-11.12,3.29,1.90,8.95
1765364087.60,1019.53,27.11,-52.13,208.31,19.19,-10.81,3.15,2.32,9.44
1765364087.71,1019.53,27.11,-52.14,208.38,18.12,-11.38,3.23,2.35,7.54
1765364087.82,1019.53,27.11,-52.13,209.62,16.56,-9.88,2.93,2.30,9.66
1765364087.93,1019.53,27.11,-52.11,209.56,13.12,-7.50,2.28,1.22,9.37
1765364088.04,1019.53,27.12,-52.12,209.81,11.50,-9.62,2.04,2.24,9.27
1765364088.15,1019.53,27.12,-52.13,210.00,10.44,-8.19,0.59,1.70,8.97
1765364088.26,1019.53,27.13,-52.14,210.00,9.81,-6.31,1.70,1.29,9.74
1765364088.37,1019.53,27.13,-52.13,210.25,9.25,2043.88,1.65,1.19,9.87
1765364088.48,1019.53,27.12,-52.12,209.75,4.69,-14.56,2.46,4.10,5.85
1765364088.59,1019.52,27.13,-52.11,209.75,2.12,-20.25,0.62,3.06,9.35
1765364088.70,1019.51,27.13,-52.02,208.94,1.94,-20.19,-0.32,3.36,9.43
1765364088.81,1019.51,27.13,-52.02,208.31,2.94,-19.06,1.16,3.14,9.18
1765364088.93,1019.53,27.13,-52.12,208.38,1.94,-19.00,-0.18,4.33,7.90
1765364089.04,1019.53,27.14,-52.13,208.00,3.44,-11.94,0.46,0.91,7.89
1765364089.15,1019.53,27.14,-52.16,208.38,3.38,-10.00,0.51,1.99,9.94
1765364089.26,1019.53,27.14,-52.17,208.88,5.12,-7.81,0.90,1.52,9.69
1765364089.38,1019.53,27.14,-52.14,208.69,4.94,-7.19,-326.99,1.47,9.77
1765364089.49,1019.53,27.15,-52.15,208.56,4.25,-7.31,0.58,1.67,9.92
1765364089.61,1019.52,27.15,-52.10,208.69,3.81,-5.06,1.30,0.74,10.15
1765364089.72,1019.52,27.15,-52.10,208.31,3.94,-9.69,-0.55,2.34,9.88
1765364089.83,1019.48,27.15,-51.71,208.56,4.75,-2.38,1.10,0.63,10.74
1765364089.94,1019.46,27.15,-51.54,208.38,5.12,-2.62,1.11,0.64,10.51
1765364090.05,1019.46,27.17,-51.56,208.44,6.69,-2.69,0.45,-0.52,8.81
1765364090.17,1019.41,27.17,-51.13,208.00,8.25,0.12,0.65,0.41,9.73
1765364090.28,1019.41,27.18,-51.13,207.81,7.25,-0.81,-1.99,4.49,9.96
1765364090.39,1019.41,27.18,-51.17,207.75,7.25,-0.75,1.48,0.20,9.89
1765364090.50,1019.41,27.18,-51.18,206.88,7.12,-0.94,1.23,0.35,9.86
1765364090.61,1019.42,27.18,-51.25,206.75,7.25,-1.12,1.21,0.39,9.89
1765364090.72,1019.42,27.18,-51.24,206.38,7.75,-0.75,1.88,0.24,9.99
1765364090.83,1019.48,27.18,-51.71,205.88,7.44,-0.19,1.06,0.27,10.07
1765364090.95,1019.48,27.18,-51.71,205.81,7.44,-0.25,1.24,0.21,9.90
1765364091.06,1019.48,27.18,-51.73,205.81,7.44,-0.31,1.29,0.26,9.85
1765364091.17,1019.48,27.19,-51.75,205.81,7.44,-0.31,1.23,0.21,9.85
1765364091.28,1019.48,27.19,-51.73,205.75,7.44,-0.38,1.24,0.29,9.88
1765364091.39,1019.49,27.19,-51.85,205.75,7.44,-0.50,0.82,0.56,10.19
1765364091.50,1019.49,27.19,-51.85,206.25,9.62,0.62,3.94,-2.39,9.55
1765364091.61,1019.49,27.19,-51.86,206.12,10.00,0.50,1.80,0.07,9.65
1765364091.72,1019.50,27.20,-51.87,206.38,8.44,-0.75,0.94,0.50,9.93
1765364091.83,1019.49,27.20,-51.83,206.75,7.25,-1.81,-0.85,2.31,10.86
1765364091.95,1019.49,27.20,-51.83,206.94,7.25,-0.94,1.33,0.26,9.78
1765364092.06,1019.49,27.20,-51.79,206.94,7.19,-1.12,1.16,0.33,9.97
1765364092.17,1019.49,27.21,-51.80,207.00,7.12,-1.06,1.05,0.28,9.91
1765364092.28,1019.50,27.21,-51.94,207.00,7.12,-1.00,1.25,0.14,8.90
1765364092.39,1019.51,27.21,-51.95,207.00,7.19,-1.50,1.19,0.46,9.20
1765364092.50,1019.49,27.21,-51.82,207.00,7.31,-1.31,0.88,0.63,9.83
1765364092.61,1019.49,27.21,-51.82,206.88,7.44,-1.44,1.01,0.33,10.25
1765364092.72,1019.50,27.21,-51.93,206.25,7.50,-3.12,0.89,0.69,10.09
1765364092.83,1019.50,27.21,-51.93,205.75,8.00,-4.62,1.47,0.91,9.84
1765364092.94,1019.50,27.21,-51.94,205.69,7.25,-3.12,1.58,-0.38,10.14
1765364093.05,1019.49,27.21,-51.82,205.50,7.44,-1.81,1.65,0.06,9.56
1765364093.16,1019.49,27.21,-51.82,205.31,7.62,-1.44,1.75,-0.25,9.91
1765364093.28,1019.49,27.21,-51.86,205.38,7.31,-1.50,0.97,1.05,9.64
1765364093.39,1019.50,27.22,-51.88,205.50,8.19,0.19,1.75,0.04,9.67
1765364093.50,1019.50,27.22,-51.91,205.38,8.44,0.69,1.37,0.07,9.82
1765364093.61,1019.50,27.22,-51.91,205.38,8.19,0.38,1.23,0.30,9.91
1765364093.72,1019.47,27.22,-51.64,205.38,8.00,0.06,1.46,-0.13,9.87
1765364093.83,1019.47,27.23,-51.65,204.88,7.06,-2.44,-1.08,1.61,6.73
1765364093.94,1019.46,27.23,-51.55,204.19,5.56,-5.38,1.35,2.88,10.34
1765364094.05,1019.46,27.23,-51.55,203.38,4.38,-3.00,0.05,0.18,9.80
1765364094.16,1019.48,27.23,-51.76,202.75,4.06,-1.31,0.00,1.13,9.73
1765364094.27,1019.48,27.24,-51.77,202.31,3.81,0.50,0.16,0.41,8.43
1765364094.38,1019.48,27.24,-51.74,201.56,2.44,1.56,0.36,-0.27,10.21
1765364094.49,1019.48,27.24,-51.74,200.75,1.94,1.31,0.47,-0.08,9.61
1765364094.60,1019.45,27.24,-51.47,200.38,1.81,0.81,0.15,-0.01,10.01
1765364094.71,1019.46,27.24,-51.61,200.31,1.81,0.62,0.27,-0.25,10.07
1765364094.83,1019.46,27.25,-51.62,200.19,1.88,0.75,0.31,0.18,9.43
1765364094.94,1019.48,27.25,-51.78,200.06,1.81,0.81,0.35,0.05,9.97
1765364095.05,1019.49,27.25,-51.78,198.12,1.88,0.88,1.05,-0.29,9.95
1765364095.16,1019.48,27.25,-51.77,196.75,1.75,0.81,0.36,0.03,9.96
1765364095.28,1019.48,27.26,-51.78,196.50,1.25,0.81,0.30,-0.21,10.24
1765364095.39,1019.46,27.26,-51.59,196.94,0.94,0.69,0.29,-0.12,9.97
1765364095.51,1019.46,27.26,-51.59,197.00,0.75,0.62,0.15,0.01,10.02
1765364095.62,1019.46,27.26,-51.60,197.38,0.62,0.50,0.00,-0.84,10.55
1765364095.73,1019.46,27.27,-51.61,197.81,0.62,0.50,0.34,0.29,9.84
1765364095.84,1019.48,27.26,-51.75,198.56,0.50,-0.50,0.18,0.18,10.49
1765364095.95,1019.51,27.26,-51.96,199.75,0.44,-1.44,0.14,0.31,10.14
1765364096.06,1019.51,27.26,-51.95,201.00,-0.69,-3.25,-1.00,0.21,8.26
1765364096.18,1019.55,27.26,-52.32,200.94,-0.31,-3.12,-1.21,0.45,9.25
1765364096.29,1019.55,27.26,-52.32,200.69,0.56,-0.06,0.06,-0.87,10.36
1765364096.40,1019.49,27.26,-51.82,200.44,0.50,0.38,-0.94,0.50,10.62
1765364096.51,1019.49,27.26,-51.83,200.44,0.75,1.00,-0.14,-0.25,10.36
1765364096.62,1019.50,27.26,-51.94,200.62,0.62,1.19,-0.07,-0.09,9.59
1765364096.73,1019.50,27.27,-51.94,200.56,0.44,1.44,0.11,-0.10,10.02
1765364096.84,1019.50,27.27,-51.93,199.62,0.00,0.81,-0.10,-0.27,9.90
1765364096.95,1019.50,27.27,-51.93,198.69,0.81,0.56,-0.47,0.05,10.09
1765364097.06,1019.51,27.27,-52.01,199.44,1.00,0.81,0.32,0.17,9.66
1765364097.17,1019.51,27.27,-52.01,198.19,1.00,0.62,0.50,0.12,10.42
1765364097.28,1019.52,27.27,-52.08,197.25,1.00,0.06,-0.23,0.50,10.01
1765364097.39,1019.52,27.27,-52.08,-1849.81,0.94,-0.19,0.61,0.54,9.93
1765364097.51,1019.53,27.28,-52.14,197.81,1.12,-0.38,0.22,0.35,9.88
1765364097.62,1019.53,27.28,-52.16,197.44,1.69,0.25,0.48,-0.10,9.94
1765364097.73,1019.53,27.28,-52.16,196.56,1.44,0.00,0.53,-0.23,9.93
1765364097.84,1019.51,27.28,-52.00,195.56,0.94,-0.44,0.01,0.58,10.02
1765364097.95,1019.51,27.29,-52.01,195.44,1.12,-0.19,0.08,-0.09,10.34
1765364098.06,1019.51,27.29,-51.97,195.12,0.94,-0.44,0.09,0.27,10.04
1765364098.17,1019.51,27.29,-51.98,195.00,0.88,-0.44,0.08,0.22,10.02
1765364098.28,1019.51,27.29,-51.99,194.81,0.88,-0.50,0.10,0.22,9.94
1765364098.39,1019.51,27.29,-51.98,194.69,0.88,-0.50,0.26,0.04,10.07
1765364098.50,1019.51,27.29,-51.96,194.25,0.88,-0.56,-0.27,-0.29,10.18
1765364098.61,1019.51,27.29,-51.96,190.19,1.06,-0.31,0.51,0.30,10.20
1765364098.72,1019.51,27.29,-51.97,189.19,0.94,-1.31,0.00,1.06,9.35
1765364098.83,1019.51,27.29,-51.97,189.38,0.94,-1.00,0.04,-0.17,9.87
1765364098.94,1019.51,27.29,-52.00,189.44,1.38,0.69,-0.21,-0.05,9.34
1765364099.05,1019.51,27.29,-52.00,187.44,1.38,0.81,1.07,-0.07,10.07
1765364099.16,1019.51,27.30,-52.01,187.12,1.38,0.88,0.08,0.19,9.91
1765364099.27,1019.50,27.30,-51.91,186.38,1.38,0.88,0.12,0.07,9.89
1765364099.38,1019.50,27.31,-51.93,185.25,1.56,1.06,0.13,-0.07,9.70
1765364099.49,1019.50,27.31,-51.92,183.25,1.38,0.88,0.31,-0.21,10.08
1765364099.60,1019.50,27.31,-51.93,182.56,1.31,0.75,-0.06,-0.18,9.99
1765364099.71,1019.50,27.31,-51.91,180.69,1.25,0.38,-0.36,0.49,9.65
1765364099.83,1019.50,27.31,-51.91,175.56,1.25,1.81,1.25,0.08,9.35
1765364099.94,1019.50,27.31,-51.90,174.50,1.25,2.38,0.37,-0.38,9.97
1765364100.05,1019.50,27.31,-51.90,174.44,1.25,2.31,0.22,-0.22,9.89
1765364100.16,1019.50,27.31,-51.88,174.44,1.25,2.38,0.17,-0.36,10.08
1765364100.27,1019.50,27.32,-51.89,174.44,1.25,2.38,0.34,-0.22,9.96
1765364100.38,1019.50,27.32,-51.91,174.69,1.25,2.31,0.22,-0.30,9.96
1765364100.50,1019.50,27.32,-51.91,174.69,1.25,2.31,0.27,-0.21,10.03
1765364100.61,1019.50,27.33,-51.87,174.88,1.25,2.31,0.20,-0.33,9.93
1765364100.72,1019.50,27.33,-51.88,174.81,1.25,2.25,0.23,-0.31,9.99
1765364100.83,1019.50,27.33,-51.89,174.81,1.25,2.25,0.08,-0.32,10.05
1765364100.95,1019.49,27.33,-51.86,174.88,1.25,2.31,0.32,-0.40,10.11
1765364101.07,1019.49,27.33,-51.86,175.19,1.25,2.31,0.16,-0.52,10.28
1765364101.18,1019.50,27.33,-51.87,175.31,1.25,2.31,0.20,-0.25,9.99
1765364101.29,1019.50,27.33,-51.87,175.56,1.25,2.31,0.01,-0.32,10.05
1765364101.40,1019.50,27.33,-51.87,176.31,1.25,2.25,0.08,0.03,10.10
1765364101.52,1019.50,27.33,-51.88,176.50,1.06,1.94,0.06,-0.15,9.55
1765364101.63,1019.49,27.33,-51.82,176.69,0.50,-2.31,-0.01,0.65,10.82
1765364101.74,1019.49,27.33,-51.82,176.88,1.00,-2.69,0.71,0.83,12.72
1765364101.85,1019.54,27.33,-52.24,176.75,0.75,-2.50,-0.27,1.95,7.88
1765364101.96,1019.54,27.33,-52.21,177.12,0.56,-2.25,-0.47,0.52,9.51
1765364102.08,1019.54,27.34,-52.22,178.19,1.19,-3.25,0.18,-0.43,10.07
1765364102.18,1019.53,27.34,-52.18,180.69,0.69,-4.50,0.87,1.00,9.44
1765364102.30,1019.53,27.34,-52.18,180.62,2.94,-4.94,0.06,1.17,10.08
1765364102.41,1019.53,27.34,-52.14,180.94,4.94,-5.31,0.56,0.55,9.49
1765364102.52,1019.53,27.34,-52.15,181.94,6.38,-5.75,1.25,0.78,9.74
1765364102.63,1019.52,27.34,-52.11,183.44,8.19,-6.12,1.33,1.30,9.71
1765364102.74,1019.52,27.35,-52.11,185.25,9.94,-6.69,1.68,1.47,9.39
1765364102.85,1019.52,27.35,-52.09,186.25,10.75,-6.69,1.65,1.60,9.57
1765364102.96,1019.52,27.35,-52.09,186.62,11.00,-6.94,2.07,1.57,9.70
1765364103.07,1019.52,27.35,-52.10,187.00,12.25,-7.19,2.00,1.43,9.19
1765364103.18,1019.52,27.35,-52.10,187.44,12.44,-7.19,1.97,1.16,9.41
1765364103.29,1019.52,27.35,-52.06,187.44,12.12,-6.94,1.94,0.86,9.76
1765364103.40,1019.52,27.35,-52.05,187.88,11.94,-6.44,1.84,1.23,9.39
1765364103.51,1019.52,27.36,-52.06,188.50,11.31,-6.19,2.09,1.41,9.49
1765364103.62,1019.52,27.36,-52.04,188.50,10.62,-6.00,1.93,1.15,9.66
1765364103.73,1019.52,27.36,-52.05,188.44,10.12,-6.31,1.82,0.87,9.88
1765364103.84,1019.52,27.36,-52.04,188.69,9.94,-6.44,1.55,1.07,9.57
1765364103.95,1019.52,27.36,-52.04,189.06,9.56,-6.44,1.78,1.04,9.65
1765364104.06,1019.52,27.36,-52.05,189.50,9.12,-6.75,1.87,1.42,9.82
1765364104.18,1019.52,27.36,-52.05,189.69,8.62,-7.19,1.54,1.25,9.57
1765364104.29,1019.53,27.36,-52.14,190.12,7.94,-7.62,1.12,1.58,9.97
1765364104.40,1019.53,27.37,-52.15,190.00,7.06,-7.56,1.89,1.21,10.11
1765364104.51,1019.55,27.37,-52.30,190.19,7.75,-7.62,1.26,1.71,9.58
1765364104.62,1019.55,27.37,-52.31,190.19,8.00,-8.06,1.26,1.53,9.73
1765364104.73,1019.56,27.37,-52.42,190.31,7.94,-8.38,1.43,1.00,9.74
1765364104.84,1019.56,27.38,-52.42,191.06,8.25,-8.56,1.35,1.17,9.53
1765364104.95,1019.57,27.38,-52.49,192.06,8.38,-8.56,1.33,1.88,9.62
1765364105.06,1019.58,27.38,-52.53,192.25,8.38,-9.12,1.52,1.85,9.70
1765364105.17,1019.58,27.38,-52.53,191.69,8.25,-9.38,1.66,1.72,9.72
1765364105.28,1019.57,27.38,-52.52,191.31,8.38,-9.69,0.83,1.76,10.13
1765364105.39,1019.58,27.38,-52.53,190.81,8.44,-9.94,1.38,1.13,9.85
1765364105.50,1019.57,27.38,-52.50,191.44,9.50,-10.50,1.64,1.71,9.75
1765364105.61,1019.57,27.39,-52.50,192.88,10.44,-11.62,1.48,2.39,10.08
1765364105.72,1019.57,27.39,-52.47,193.81,9.25,-14.81,1.25,2.61,9.67
1765364105.83,1019.57,27.39,-52.48,192.56,8.81,-19.00,1.98,2.40,8.50
1765364105.94,1019.56,27.39,-52.42,192.00,7.25,-21.44,1.25,2.62,9.89
1765364106.05,1019.56,27.40,-52.42,194.75,6.56,-22.88,2.31,4.26,7.36
1765364106.17,1019.56,27.40,-52.39,197.56,8.00,-28.19,1.54,3.93,7.19
1765364106.28,1019.56,27.39,-52.37,197.62,10.56,-28.56,1.28,6.05,9.17
1765364106.40,1019.56,27.39,-52.36,194.56,14.06,-29.19,1.03,5.11,5.99
1765364106.51,1019.56,27.39,-52.37,195.69,15.81,-8.62,4.82,-2.62,15.15
1765364106.62,1019.56,27.40,-52.37,203.50,14.12,-4.00,2.47,0.94,8.62
1765364106.73,1019.55,27.40,-52.35,209.50,12.88,1.56,2.26,-1.18,9.78
1765364106.84,1019.55,27.40,-52.34,216.44,8.50,8.81,1.56,-2.36,9.16
1765364106.95,1019.54,27.40,-52.26,219.81,5.88,11.94,0.82,-1.55,9.48
1765364107.07,1019.54,27.40,-52.26,224.31,4.81,12.06,1.72,-2.01,9.70
1765364107.18,1019.54,27.40,-52.22,228.56,2.19,11.06,-0.28,-1.69,10.83
1765364107.29,1019.54,27.39,-52.21,232.44,0.62,7.81,0.06,-0.95,9.91
1765364107.40,1019.53,27.39,-52.18,235.44,-0.12,6.00,-0.05,-0.93,9.76
1765364107.51,1019.53,27.39,-52.18,235.88,-0.38,3.50,-0.51,-0.10,10.12
1765364107.62,1019.53,27.39,-52.16,236.81,-0.19,1.81,-0.45,-0.21,9.71
1765364107.73,1019.53,27.39,-52.15,236.44,1.50,-0.25,0.07,0.47,9.32
1765364107.84,1019.53,27.39,-52.15,235.19,-14.81,-0.06,0.92,1.44,10.36
1765364107.95,1019.53,27.40,-52.16,232.94,1.69,-0.31,0.04,-0.70,9.46
1765364108.06,1019.53,27.40,-52.16,231.56,0.62,0.62,0.04,0.37,10.88
1765364108.17,1019.53,27.40,-52.14,230.81,-3.25,4.00,-0.38,-0.85,9.70
1765364108.28,1019.53,27.41,-52.15,230.75,-5.69,6.75,-0.98,-0.87,9.91
1765364108.39,1019.53,27.41,-52.12,230.81,-7.69,8.94,-1.79,-1.33,9.89
1765364108.51,1019.53,27.42,-52.13,231.12,-7.69,9.94,-0.93,-1.20,9.38
1765364108.62,1019.53,27.42,-52.11,231.62,-8.31,9.75,-1.79,-1.60,9.55
1765364108.73,1019.53,27.42,-52.12,233.88,-8.19,10.00,-1.28,-1.10,10.27
1765364108.84,1019.52,27.42,-52.11,236.75,-8.75,13.62,-1.69,-2.73,9.24
1765364108.95,1019.53,27.43,-52.13,237.56,-9.12,15.81,-1.68,-2.35,8.96
1765364109.06,1019.52,27.43,-52.11,239.19,-7.06,16.69,-1.37,-2.81,9.76
1765364109.17,1019.52,27.43,-52.10,240.62,-4.12,18.44,-0.10,-2.23,9.58
1765364109.29,1019.52,27.43,-52.08,240.56,-2.62,19.44,-0.59,-3.08,9.06
1765364109.40,1019.52,27.44,-52.10,239.19,-1.69,18.38,-0.09,-2.32,9.26
1765364109.51,1019.52,27.45,-52.07,237.81,-2.81,17.19,-0.77,-2.07,10.22
1765364109.62,1019.52,27.45,-52.07,236.62,-3.19,16.06,-0.65,-2.49,9.64
1765364109.73,1019.52,27.44,-52.06,235.62,-3.06,14.62,-0.58,-3.01,9.14
1765364109.84,1019.52,27.44,-52.04,235.25,-2.19,12.19,0.04,-2.22,9.69
1765364109.95,1019.52,27.44,-52.04,233.06,-1.69,10.69,-0.20,-1.07,9.32
1765364110.06,1019.52,27.44,-52.05,229.31,-1.31,8.44,0.28,-0.97,9.94
1765364110.17,1019.52,27.44,-52.05,226.31,-1.62,6.88,-1.13,-0.39,10.09
1765364110.28,1019.52,27.44,-52.07,225.12,-1.19,5.31,-0.60,-0.62,9.25
1765364110.39,1019.52,27.44,-52.07,224.12,5.56,1.19,3.16,-0.29,9.93
1765364110.51,1019.52,27.44,-52.08,221.00,8.06,-0.94,1.72,0.51,10.12
1765364110.62,1019.52,27.45,-52.09,218.88,6.12,-0.12,2.59,-0.98,8.70
1765364110.73,1019.52,27.45,-52.10,215.44,4.12,-4.69,-0.77,1.93,10.19
1765364110.84,1019.52,27.46,-52.11,212.38,6.31,-8.25,2.59,2.51,10.13
1765364110.95,1019.53,27.46,-52.13,205.50,10.25,-13.25,3.88,4.15,10.10
1765364111.06,1019.53,27.46,-52.14,202.69,7.12,-13.31,1.90,1.83,9.92
1765364111.17,1019.53,27.46,-52.14,198.94,5.75,-8.62,0.38,2.63,9.82
1765364111.28,1019.53,27.46,-52.15,200.75,3.56,-11.19,-0.06,1.28,10.21
1765364111.39,1019.53,27.45,-52.15,200.69,0.94,-11.06,0.03,2.05,9.59
1765364111.51,1019.53,27.45,-52.16,201.81,1.50,-12.50,0.11,2.27,10.19
1765364111.62,1019.53,27.45,-52.17,200.69,1.50,-14.62,2.29,3.30,8.81
1765364111.73,1019.53,27.45,-52.17,201.38,1.44,-15.19,0.43,2.78,8.51
1765364111.84,1019.53,27.47,-52.19,201.50,0.69,-15.31,0.43,2.67,9.22
1765364111.95,1019.53,27.47,-52.18,202.19,2.25,-16.69,0.03,3.18,9.17
1765364112.06,1019.53,27.47,-52.19,201.69,2.56,-17.12,0.62,2.85,9.63
1765364112.18,1019.53,27.47,-52.19,202.19,4.31,-17.81,0.63,3.13,8.66
1765364112.29,1019.53,27.47,-52.19,202.50,5.00,-18.69,0.99,3.54,9.36
1765364112.40,1019.53,27.47,-52.18,201.44,5.19,-17.75,1.53,3.26,9.63
1765364112.51,1019.54,27.48,-52.20,200.56,7.81,-17.12,1.41,2.70,9.23
1765364112.63,1019.54,27.48,-52.20,198.75,9.88,-15.50,1.89,2.47,10.14
1765364112.74,1019.54,27.48,-52.20,196.62,9.31,-13.75,1.97,2.27,9.46
1765364112.85,1019.54,27.49,-52.22,195.00,8.44,-10.69,1.81,2.08,9.72
1765364112.97,1019.54,27.49,-52.25,194.44,7.56,-9.19,1.41,1.79,9.72
1765364113.08,1019.54,27.49,-52.25,193.81,11.44,-8.81,2.44,1.72,10.24
1765364113.19,1019.54,27.49,-52.26,192.19,16.12,-11.69,1.04,3.96,10.75
1765364113.30,1019.54,27.50,-52.26,190.19,13.19,-10.62,2.81,0.73,9.67
1765364113.41,1019.54,27.50,-52.26,189.19,11.50,-10.44,1.06,1.90,9.15
1765364113.52,1019.54,27.50,-52.26,190.38,11.94,-12.69,1.99,0.91,8.74
1765364113.63,1019.54,27.50,-52.26,191.81,10.56,-10.62,0.54,0.83,5.22
1765364113.74,1019.54,27.51,-52.27,191.50,6.69,-7.69,2.34,3.24,8.40
1765364113.90,1019.55,27.51,-52.28,192.62,2.69,-5.94,0.48,0.96,9.88
1765364114.01,1019.55,27.51,-52.30,192.69,3.38,-5.00,1.44,1.55,9.99
1765364114.12,1019.55,27.51,-52.31,192.56,2.56,-4.75,0.99,1.57,12.63
1765364114.23,1019.55,27.51,-52.31,192.50,1.69,-4.25,-0.43,0.66,8.66
1765364114.34,1019.55,27.52,-52.32,192.56,0.31,-4.94,3.18,1.21,13.24
1765364114.45,1019.55,27.52,-52.33,192.31,-1.75,-3.94,0.29,0.60,10.67
1765364114.56,1019.55,27.52,-52.33,192.62,-2.12,-2.56,-0.25,0.79,9.65
1765364114.68,1019.55,27.52,-52.34,192.56,-1.75,-1.88,-0.39,0.49,9.56
1765364114.79,1019.55,27.53,-52.34,192.69,-1.31,-0.81,-0.33,0.46,9.50
1765364114.90,1019.55,27.53,-52.33,192.50,-1.44,-0.06,-0.04,0.21,9.97
1765364115.01,1019.55,27.53,-52.32,192.62,-1.31,-0.12,-0.04,0.13,9.91
1765364115.12,1019.55,27.54,-52.33,192.62,-1.25,-0.62,-0.13,0.15,10.02
1765364115.23,1019.55,27.54,-52.32,192.56,-0.25,-2.44,0.59,1.08,12.69
1765364115.34,1019.55,27.54,-52.33,192.62,0.31,-1.50,0.25,0.33,10.21
1765364115.45,1019.51,27.54,-51.95,192.62,0.38,-1.62,0.22,0.41,10.00
1765364115.56,1019.51,27.54,-51.95,192.62,0.44,-1.62,0.21,0.02,8.63
1765364115.67,1019.49,27.54,-51.84,192.69,2.12,-2.06,0.36,0.93,6.63
1765364115.78,1019.49,27.55,-51.86,192.75,2.88,-2.50,0.84,0.93,9.63
1765364115.89,1019.47,27.55,-51.63,192.75,3.19,-2.88,0.82,0.76,9.25
1765364116.00,1019.47,27.56,-51.65,192.75,3.81,-2.69,1.55,0.67,12.88
1765364116.11,1019.42,27.56,-51.23,192.75,4.19,-3.50,0.92,0.85,9.73
1765364116.22,1019.42,27.57,-51.23,192.75,4.56,-4.62,1.10,1.24,9.59
1765364116.34,1019.43,27.57,-51.35,192.75,4.69,-4.75,0.82,0.99,9.62
1765364116.45,1019.45,27.57,-51.47,192.75,4.94,-5.00,1.03,1.12,9.58
1765364116.56,1019.45,27.58,-51.47,192.75,5.06,-5.19,0.59,1.23,9.10
1765364116.67,1019.45,27.58,-51.48,192.50,5.06,-5.25,1.08,1.09,9.63
1765364116.78,1019.45,27.58,-51.48,192.44,5.06,-5.31,1.21,1.10,9.59
1765364116.90,1019.43,27.58,-51.32,192.12,4.69,-5.12,1.00,1.29,8.95
1765364117.01,1019.43,27.58,-51.31,192.12,4.44,-4.75,0.52,0.93,9.16
1765364117.12,1019.41,27.58,-51.18,192.12,1.25,-3.25,0.41,0.87,13.18
1765364117.23,1019.41,27.58,-51.18,193.00,1.56,-3.81,0.36,0.72,9.79
1765364117.35,1019.47,27.58,-51.67,193.38,1.62,-4.69,0.39,1.01,9.63
1765364117.46,1019.47,27.58,-51.67,193.69,1.62,-4.00,0.36,0.88,9.55
1765364117.57,1019.47,27.58,-51.62,194.06,1.50,-1.31,-0.22,0.15,10.19
1765364117.68,1019.47,27.59,-51.63,194.62,1.81,-1.62,0.41,0.41,9.77
1765364117.80,1019.47,27.59,-51.68,195.00,1.81,-3.12,0.42,0.85,9.50
1765364117.91,1019.48,27.59,-51.72,195.31,1.88,-2.75,0.38,0.78,9.43
1765364118.02,1019.48,27.59,-51.73,195.56,1.75,-1.31,0.43,0.38,9.64
1765364118.13,1019.46,27.59,-51.57,195.56,1.81,-1.44,0.37,0.39,9.64
1765364118.25,1019.46,27.60,-51.57,195.62,1.81,-1.50,0.44,0.41,9.69
1765364118.36,1019.46,27.60,-51.57,196.06,1.69,-1.19,0.21,0.27,9.74
1765364118.47,1019.46,27.60,-51.58,196.06,1.69,-1.19,0.36,0.31,9.67
1765364118.59,1019.46,27.60,-51.56,196.12,1.69,-1.31,0.34,0.36,9.67
1765364118.70,1019.46,27.61,-51.57,196.12,1.75,-1.38,0.41,0.35,9.78
1765364118.81,1019.46,27.61,-51.59,196.12,1.75,-1.50,0.38,0.35,9.72
1765364118.92,1019.46,27.60,-51.57,196.12,1.81,-1.62,0.42,0.36,9.82
1765364119.03,1019.47,27.60,-51.69,196.12,1.94,-1.75,0.45,0.44,9.75
1765364119.14,1019.47,27.61,-51.69,196.12,1.94,-1.69,0.40,0.38,9.72
1765364119.25,1019.48,27.61,-51.77,196.12,1.94,-1.75,0.42,0.41,9.70
1765364119.36,1019.48,27.61,-51.78,196.12,1.94,-1.75,0.37,0.38,9.71
1765364119.47,1019.49,27.62,-51.78,196.12,1.94,-1.75,0.38,0.38,9.66
1765364119.58,1019.48,27.62,-51.76,196.12,2.00,-1.81,0.38,0.37,9.68
1765364119.69,1019.48,27.61,-51.76,196.12,2.00,-1.81,0.41,0.38,9.69
1765364119.80,1019.48,27.61,-51.75,196.12,2.00,-1.81,0.39,0.40,9.69
1765364119.91,1019.48,27.61,-51.75,196.12,2.00,-1.88,0.36,0.39,9.68
1765364120.02,1019.48,27.61,-51.74,196.12,2.00,-1.88,0.34,0.34,9.71
1765364120.13,1019.48,27.61,-51.74,196.12,2.00,-1.88,0.38,0.40,9.71
1765364120.24,1019.48,27.61,-51.74,196.12,2.00,-1.88,0.34,0.29,9.70
1765364120.35,1019.48,27.62,-51.75,196.12,2.00,-1.88,0.39,0.39,9.69
1765364120.46,1019.48,27.62,-51.73,196.12,2.00,-1.88,0.39,0.41,9.71
1765364120.57,1019.48,27.62,-51.74,196.12,2.00,-1.88,0.39,0.38,9.71
1765364120.68,1019.48,27.62,-51.73,196.12,2.00,-1.88,0.38,0.39,9.68
1765364120.79,1019.48,27.63,-51.74,196.12,2.00,-1.88,0.38,0.38,9.70
1765364120.91,1019.48,27.63,-51.75,196.12,2.00,-1.88,0.37,0.38,9.69
1765364121.02,1019.48,27.63,-51.75,196.12,2.00,-1.88,0.38,0.41,9.70
1765364121.13,1019.48,27.63,-51.75,196.12,2.00,-1.88,0.37,0.39,9.68
1765364121.24,1019.48,27.63,-51.76,196.12,2.00,-1.88,0.38,0.42,9.67
1765364121.35,1019.48,27.63,-51.76,196.12,2.00,-1.88,0.36,0.38,9.71
1765364121.46,1019.48,27.63,-51.76,-1851.88,2.00,-1.88,0.39,0.39,9.72
1765364121.57,1019.48,27.63,-51.77,196.12,2.00,-1.88,0.38,0.40,9.71
1765364121.68,1019.48,27.63,-51.77,196.12,2.00,-1.88,0.41,0.40,9.68
1765364121.79,1019.48,27.64,-51.77,196.12,2.00,-1.88,0.38,0.39,9.64
1765364121.90,1019.48,27.64,-51.77,196.12,2.00,-1.88,0.37,0.37,9.70
1765364122.01,1019.48,27.63,-51.77,196.12,2.00,-1.88,0.30,0.35,9.62
1765364122.12,1019.48,27.63,-51.76,196.12,2.00,-1.88,0.40,0.38,9.68
1765364122.23,1019.48,27.64,-51.78,196.06,2.00,-1.88,0.32,0.39,9.70
1765364122.34,1019.48,27.64,-51.77,196.06,2.06,-1.88,0.34,0.00,10.46
1765364122.45,1019.48,27.65,-51.77,196.06,2.06,-1.88,0.34,0.41,9.68
1765364122.56,1019.48,27.65,-51.75,196.06,2.06,-1.88,0.38,0.43,9.62
1765364122.67,1019.48,27.65,-51.74,196.06,2.06,-1.94,0.39,0.42,9.65
1765364122.78,1019.48,27.65,-51.75,196.12,2.06,-1.94,0.35,0.21,9.87
1765364122.90,1019.48,27.65,-51.75,196.12,2.00,-1.88,0.41,0.35,9.75
1765364123.01,1019.48,27.65,-51.75,196.12,2.00,-1.88,0.38,0.34,9.74
1765364123.12,1019.48,27.65,-51.75,196.12,2.00,-1.88,0.31,0.40,9.44
1765364123.23,1019.48,27.66,-51.75,196.12,2.00,-1.88,0.36,0.34,9.64
1765364123.35,1019.48,27.66,-51.75,196.12,2.00,-1.88,0.57,0.47,9.71
1765364123.46,1019.48,27.66,-51.76,197.50,2.00,-1.88,0.45,0.47,9.84
1765364123.57,1019.48,27.66,-51.73,197.50,1.94,-1.88,0.37,0.38,9.68
1765364123.68,1019.48,27.67,-51.74,197.50,1.94,-1.88,0.38,0.43,9.71
1765364123.79,1019.48,27.67,-51.74,197.56,2.00,-1.88,0.75,0.29,10.10
1765364123.91,1019.48,27.68,-51.74,197.56,2.00,-1.94,0.27,0.20,9.41
1765364124.02,1019.48,27.68,-51.74,197.56,2.00,-1.94,0.38,0.40,9.70
1765364124.13,1019.48,27.68,-51.72,197.56,2.00,-1.94,0.29,0.38,9.73
1765364124.25,1019.48,27.69,-51.73,197.56,2.00,-1.94,0.41,0.38,9.68
1765364124.36,1019.48,27.69,-51.72,197.56,2.00,-1.94,0.37,0.37,9.70
1765364124.48,1019.48,27.69,-51.72,197.56,2.00,-2.00,0.38,0.41,9.74
1765364124.58,1019.47,27.69,-51.69,197.56,2.00,-2.00,0.40,0.41,9.68
1765364124.70,1019.48,27.70,-51.70,197.56,2.06,-2.00,0.38,0.41,9.66
1765364124.81,1019.48,27.70,-51.71,197.56,2.06,-2.00,0.37,0.38,9.73
1765364124.92,1019.48,27.70,-51.72,197.56,2.06,-2.00,0.39,0.39,9.66
1765364125.03,1019.48,27.70,-51.71,197.56,2.06,-2.00,0.39,0.40,9.73
1765364125.15,1019.48,27.70,-51.70,197.56,2.06,-2.00,0.36,-0.23,10.40
1765364125.26,1019.48,27.71,-51.71,197.56,2.06,-2.00,0.36,0.33,9.75
1765364125.37,1019.48,27.71,-51.71,197.56,2.06,-2.00,0.52,0.62,9.54
1765364125.48,1019.48,27.72,-51.72,197.56,2.06,-2.00,0.40,0.38,9.67
1765364125.59,1019.48,27.72,-51.71,197.56,2.06,-2.31,0.70,0.33,10.16
1765364125.70,1019.48,27.71,-51.70,197.38,2.06,-2.31,-0.28,-0.39,10.20
1765364125.81,1019.47,27.71,-51.67,197.50,2.12,-3.31,0.31,0.31,10.09
1765364125.92,1019.47,27.72,-51.68,197.69,2.12,-4.75,0.38,0.89,9.40
1765364126.03,1019.47,27.72,-51.68,197.88,2.06,-5.06,0.40,0.95,9.71
1765364126.14,1019.47,27.72,-51.68,197.88,2.12,-4.44,0.41,0.85,9.66
1765364126.25,1019.47,27.72,-51.67,197.88,2.12,-3.44,0.82,0.95,9.61
1765364126.36,1019.47,27.72,-51.67,197.88,2.06,-2.06,0.10,0.32,9.73
1765364126.47,1019.47,27.72,-51.66,197.88,2.06,-2.06,0.39,0.38,9.61
1765364126.59,1019.47,27.73,-51.67,197.88,2.06,-2.06,0.51,0.48,9.68
1765364126.70,1019.47,27.73,-51.67,197.88,2.12,-2.19,0.36,0.48,9.76
1765364126.81,1019.47,27.74,-51.67,197.88,2.19,-2.19,0.50,0.42,9.54
1765364126.92,1019.47,27.74,-51.67,197.81,1.75,-4.56,0.53,0.24,9.45
1765364127.03,1019.50,27.74,-51.93,197.94,1.62,-6.06,0.40,1.08,9.78
1765364127.14,1019.50,27.74,-51.92,198.12,1.62,-6.81,0.23,1.60,9.45
1765364127.25,1019.51,27.74,-51.96,198.19,1.62,-7.06,0.00,1.31,9.53
1765364127.36,1019.51,27.74,-51.96,198.44,1.62,-7.00,0.65,1.05,9.62
1765364127.47,1019.51,27.74,-51.96,199.38,1.56,-6.75,0.39,1.01,9.81
1765364127.59,1019.51,27.74,-51.96,199.69,1.56,-6.19,0.39,0.91,9.90
1765364127.70,1019.51,27.74,-51.96,199.81,1.56,-6.62,0.63,0.98,9.87
1765364127.81,1019.51,27.73,-51.96,199.81,1.56,-6.94,0.58,0.99,9.48
1765364127.92,1019.51,27.73,-51.99,199.88,1.56,-6.81,0.21,1.53,9.03
1765364128.03,1019.51,27.74,-51.99,199.44,1.56,-5.75,0.24,0.94,9.68
1765364128.14,1019.51,27.74,-51.97,199.25,1.56,-5.94,0.25,0.97,9.51
1765364128.25,1019.51,27.74,-51.98,199.50,1.50,-6.00,0.40,1.40,9.49
1765364128.36,1019.51,27.75,-51.99,199.50,1.56,-6.00,0.10,0.92,9.75
1765364128.47,1019.51,27.75,-52.00,199.50,1.56,-6.19,0.13,1.41,9.32
1765364128.58,1019.51,27.74,-51.99,199.50,1.56,-6.06,-0.05,1.38,9.61
1765364128.69,1019.51,27.74,-52.02,201.25,1.44,-7.00,0.94,0.06,10.62
1765364128.80,1019.51,27.75,-52.03,201.69,1.50,-8.00,0.12,0.86,9.69
1765364128.91,1019.52,27.75,-52.05,201.50,1.50,-8.00,0.40,1.45,9.44
1765364129.02,1019.52,27.75,-52.05,201.75,1.44,-9.75,0.30,-0.12,12.19
1765364129.13,1019.56,27.75,-52.42,201.38,1.44,-9.38,-0.82,1.55,9.69
1765364129.25,1019.56,27.75,-52.42,200.75,1.31,-9.88,0.24,1.89,9.22
1765364129.36,1019.57,27.75,-52.52,201.62,1.31,-9.56,0.09,-1.16,8.51
1765364129.47,1019.57,27.74,-52.51,201.44,1.31,-8.06,0.66,1.21,9.38
1765364129.59,1019.57,27.74,-52.49,201.44,1.31,-7.88,0.54,1.48,9.30
1765364129.71,1019.57,27.76,-52.49,201.44,1.38,-7.75,0.24,1.58,9.38
1765364129.82,1019.57,27.76,-52.49,201.44,1.38,-7.62,0.29,1.37,9.46
1765364129.93,1019.57,27.76,-52.47,201.50,1.38,-7.56,-0.33,0.11,10.01
1765364130.05,1019.57,27.76,-52.48,201.06,1.38,-7.50,0.76,3.65,7.04
1765364130.17,1019.54,27.76,-52.28,201.19,1.44,-5.62,0.07,0.94,9.88
1765364130.28,1019.55,27.77,-52.28,201.50,1.44,-5.56,0.20,0.99,9.55
1765364130.39,1019.51,27.77,-52.02,201.56,1.50,-5.31,0.27,0.92,9.62
1765364130.50,1019.51,27.78,-52.03,201.56,1.50,-5.19,0.38,0.90,9.64
1765364130.61,1019.50,27.78,-51.93,201.50,1.50,-4.88,0.28,0.81,9.76
1765364130.72,1019.50,27.78,-51.93,201.50,1.50,-4.75,0.32,0.83,9.63
1765364130.83,1019.49,27.78,-51.85,201.44,1.50,-4.75,0.30,0.80,9.75
1765364130.95,1019.49,27.78,-51.80,201.44,1.50,-4.38,0.29,0.72,9.84
1765364131.06,1019.49,27.78,-51.80,201.50,1.50,-4.06,0.28,0.68,9.73
1765364131.17,1019.48,27.78,-51.74,201.50,1.50,-4.06,0.33,0.68,9.99
1765364131.28,1019.48,27.79,-51.76,201.50,1.50,-3.81,0.31,0.63,9.68
1765364131.39,1019.48,27.79,-51.73,201.62,1.56,-3.81,0.29,0.67,9.66
1765364131.50,1019.48,27.79,-51.73,201.62,1.56,-3.81,0.26,0.65,9.65
1765364131.66,1019.48,27.79,-51.75,201.62,1.56,-3.81,0.30,0.65,9.64
1765364131.77,1019.48,27.80,-51.76,201.62,1.56,-3.81,0.34,0.67,9.68
1765364131.88,1019.48,27.80,-51.75,201.62,1.56,-3.81,0.31,0.64,9.68
1765364132.00,1019.48,27.80,-51.74,201.62,1.56,-3.81,0.30,0.64,9.71
1765364132.11,1019.48,27.81,-51.74,201.62,1.56,-3.81,0.32,0.67,9.67
1765364132.22,1019.48,27.81,-51.72,201.62,1.56,-3.75,0.30,0.65,9.68
1765364132.33,1019.48,27.82,-51.73,201.62,1.56,-3.75,0.30,0.64,9.67
1765364132.44,1019.48,27.82,-51.73,201.62,1.56,-3.75,0.32,0.65,9.70
1765364132.55,1019.48,27.82,-51.73,201.62,1.56,-3.75,0.33,0.64,9.66
1765364132.67,1019.48,27.82,-51.74,201.62,1.56,-3.75,0.30,0.62,9.71
1765364132.78,1019.48,27.81,-51.73,201.62,1.56,-3.75,0.33,0.65,9.67
1765364132.89,1019.48,27.81,-51.72,201.62,1.56,-3.75,0.30,0.64,9.66
1765364133.00,1019.48,27.83,-51.74,201.62,1.56,-3.75,0.31,0.63,9.68
1765364133.11,1019.48,27.83,-51.74,201.62,1.56,-3.75,0.30,0.63,9.69
1765364133.22,1019.48,27.83,-51.74,201.62,1.56,-3.75,0.33,0.63,9.70
1765364133.33,1019.48,27.83,-51.75,201.62,1.56,-3.75,0.32,0.60,9.68
1765364133.44,1019.48,27.83,-51.74,201.62,1.56,-3.75,0.31,0.61,9.70
1765364133.55,1019.48,27.82,-51.73,201.62,1.56,-3.94,0.31,0.66,9.66
1765364133.66,1019.48,27.82,-51.75,201.62,1.50,-4.12,0.34,0.71,9.57
1765364133.77,1019.48,27.84,-51.77,201.62,1.50,-4.31,0.30,0.66,9.75
1765364133.89,1019.49,27.84,-51.78,201.62,1.62,-4.00,0.33,0.82,9.82
1765364134.00,1019.49,27.84,-51.79,201.69,1.69,-3.69,0.32,0.64,9.66
1765364134.11,1019.48,27.84,-51.77,201.69,1.69,-3.69,0.34,0.57,9.75
1765364134.22,1019.48,27.83,-51.77,201.69,1.69,-3.25,0.37,0.56,9.81
1765364134.33,1019.48,27.83,-51.74,201.69,1.69,-2.62,0.32,0.48,9.45
1765364134.44,1019.48,27.84,-51.74,201.69,1.69,-2.62,0.33,0.39,9.74
1765364134.55,1019.48,27.84,-51.72,201.69,1.69,-2.62,0.31,0.40,9.65
1765364134.66,1019.48,27.84,-51.73,201.69,1.69,-2.62,0.32,0.46,9.66
1765364134.77,1019.48,27.84,-51.74,201.69,1.69,-2.62,0.33,0.36,9.76
1765364134.88,1019.49,27.85,-51.79,201.69,1.69,-2.62,0.33,0.39,9.71
1765364134.99,1019.49,27.85,-51.79,201.69,1.69,-2.62,0.27,0.43,9.69
1765364135.11,1019.49,27.85,-51.81,201.69,1.69,-2.62,0.25,0.45,9.62
1765364135.22,1019.49,27.86,-51.83,201.69,1.69,-2.62,0.33,0.41,9.74
1765364135.33,1019.49,27.86,-51.83,201.69,1.69,-2.69,0.31,0.43,9.73
1765364135.46,1019.49,27.86,-51.82,201.69,1.69,-2.75,0.33,0.43,9.73
1765364135.57,1019.49,27.86,-51.85,201.69,1.69,-2.75,0.34,0.39,9.69
1765364135.68,1019.49,27.86,-51.85,201.69,1.69,-2.75,0.33,0.43,9.66
1765364135.80,1019.49,27.86,-51.83,201.69,1.69,-2.75,0.30,0.36,9.74
1765364135.91,1019.49,27.87,-51.84,201.69,1.69,-2.81,0.33,0.43,9.69
1765364136.02,1019.49,27.87,-51.84,201.69,1.69,-2.81,0.32,0.42,9.69
1765364136.13,1019.49,27.87,-51.83,201.69,1.69,-2.81,0.00,-0.06,10.71
1765364136.24,1019.49,27.87,-51.84,201.69,1.69,-2.81,0.27,0.50,9.41
1765364136.36,1019.49,27.87,-51.84,201.69,1.69,-2.88,0.36,0.36,9.81
1765364136.47,1019.49,27.87,-51.84,201.69,1.69,-2.88,0.34,0.42,9.74
1765364136.58,1019.49,27.87,-51.83,201.69,1.69,-2.88,0.28,0.45,9.62
1765364136.69,1019.49,27.89,-51.84,201.69,1.69,-2.88,0.34,0.42,9.73
1765364136.80,1019.49,27.89,-51.84,201.69,1.69,-2.88,0.31,0.42,9.68
1765364136.91,1019.49,27.89,-51.84,201.69,1.69,-2.88,0.35,0.42,9.71
1765364137.02,1019.49,27.89,-51.84,201.69,1.69,-3.00,0.36,0.53,9.66
1765364137.13,1019.49,27.89,-51.85,201.69,1.69,-3.06,0.35,0.46,9.62
1765364137.24,1019.50,27.89,-51.87,201.69,1.69,-3.06,0.25,0.38,9.87
1765364137.35,1019.50,27.90,-51.87,201.69,1.69,-3.50,0.33,0.92,9.56
1765364137.46,1019.50,27.90,-51.90,201.69,1.69,-3.81,0.23,0.50,9.80
1765364137.57,1019.50,27.90,-51.90,201.69,1.69,-3.44,0.17,0.65,9.80
1765364137.68,1019.51,27.90,-51.97,201.69,1.69,-3.44,0.33,0.54,9.63
1765364137.79,1019.51,27.90,-51.98,201.62,1.69,-3.38,0.28,0.49,9.65
1765364137.90,1019.51,27.90,-51.98,201.62,1.69,-3.38,0.33,0.48,9.69
1765364138.01,1019.51,27.90,-51.96,201.62,1.69,-3.38,0.32,0.49,9.64
1765364138.12,1019.51,27.91,-51.98,201.62,1.69,-3.31,0.31,0.44,9.71
1765364138.24,1019.51,27.91,-51.97,201.62,1.69,-3.31,0.28,0.48,9.71
1765364138.35,1019.51,27.91,-51.97,201.62,1.75,-3.31,0.33,0.51,9.71
1765364138.46,1019.51,27.91,-51.96,201.62,1.75,-3.31,0.31,0.45,9.69
1765364138.57,1019.51,27.91,-51.96,201.38,1.75,-3.31,0.39,0.55,9.67
1765364138.68,1019.51,27.91,-51.96,201.38,1.75,-3.19,0.35,0.49,9.73
1765364138.79,1019.51,27.91,-51.96,201.38,1.62,-3.19,0.32,0.50,9.69
1765364138.90,1019.51,27.91,-51.96,201.38,1.62,-3.19,0.37,0.44,9.75
1765364139.01,1019.51,27.92,-51.97,201.38,1.62,-3.19,0.32,0.47,9.67
1765364139.12,1019.51,27.92,-51.95,201.38,1.62,-3.25,0.32,0.46,9.73
1765364139.23,1019.51,27.92,-51.95,201.38,1.62,-3.38,0.29,0.48,9.69
1765364139.34,1019.51,27.92,-51.95,201.38,1.62,-3.44,0.30,0.70,9.57
1765364139.45,1019.50,27.92,-51.94,201.38,1.62,-3.25,0.32,0.38,9.78
1765364139.56,1019.51,27.92,-51.95,201.38,1.62,-3.44,0.29,0.43,9.74
1765364139.67,1019.51,27.92,-51.96,201.38,1.62,-3.56,0.30,0.47,9.74
1765364139.78,1019.51,27.93,-51.96,201.38,1.62,-3.81,0.29,0.59,9.69
1765364139.89,1019.51,27.93,-51.98,201.38,1.62,-4.12,0.29,0.53,9.77
1765364140.00,1019.51,27.92,-51.97,201.38,1.62,-4.81,0.28,0.75,9.68
1765364140.12,1019.51,27.92,-51.97,201.38,1.62,-5.00,0.34,0.93,9.47
1765364140.23,1019.51,27.94,-51.99,201.38,1.62,-4.00,0.27,0.71,9.55
1765364140.34,1019.51,27.94,-51.99,201.38,1.62,-3.38,0.24,0.38,9.84
1765364140.45,1019.51,27.94,-51.99,201.38,1.62,-3.31,0.34,0.50,9.72
1765364140.56,1019.51,27.94,-51.98,201.38,1.62,-3.31,0.38,0.75,9.38
1765364140.67,1019.51,27.94,-51.99,201.38,1.62,-3.31,0.29,0.47,9.64
1765364140.78,1019.51,27.94,-51.99,201.38,1.62,-3.31,0.40,0.52,9.62
1765364140.89,1019.51,27.95,-51.99,201.38,1.62,-3.25,0.28,0.46,9.72
1765364141.00,1019.51,27.95,-52.00,201.38,1.62,-3.25,0.21,0.50,9.68
1765364141.11,1019.51,27.95,-52.00,201.38,1.62,-3.25,0.46,0.76,9.38
1765364141.23,1019.51,27.95,-51.99,201.38,1.62,-3.25,0.60,0.51,9.41
1765364141.34,1019.51,27.95,-51.99,201.38,1.62,-3.25,0.28,0.46,9.79
1765364141.45,1019.51,27.95,-51.99,201.38,1.62,-3.19,0.15,0.44,9.71
1765364141.56,1019.51,27.95,-51.99,201.38,1.62,-3.19,0.26,0.48,9.70
1765364141.68,1019.51,27.96,-52.00,201.38,1.62,-3.19,0.20,0.53,9.60
1765364141.79,1019.51,27.96,-51.99,201.38,1.62,-3.19,0.36,0.59,9.82
1765364141.90,1019.51,27.96,-51.99,201.38,1.62,-3.19,0.25,0.46,9.68
1765364142.01,1019.51,27.96,-51.98,201.38,1.62,-3.19,0.28,0.45,9.75
1765364142.12,1019.51,27.96,-51.98,201.38,1.62,-3.19,0.30,0.51,9.69
1765364142.23,1019.51,27.96,-51.98,201.38,1.62,-3.19,0.24,0.44,9.70
1765364142.34,1019.51,27.96,-51.97,201.38,1.62,-3.19,0.30,0.47,9.67
1765364142.45,1019.51,27.97,-51.98,201.38,1.62,-3.19,0.30,0.49,9.69
1765364142.57,1019.51,27.97,-51.97,201.38,1.62,-3.19,0.29,0.47,9.69
1765364142.68,1019.51,27.97,-51.98,201.38,1.62,-3.19,0.29,0.50,9.69
1765364142.79,1019.51,27.97,-51.97,201.38,1.62,-3.19,0.28,0.47,9.68
1765364142.90,1019.51,27.97,-51.97,201.38,1.62,-3.19,0.25,0.47,9.72
1765364143.01,1019.51,27.97,-51.97,201.38,1.62,-3.19,0.29,0.47,9.69
1765364143.12,1019.51,27.98,-51.99,201.38,1.62,-3.19,0.28,0.49,9.68
1765364143.23,1019.51,27.98,-51.98,201.38,1.62,-3.19,0.29,0.49,9.68
1765364143.34,1019.51,27.98,-51.98,201.38,1.62,-3.19,0.29,0.48,9.68
1765364143.45,1019.51,27.98,-51.99,201.38,1.62,-3.19,0.28,0.49,9.70
1765364143.56,1019.51,27.98,-52.00,201.38,1.62,-3.19,0.28,0.48,9.71
1765364143.67,1019.51,27.98,-51.99,201.38,1.62,-3.19,0.29,0.44,9.71
1765364143.78,1019.51,27.98,-51.99,201.38,1.62,-3.19,0.31,0.57,8.45
1765364143.89,1019.51,27.98,-51.97,201.38,1.62,-3.19,0.31,0.53,9.65
1765364144.00,1019.51,27.98,-51.96,201.38,1.62,-3.19,0.28,0.46,9.73
1765364144.11,1019.51,27.98,-51.97,201.38,1.62,-3.19,0.26,0.51,9.97
1765364144.22,1019.51,27.98,-51.96,201.38,1.62,-3.19,0.29,0.50,9.72
1765364144.33,1019.51,27.99,-51.97,201.38,1.62,-3.19,0.25,0.47,9.67
1765364144.44,1019.51,27.99,-51.99,201.38,1.62,-3.19,0.25,0.47,9.70
1765364144.55,1019.51,28.00,-52.00,201.38,1.62,-3.19,0.28,0.48,9.70
1765364144.67,1019.51,28.00,-51.99,201.38,1.62,-3.19,0.30,0.47,9.69
1765364144.78,1019.51,27.99,-51.99,201.38,1.62,-3.19,0.28,0.46,9.72
1765364144.89,1019.51,27.99,-51.97,201.38,1.62,-3.19,0.29,0.49,9.70
1765364145.00,1019.51,28.00,-51.97,201.38,1.62,-3.19,0.28,0.48,9.68
1765364145.11,1019.51,28.00,-51.99,201.38,1.62,-3.19,0.28,0.46,9.72
1765364145.22,1019.51,28.00,-51.99,201.38,1.62,-3.19,0.30,0.46,9.70
1765364145.33,1019.51,28.00,-51.99,201.38,1.62,-3.19,0.29,0.48,9.71
1765364145.44,1019.51,28.00,-52.00,201.38,1.62,-3.19,0.30,0.48,9.69
1765364145.55,1019.51,28.01,-51.98,201.38,1.62,-3.19,0.29,0.49,9.67
1765364145.66,1019.51,28.01,-51.98,201.38,1.62,-3.12,0.24,0.46,9.74
1765364145.77,1019.51,28.01,-51.98,201.38,1.62,-3.06,0.44,0.64,9.64
1765364145.88,1019.51,28.01,-52.00,201.38,1.62,-3.06,0.62,1.33,9.89
1765364145.99,1019.51,28.01,-52.00,201.31,1.88,-4.06,0.38,0.18,10.51
1765364146.10,1019.51,28.01,-51.96,201.12,3.00,-4.25,0.50,0.75,9.42
1765364146.21,1019.51,28.02,-51.97,200.50,3.62,-5.06,0.53,0.95,9.98
1765364146.32,1019.51,28.02,-51.99,199.06,2.44,-7.44,0.18,1.11,9.56
1765364146.43,1019.51,28.02,-51.99,196.12,2.25,-9.94,1.10,1.68,8.95
1765364146.54,1019.51,28.02,-51.98,194.88,4.19,-11.00,1.32,1.80,9.44
1765364146.66,1019.51,28.03,-51.98,194.06,5.69,-12.06,1.01,2.04,9.57
1765364146.77,1019.51,28.03,-51.96,194.12,7.56,-13.62,1.38,2.01,9.50
1765364146.89,1019.51,28.03,-51.96,193.06,7.38,-17.62,1.17,3.07,8.96
1765364147.00,1019.51,28.03,-51.97,191.81,7.12,-20.50,1.97,3.59,8.81
1765364147.11,1019.50,28.03,-51.95,191.31,7.50,-25.00,0.68,3.85,9.31
1765364147.22,1019.51,28.03,-51.95,190.00,10.00,-34.31,1.92,6.19,7.26
1765364147.34,1019.50,28.03,-51.90,190.06,13.88,-37.38,3.11,5.94,7.07
1765364147.45,1019.50,28.03,-51.89,190.00,15.50,-36.25,2.69,4.74,7.87
1765364147.56,1019.49,28.03,-51.85,190.25,16.00,-36.31,2.94,5.40,8.06
1765364147.67,1019.49,28.02,-51.84,191.00,17.56,-37.62,3.02,5.58,8.06
1765364147.79,1019.49,28.02,-51.82,189.31,19.69,-41.19,2.53,6.20,6.47
1765364147.90,1019.49,28.02,-51.83,188.62,21.75,-42.94,3.43,6.40,6.99
1765364148.01,1019.49,28.02,-51.80,187.56,23.75,-45.31,3.96,6.43,6.32
1765364148.12,1019.49,28.02,-51.80,186.50,25.31,-46.81,4.15,6.47,6.15
1765364148.23,1019.48,28.02,-51.78,185.31,26.56,-48.06,4.27,6.61,5.74
