Time,Phase,Pressure,Altitude,Heading,Roll,Pitch,AccelX,AccelY,AccelZ,GyroX,GyroY,GyroZ,MagX,MagY,MagZ
1765366238.20,0,1020.11,-56.92,0.38,-0.81,-84.44,-0.15,9.74,0.93,0.00,0.00,0.00,23.88,-3.69,-34.06
1765366238.32,0,1020.10,-56.91,0.38,-0.81,-84.44,-0.15,9.74,0.96,-0.00,0.00,0.00,25.00,-4.00,-34.88
1765366238.44,0,1020.10,-56.91,0.38,-0.81,-84.44,-0.15,9.77,0.87,-0.00,0.00,0.00,25.25,-3.38,-35.25
1765366238.55,0,1020.11,-56.92,0.38,-0.81,-84.44,-0.13,9.72,0.92,0.00,0.00,0.00,24.56,-3.69,-35.25
1765366238.66,0,1020.11,-56.95,0.38,-0.81,-84.44,-0.15,9.75,0.93,-0.00,0.00,0.00,23.88,-4.00,-35.75
1765366238.78,0,1020.11,-56.96,0.38,-0.81,-84.44,-0.17,9.75,0.95,0.00,0.00,0.00,25.25,-3.00,-34.50
1765366238.89,0,1020.11,-56.95,0.38,-0.81,-84.44,-0.17,9.73,0.93,0.00,0.00,-0.00,24.56,-3.38,-36.56
1765366239.01,0,1020.11,-56.95,0.38,-0.81,-84.44,-0.17,9.76,0.95,0.00,0.00,0.00,25.00,-4.00,-33.69
1765366239.12,0,1020.11,-56.94,0.38,-0.81,-84.44,-0.16,9.74,0.95,-0.00,0.00,-0.00,24.25,-4.00,-34.50
1765366239.24,0,1020.11,-56.95,0.38,-0.81,-84.44,-0.14,9.75,0.89,0.00,-0.00,0.00,25.69,-3.38,-35.25
1765366239.36,0,1020.11,-56.95,0.38,-0.81,-84.44,-0.18,9.76,0.88,0.01,0.00,0.00,25.25,-4.38,-34.50
1765366239.47,0,1020.11,-56.93,0.38,-0.81,-84.44,-0.13,9.75,0.88,0.00,0.00,0.00,25.25,-3.38,-33.69
1765366239.58,0,1020.11,-56.94,0.38,-0.81,-84.44,-0.15,9.75,0.89,0.01,0.00,0.00,24.25,-3.69,-34.06
1765366239.70,0,1020.11,-56.95,0.38,-0.81,-84.44,-0.14,9.78,0.85,0.00,-0.00,0.00,27.19,-3.69,-34.50
1765366239.82,0,1020.11,-56.94,0.38,-0.81,-84.44,-0.17,9.76,0.85,-0.01,-0.00,0.00,25.00,-3.38,-34.50
1765366239.93,0,1020.11,-56.94,0.38,-0.81,-84.44,-0.16,9.76,0.87,-0.00,0.00,-0.00,25.00,-4.75,-34.06
1765366240.04,0,1020.11,-56.94,0.38,-0.81,-84.44,-0.13,9.75,0.86,-0.00,-0.00,-0.00,24.56,-3.69,-35.75
1765366240.16,0,1020.11,-56.95,0.38,-0.81,-84.44,-0.13,9.73,0.85,-0.01,0.00,-0.00,25.69,-3.00,-33.69
1765366240.27,0,1020.11,-56.96,0.38,-0.81,-84.44,-0.14,9.76,0.85,0.01,0.00,-0.00,24.25,-3.69,-34.06
1765366240.39,0,1020.11,-56.96,0.38,-0.81,-84.44,-0.17,9.72,0.83,0.02,0.00,0.00,24.56,-3.69,-34.06
1765366240.50,0,1020.11,-56.95,0.44,-0.81,-84.56,-0.15,9.76,0.82,0.01,0.00,-0.00,24.25,-3.00,-33.69
1765366240.62,0,1020.11,-56.95,0.44,-0.81,-84.75,-0.13,9.71,0.92,0.15,-0.00,0.00,25.25,-3.88,-33.25
1765366240.73,0,1020.11,-56.95,0.44,-0.81,-86.75,-0.15,9.71,0.73,0.48,-0.00,-0.01,23.88,-3.25,-33.19
1765366240.85,0,1020.11,-56.96,0.44,-0.81,-91.38,-0.24,9.65,0.05,1.18,0.04,-0.00,24.25,-4.38,-33.06
1765366240.96,0,1020.11,-56.95,0.62,-0.88,-102.25,-0.44,9.57,-1.65,2.11,0.02,-0.04,25.00,-7.75,-29.75
1765366241.07,0,1020.11,-56.92,0.81,-0.88,-118.56,-0.12,9.19,-4.64,3.11,-0.11,0.01,24.50,-14.50,-20.38
1765366241.19,0,1020.11,-56.92,359.38,-0.25,-123.00,-0.03,7.34,-6.53,0.40,-0.07,0.15,22.56,-26.69,-15.88
1765366241.31,0,1020.11,-56.93,0.69,-0.88,-119.56,-0.28,7.44,-4.14,0.42,-0.02,0.14,22.38,-24.75,-18.75
1765366241.42,0,1020.11,-56.93,0.62,-0.88,-118.31,-0.03,8.74,-4.35,-0.54,0.02,-0.00,24.25,-16.38,-19.88
1765366241.54,0,1020.10,-56.92,0.69,-0.88,-117.94,-0.17,8.72,-4.26,0.34,0.00,-0.00,23.69,-16.00,-19.19
1765366241.65,0,1020.10,-56.90,0.38,-0.81,-119.31,-0.16,8.30,-5.31,-0.01,0.07,-0.04,23.75,-17.19,-17.69
1765366241.77,0,1020.10,-56.91,0.44,-0.81,-119.06,-0.05,8.40,-4.72,0.15,0.02,-0.03,23.75,-18.50,-18.00
1765366241.88,0,1020.10,-56.92,1.12,-0.94,-105.31,0.44,7.93,-3.34,-2.35,-0.33,-0.03,22.75,-22.88,-19.56
1765366242.00,0,1020.10,-56.91,3.25,-0.94,-83.44,-0.25,9.45,-0.36,-5.14,-0.51,-0.04,23.69,-20.50,-27.56
1765366242.12,0,1020.11,-56.93,6.56,-0.50,-41.25,0.72,8.22,8.05,-7.90,-0.63,-0.57,24.88,2035.81,-0.06
1765366242.23,0,1020.11,-56.93,12.94,0.75,8.06,-0.16,-4.89,12.46,-2.94,-0.66,-1.36,20.06,16.06,-13.88
1765366242.35,0,1020.10,-56.86,20.31,6.56,-7.88,1.29,1.54,11.05,6.64,-0.59,-1.20,23.56,31.25,-3.50
1765366242.47,0,1020.10,-56.86,26.75,3.81,-19.44,0.86,2.22,8.72,-3.93,0.72,-1.07,16.69,16.88,-20.88
1765366242.58,0,1020.10,-56.83,31.44,-3.19,7.94,-0.21,-2.94,8.73,-0.90,1.19,-0.67,-8.00,11.69,-15.38
1765366242.69,0,1020.09,-56.83,37.62,-7.56,-4.50,-1.03,0.58,10.08,4.49,0.06,-0.83,-4.25,23.69,-9.50
1765366242.81,0,1020.09,-56.83,43.44,-4.38,-12.81,-0.12,2.47,9.41,-2.18,-1.11,-0.77,-4.75,13.19,-17.88
1765366242.93,0,1020.09,-56.80,49.19,1.81,8.06,0.78,-1.73,11.04,-1.51,-0.60,-0.98,-15.25,10.25,-17.88
1765366243.04,0,1020.09,-56.80,55.19,3.19,2.50,0.53,0.21,9.80,2.34,0.28,-1.04,-14.06,21.06,-8.69
1765366243.16,0,1020.08,-56.75,61.94,0.69,-1.44,-0.60,1.51,9.16,-1.04,0.27,-1.01,-16.25,13.56,-15.38
1765366243.27,0,1020.08,-56.75,68.00,2.62,10.25,-0.78,-1.28,12.51,-1.05,-0.68,-1.01,-19.56,9.25,-18.00
1765366243.38,0,1020.08,-56.68,73.38,9.06,3.25,0.46,0.29,8.55,2.10,-0.83,-0.99,-21.88,16.69,-10.06
1765366243.50,0,1020.08,-56.68,79.38,11.31,-3.94,1.22,0.96,10.88,-0.15,0.24,-0.99,-25.25,8.56,-12.50
1765366243.61,0,1020.06,-56.58,85.50,5.44,-3.88,0.53,0.04,11.31,0.33,1.38,-1.06,-27.00,5.06,-16.00
1765366243.73,0,1020.05,-56.45,91.81,-3.00,-6.69,-0.92,0.94,10.92,0.16,0.90,-1.14,-25.00,2.25,-20.06
1765366243.84,0,1020.05,-56.45,99.12,-5.38,-3.88,-0.67,0.27,8.53,-0.50,-0.35,-1.14,-24.56,-1.50,-23.38
1765366243.95,0,1020.03,-56.32,106.31,-1.62,-2.81,0.07,0.26,8.55,0.29,-0.84,-1.17,-24.75,-2.38,-22.88
1765366244.07,0,1020.03,-56.32,114.31,2.56,-4.31,0.57,0.81,8.47,-0.12,-0.49,-1.19,-27.69,-5.19,-20.75
1765366244.18,0,1020.01,-56.16,121.81,2.88,-1.19,0.41,0.40,8.05,-0.77,0.19,-1.22,-27.50,-9.19,-17.88
1765366244.30,0,1020.01,-56.16,119.56,0.50,1.56,-0.18,0.21,7.31,-0.14,0.46,-1.22,-25.56,-10.50,-19.50
1765366244.41,0,1020.00,-56.07,127.31,-0.94,2.06,-0.55,0.40,8.04,-0.12,-0.03,-1.20,-25.56,-12.75,-21.19
1765366244.52,0,1020.00,-56.07,134.44,1.62,2.38,-0.23,0.26,9.16,0.02,-0.68,-1.19,-21.69,-15.88,-22.88
1765366244.64,0,1020.00,-56.06,141.12,6.25,0.31,0.43,0.54,9.56,0.32,-0.64,-1.17,-21.75,-18.88,-20.75
1765366244.75,0,1020.00,-56.06,148.44,7.81,-1.19,0.63,0.41,10.05,-0.09,0.12,-1.17,-20.19,-21.69,-18.69
1765366244.86,0,1020.00,-56.06,154.88,4.88,-2.94,0.06,0.26,9.27,0.42,0.61,-1.17,-18.56,-23.50,-17.38
1765366244.98,0,1020.00,-56.08,161.38,0.94,-6.00,-0.45,0.62,9.06,0.24,0.27,-1.15,-9.69,-26.75,-19.50
1765366245.09,0,1020.00,-56.06,168.75,-0.06,-5.56,-0.17,0.35,9.90,-0.15,-0.23,-1.11,-7.88,-27.50,-17.75
1765366245.21,0,1020.00,-56.07,174.81,0.88,-5.56,0.30,0.59,10.38,-0.01,-0.18,-1.08,-6.50,-27.50,-18.19
1765366245.32,0,1020.00,-56.07,181.88,0.44,-3.38,0.10,0.47,9.65,-0.62,0.10,-1.05,-2.38,-28.06,-17.69
1765366245.44,0,1020.00,-56.08,187.88,-0.19,-0.50,-0.33,0.23,9.68,-0.19,-0.02,-1.01,1.69,-26.00,-20.69
1765366245.55,0,1020.00,-56.08,193.69,1.06,-0.94,-0.29,0.43,9.99,0.15,-0.54,-0.96,3.56,-25.88,-21.06
1765366245.66,0,1020.00,-56.06,199.69,4.94,-1.19,0.46,0.60,10.05,-0.23,-0.53,-0.92,4.38,-25.56,-21.50
1765366245.78,0,1020.00,-56.06,204.88,5.75,0.44,0.62,0.33,10.63,-0.36,0.22,-0.90,5.06,-25.56,-22.75
1765366245.89,0,1020.00,-56.02,210.19,2.56,0.44,-0.02,0.30,9.78,0.18,0.66,-0.86,10.25,-22.56,-21.88
1765366246.00,0,1020.00,-56.02,215.12,-0.56,-1.19,-0.44,0.44,8.80,0.18,0.28,-0.82,14.06,-21.75,-20.25
1765366246.12,0,1019.99,-55.97,220.31,-0.88,-1.62,-0.24,0.41,8.21,-0.00,-0.24,-0.77,14.75,-21.06,-19.75
1765366246.23,0,1019.99,-55.95,224.88,0.81,-1.62,0.15,0.34,8.03,0.03,-0.31,-0.73,16.69,-20.00,-19.75
1765366246.34,0,1019.99,-55.95,229.31,1.62,-2.50,0.56,0.41,9.07,0.18,0.10,-0.69,17.06,-18.75,-20.69
1765366246.46,0,1019.99,-55.95,233.38,-1.25,-3.50,0.05,0.51,10.65,0.11,0.67,-0.66,18.75,-17.00,-20.69
1765366246.58,0,1019.99,-55.95,237.81,-4.31,-3.19,-0.78,0.47,10.92,-0.16,-0.29,-0.58,20.38,-16.25,-17.69
1765366246.72,0,1019.99,-55.96,241.56,0.25,-1.69,0.10,0.42,9.78,-0.20,-0.97,-0.53,22.56,-13.00,-18.56
1765366246.83,0,1019.99,-55.96,244.75,4.69,-0.88,0.64,0.34,7.23,-0.11,-0.41,-0.51,21.75,-13.00,2027.31
1765366246.94,0,1019.99,-55.96,247.69,4.94,-0.94,0.20,0.17,3.00,0.03,0.20,-0.49,21.19,-10.75,-22.25
1765366247.06,0,1020.00,-56.08,250.75,2.56,-1.56,-0.12,0.20,0.29,0.08,0.44,-0.48,22.88,-10.38,-20.69
1765366247.17,0,1020.01,-56.10,253.69,-0.19,-2.19,-0.16,0.17,0.06,0.08,0.45,-0.48,24.00,-8.19,-19.38
1765366247.29,0,1020.07,-56.61,256.94,-3.19,-2.75,-0.51,0.89,6.28,0.24,0.41,-0.48,27.56,-6.06,-15.19
1765366247.40,0,1020.07,-56.61,259.38,7.25,1.31,3.58,0.88,24.61,0.45,-1.39,-0.42,27.75,-5.69,-14.88
1765366247.52,0,1020.09,-56.78,262.12,5.38,0.75,0.68,0.28,8.10,0.03,1.45,-0.41,27.25,-4.69,-18.56
1765366247.64,0,1020.09,-56.78,264.88,1.25,0.25,4.46,-1.03,0.82,-0.27,-4.39,-0.31,31.50,-3.69,-13.19
1765366247.75,0,1020.11,-56.93,267.25,-0.19,2.19,-0.23,0.52,1.17,-0.52,-0.05,-0.25,29.25,-0.38,-14.50
1765366247.87,0,1020.11,-56.92,267.44,-0.19,6.00,-0.21,-0.58,9.60,-0.65,-0.00,-0.01,30.75,1.06,-15.25
1765366247.99,0,1020.11,-56.93,267.31,-0.31,10.88,-0.49,-1.66,9.40,-0.88,0.01,0.06,29.38,2.19,-16.19
1765366248.11,0,1020.10,-56.91,267.38,-0.31,15.44,-0.15,-2.28,9.21,-0.68,-0.01,0.02,30.50,1.75,-15.38
1765366248.22,0,1020.10,-56.90,267.25,-0.44,20.38,-0.11,-2.73,8.99,-1.11,-0.00,0.04,30.75,3.56,-14.50
1765366248.34,0,1020.10,-56.89,267.44,-0.38,28.38,-0.10,-4.37,8.34,-1.37,-0.03,0.03,28.25,6.88,-13.25
1765366248.45,0,1020.10,-56.89,267.94,-0.31,38.62,-0.15,-5.54,7.64,-1.89,-0.02,-0.06,27.88,7.69,-10.75
1765366248.57,0,1020.10,-56.90,267.75,-0.38,52.25,0.10,-7.47,6.01,-2.62,-0.08,0.11,29.75,9.19,-9.88
1765366248.68,0,1020.10,-56.90,267.81,-0.38,68.38,0.33,-9.98,3.35,-1.48,0.03,-0.07,30.06,12.56,-6.56
1765366248.79,0,1020.10,-56.91,267.31,-0.38,72.38,-0.16,-9.31,1.28,-0.36,-0.26,0.10,32.25,22.19,0.19
1765366248.91,0,1020.11,-56.92,267.19,-0.38,70.19,-0.17,-8.97,2.95,1.07,-0.01,-0.02,31.88,21.50,-1.25
1765366249.02,0,1020.11,-56.93,267.50,-0.44,61.81,-0.14,-7.93,4.73,1.14,0.08,-0.04,31.75,20.75,-4.88
1765366249.14,0,1020.10,-56.90,267.69,-0.44,56.06,-0.14,-7.72,5.48,0.95,0.00,-0.00,28.75,15.69,-8.19
1765366249.25,0,1020.10,-56.91,268.12,-0.50,51.00,0.14,-6.87,6.46,0.56,0.02,-0.04,28.75,15.69,-10.50
1765366249.37,0,1020.10,-56.89,268.06,-0.50,48.94,-0.13,-6.74,6.45,-0.03,-0.01,0.01,28.75,13.06,-10.00
1765366249.48,0,1020.10,-56.89,267.94,-0.56,50.50,-0.22,-7.25,6.07,-0.44,0.00,0.00,28.06,14.50,-9.56
1765366249.60,0,1020.10,-56.91,268.38,-0.50,52.69,-0.16,-7.80,5.56,-0.06,-0.03,0.01,28.38,14.50,-10.50
1765366249.71,0,1020.10,-56.91,269.00,-0.56,52.12,-0.15,-7.58,5.64,0.22,0.02,-0.01,29.19,14.19,-9.19
1765366249.82,0,1020.10,-56.90,269.12,-0.62,49.81,-0.16,-7.03,6.28,0.34,-0.02,0.01,28.38,14.88,-10.88
1765366249.94,0,1020.10,-56.90,269.38,-0.62,48.81,-0.12,-6.92,6.40,-0.01,0.00,0.00,29.88,14.88,-11.25
1765366250.05,0,1020.10,-56.90,269.94,-0.62,49.75,-0.20,-7.17,6.14,-0.23,0.00,-0.00,28.75,14.19,-10.88
1765366250.16,0,1020.10,-56.91,270.56,-0.62,51.19,-0.12,-7.43,5.86,-0.16,0.01,-0.01,27.69,16.38,-9.69
1765366250.28,0,1020.10,-56.90,270.69,-0.69,51.38,-0.16,-7.38,5.91,0.02,0.01,0.00,27.38,14.50,-10.75
1765366250.39,0,1020.10,-56.90,270.88,-0.69,50.75,-0.16,-7.30,6.00,0.12,-0.00,0.00,28.75,15.25,-10.50
1765366250.51,0,1020.10,-56.90,270.94,-0.69,49.94,-0.12,-7.29,6.50,-0.01,0.00,0.00,27.69,14.50,-10.50
1765366250.62,0,1020.10,-56.87,271.12,-0.69,50.12,-0.16,-7.34,6.39,-0.08,0.00,-0.00,27.38,15.69,-10.50
1765366250.74,0,1020.10,-56.87,271.25,-0.69,50.50,-0.16,-7.47,6.30,-0.01,0.00,0.00,28.50,15.25,-10.50
1765366250.85,0,1020.10,-56.88,271.38,-0.69,50.19,-0.15,-7.32,6.37,0.05,0.00,0.00,27.50,14.88,-10.88
1765366250.96,0,1020.10,-56.88,271.44,-0.75,50.06,-0.15,-7.38,6.41,-0.04,-0.00,0.00,28.50,14.88,-10.50
1765366251.07,0,1020.10,-56.88,271.44,-0.75,50.06,-0.16,-7.38,6.35,0.04,-0.00,0.00,30.00,14.50,-10.50
1765366251.19,0,1020.10,-56.90,271.62,-0.75,49.75,-0.15,-7.29,6.47,0.02,0.00,-0.00,27.38,14.50,-9.69
1765366251.30,0,1020.10,-56.89,271.62,-0.75,49.62,-0.15,-7.33,6.43,0.02,0.00,-0.00,28.19,15.25,-11.25
1765366251.42,0,1020.10,-56.88,271.62,-0.75,49.38,-0.17,-7.32,6.44,0.02,-0.00,-0.00,27.06,14.56,-10.88
1765366251.53,0,1020.10,-56.88,271.62,-0.75,49.25,-0.15,-7.30,6.46,-0.00,0.14,0.00,28.88,14.56,-10.00
1765366251.65,0,1020.10,-56.90,271.56,-0.81,49.31,-0.16,-7.34,6.43,-0.01,0.00,0.00,28.50,15.25,-11.25
1765366251.76,0,1020.10,-56.89,271.56,-0.81,49.31,-0.18,-7.32,6.47,-0.01,0.00,0.00,27.75,15.25,-11.25
1765366251.88,0,1020.10,-56.86,271.56,-0.81,49.19,-0.18,-7.29,6.47,0.03,-0.00,0.00,28.19,15.25,-11.25
1765366251.99,0,1020.10,-56.87,271.56,-0.81,49.19,-0.14,-7.34,6.42,-0.03,0.00,0.00,27.75,14.56,-10.88
1765366252.11,0,1020.10,-56.87,271.56,-0.81,49.25,-0.16,-7.35,6.42,0.02,0.00,-0.00,28.88,16.38,-12.19
1765366252.22,0,1020.10,-56.86,271.56,-0.81,49.06,-0.15,-7.33,6.43,0.05,0.00,0.00,28.19,14.88,-9.56
1765366252.34,0,1020.10,-56.87,271.56,-0.81,48.94,-0.17,-7.24,6.51,-0.02,-0.00,0.00,28.88,15.69,-11.25
1765366252.45,0,1020.10,-56.87,271.56,-0.81,49.19,-0.19,-7.33,6.46,-0.05,0.00,-0.00,28.75,15.25,-10.75
1765366252.57,0,1020.10,-56.86,271.56,-0.81,49.19,-0.14,-7.29,6.54,0.02,0.00,-0.00,28.38,15.25,-10.50
1765366252.68,0,1020.10,-56.87,271.56,-0.81,49.00,-0.16,-7.28,6.52,0.01,0.00,0.00,28.75,15.69,-10.00
1765366252.80,0,1020.10,-56.87,271.56,-0.81,49.00,-0.16,-7.29,6.48,-0.00,0.00,0.00,28.75,14.88,-10.75
1765366252.91,0,1020.10,-56.88,271.56,-0.81,49.00,-0.19,-7.27,6.49,-0.01,0.00,0.00,28.06,15.69,-10.00
1765366253.03,0,1020.10,-56.87,271.56,-0.81,49.06,-0.18,-7.34,6.44,0.00,0.00,0.00,29.56,15.25,-10.06
1765366253.15,0,1020.10,-56.88,271.56,-0.81,49.06,-0.18,-7.26,6.50,-0.01,0.00,0.00,28.75,14.88,-10.88
1765366253.26,0,1020.10,-56.88,271.56,-0.81,49.19,-0.16,-7.33,6.44,-0.00,-0.00,0.00,28.38,14.88,-10.00
1765366253.38,0,1020.10,-56.87,271.56,-0.81,49.19,-0.16,-7.33,6.43,0.00,0.00,0.00,29.19,15.69,-11.69
1765366253.49,0,1020.10,-56.87,271.56,-0.81,49.19,-0.16,-7.29,6.48,0.00,0.00,0.00,30.25,13.88,-10.50
1765366253.61,0,1020.10,-56.87,271.56,-0.81,49.19,-0.17,-7.33,6.48,0.00,0.00,0.00,29.56,14.88,-10.75
1765366253.72,0,1020.10,-56.87,271.56,-0.81,49.12,-0.17,-7.29,6.49,0.01,0.00,0.00,31.00,14.88,-9.19
1765366253.84,0,1020.10,-56.87,271.56,-0.81,49.12,-0.17,-7.31,6.46,-0.02,0.00,0.00,30.25,14.19,-10.00
1765366253.96,0,1020.10,-56.89,271.56,-0.81,49.19,-0.16,-7.30,6.46,-0.01,-0.00,0.00,29.19,15.25,-11.25
1765366254.07,0,1020.10,-56.89,271.56,-0.81,49.25,-0.16,-7.34,6.40,-0.01,-0.00,0.00,28.38,15.25,-10.75
1765366254.19,0,1020.10,-56.88,271.56,-0.81,49.25,-0.15,-7.29,6.46,-0.01,0.00,0.00,28.06,15.69,-10.75
1765366254.30,0,1020.10,-56.89,271.56,-0.81,49.38,-0.16,-7.36,6.40,-0.02,0.00,-0.00,28.88,14.50,-10.75
1765366254.42,0,1020.10,-56.89,271.56,-0.88,49.38,-0.18,-7.27,6.53,-0.05,0.01,-0.00,28.19,14.50,-9.69
1765366254.53,0,1020.10,-56.87,271.56,-0.88,49.69,-0.20,-7.41,6.35,-0.03,-0.00,-0.00,27.75,14.88,-9.69
1765366254.65,0,1020.10,-56.87,271.56,-0.88,49.50,-0.15,-7.35,6.40,0.08,-0.00,0.00,29.69,15.69,-10.50
1765366254.76,0,1020.10,-56.89,271.56,-0.88,49.25,-0.15,-7.23,6.50,-0.04,-0.00,0.00,28.06,16.00,-10.50
1765366254.87,0,1020.10,-56.89,271.56,-0.88,49.50,-0.16,-7.40,6.36,0.02,0.00,0.00,28.19,15.25,-10.50
1765366254.99,0,1020.10,-56.89,271.56,-0.88,49.19,-0.16,-7.29,6.43,0.04,-0.00,0.00,27.69,15.25,-10.00
1765366255.10,0,1020.10,-56.88,271.56,-0.88,49.25,-0.13,-7.34,6.42,-0.04,0.00,0.00,27.69,15.25,-9.19
1765366255.22,0,1020.10,-56.89,271.56,-0.88,49.50,-0.15,-7.40,6.37,-0.02,-0.00,0.00,28.38,16.00,-11.25
1765366255.33,0,1020.10,-56.90,271.56,-0.88,49.50,-0.17,-7.41,6.32,0.04,-0.00,0.00,27.69,14.50,-10.50
1765366255.45,0,1020.10,-56.88,271.56,-0.88,49.06,-0.16,-7.25,6.46,0.09,-0.01,0.00,28.75,15.69,-10.00
1765366255.56,0,1020.10,-56.89,271.56,-0.88,49.00,-0.18,-7.28,6.41,-0.07,0.00,0.00,28.38,14.88,-10.00
1765366255.68,0,1020.10,-56.88,271.56,-0.88,49.50,-0.15,-7.45,6.23,0.00,-0.00,0.00,28.06,15.25,-12.19
1765366255.79,0,1020.10,-56.88,271.56,-0.88,49.44,-0.12,-7.32,6.43,-0.01,0.00,0.00,28.06,15.69,-10.88
1765366255.90,0,1020.10,-56.88,271.56,-0.88,49.38,-0.14,-7.47,6.28,0.10,-0.01,0.01,28.50,15.69,-10.50
1765366256.02,0,1020.10,-56.86,271.56,-0.88,49.38,-0.14,-7.20,6.53,-0.35,0.00,-0.01,27.75,-2032.75,-10.00
1765366256.13,0,1020.10,-56.86,271.62,-0.88,51.25,-0.20,-7.70,6.08,-0.19,0.02,-0.01,29.25,14.88,-9.56
1765366256.24,0,1020.10,-56.87,271.62,-0.88,51.69,-0.16,-7.67,6.03,0.02,0.01,-0.00,28.88,16.00,-11.25
1765366256.36,0,1020.10,-56.87,271.62,-0.88,51.12,-0.17,-7.48,6.23,0.12,0.00,-0.00,27.69,14.88,-10.50
1765366256.47,0,1020.10,-56.87,271.62,-0.88,50.62,-0.16,-7.41,6.33,-0.04,0.00,-0.00,28.75,14.88,-9.19
1765366256.59,0,1020.10,-56.87,271.62,-0.88,51.31,-0.16,-7.48,6.25,-0.39,0.01,-0.01,29.19,14.50,-10.50
1765366256.70,0,1020.10,-56.88,271.62,-0.88,53.69,-0.19,-7.91,5.87,-0.77,-0.00,-0.00,28.06,15.25,-9.69
1765366256.81,0,1020.10,-56.86,271.56,-0.88,56.25,-0.17,-8.15,5.38,-0.23,0.00,-0.00,28.50,15.25,-9.69
1765366256.93,0,1020.10,-56.86,271.62,-0.88,57.44,-0.16,-8.20,5.37,-0.27,0.01,-0.00,28.19,16.38,-8.25
1765366257.04,0,1020.10,-56.86,271.62,-0.88,59.38,-0.17,-8.23,4.96,-0.39,-0.01,0.00,27.69,15.69,-8.00
1765366257.16,0,1020.10,-56.86,271.69,-0.88,63.00,-0.14,-8.51,4.46,-0.62,-0.01,0.01,28.88,16.75,-7.06
1765366257.27,0,1020.10,-56.86,271.81,-0.88,67.69,-0.06,-9.25,3.54,-0.90,0.03,-0.02,28.50,17.50,-6.69
1765366257.38,0,1020.10,-56.86,271.88,-0.88,73.44,-0.16,-9.27,2.76,-0.81,-0.01,0.02,28.75,16.75,-5.00
1765366257.50,0,1020.10,-56.87,271.69,-0.94,77.50,-0.17,-9.31,2.05,-0.45,-0.03,0.02,29.69,17.50,-3.25
1765366257.61,0,1020.10,-56.87,271.38,-0.94,79.44,-0.30,-9.63,1.38,-0.46,-0.01,0.00,29.88,20.50,-1.19
1765366257.73,0,1020.10,-56.87,271.62,-0.94,80.25,-0.16,-9.57,1.35,0.22,-0.00,0.00,29.56,20.50,-1.38
1765366257.84,0,1020.10,-56.88,271.75,-0.94,78.31,-0.12,-9.32,2.17,0.29,-0.03,0.00,28.75,20.06,-1.75
1765366257.96,0,1020.10,-56.88,271.81,-0.94,77.62,-0.16,-9.33,2.18,-0.05,-0.00,0.00,29.19,20.75,-2.25
1765366258.07,0,1020.10,-56.86,271.81,-0.94,78.25,-0.20,-9.44,1.81,-0.10,-0.00,-0.00,29.56,20.06,-2.25
1765366258.18,0,1020.10,-56.85,271.81,-0.94,78.38,-0.21,-9.45,1.89,0.06,0.00,0.00,28.38,20.50,-2.69
1765366258.29,0,1020.10,-56.87,271.75,-0.94,78.25,-0.18,-9.47,1.96,0.01,-0.00,0.00,29.88,19.38,-2.25
1765366258.41,0,1020.10,-56.88,271.88,-0.94,77.81,-0.19,-9.44,1.98,0.14,-0.00,0.00,30.25,20.50,-2.69
1765366258.52,0,1020.10,-56.87,272.06,-0.94,76.75,-0.17,-9.38,2.28,0.17,0.01,-0.00,30.25,20.06,-2.25
1765366258.64,0,1020.10,-56.88,272.38,-0.94,75.50,-0.21,-9.39,2.48,0.17,0.00,-0.00,30.25,20.75,-2.25
1765366258.75,0,1020.10,-56.88,272.50,-0.94,74.62,-0.19,-9.40,2.57,0.16,0.00,-0.01,30.25,20.06,-2.69
1765366258.87,0,1020.10,-56.89,272.56,-1.00,73.19,-0.18,-9.37,2.79,0.30,-0.00,-0.01,29.19,19.38,-4.38
1765366258.98,0,1020.10,-56.89,272.81,-1.00,70.75,-0.19,-9.20,3.23,0.46,0.00,-0.01,31.00,20.06,-4.38
1765366259.10,0,1020.10,-56.89,273.25,-0.94,67.38,-0.14,-8.90,3.88,0.45,-0.01,-0.00,28.75,19.56,-3.06
1765366259.22,0,1020.10,-56.88,273.44,-1.00,64.88,-0.13,-8.64,4.43,0.13,-0.02,0.01,29.56,15.19,-5.56
1765366259.33,0,1020.10,-56.86,273.44,-1.00,64.81,-0.20,-8.84,4.09,-0.13,-0.01,0.00,29.88,16.25,-6.56
1765366259.45,0,1020.10,-56.87,273.44,-1.00,65.38,-0.16,-8.96,3.93,0.03,-0.00,0.00,31.38,16.38,-6.56
1765366259.57,0,1020.10,-56.88,273.44,-1.00,64.75,-0.18,-8.76,4.27,0.08,0.00,0.00,29.56,17.50,-6.56
1765366259.69,0,1020.10,-56.88,273.44,-1.00,64.75,-0.17,-8.82,4.15,-0.01,-0.00,-0.00,30.25,18.19,-6.56
1765366259.80,0,1020.10,-56.87,273.44,-1.00,64.62,-0.16,-8.85,4.15,0.04,0.00,0.00,28.75,19.00,-4.88
1765366259.91,0,1020.10,-56.86,273.44,-1.00,64.25,-0.19,319.01,4.42,-0.02,0.01,-0.00,28.38,18.56,-5.25
1765366260.03,0,1020.10,-56.86,273.44,-1.00,64.69,-0.15,-8.85,4.07,-0.08,-0.00,-0.00,29.56,18.19,-6.56
1765366260.14,0,1020.10,-56.86,273.44,-1.00,64.69,-0.18,-8.80,4.25,0.04,0.00,0.00,29.56,19.00,-7.00
1765366260.26,0,1020.10,-56.86,273.44,-1.00,64.38,-0.17,-8.73,4.32,0.01,0.00,0.00,29.88,19.00,-6.06
1765366260.37,0,1020.10,-56.86,273.44,-1.00,64.25,-0.17,-8.77,4.28,0.02,0.00,-0.00,29.88,19.00,-6.19
1765366260.48,0,1020.10,-56.87,273.44,-1.00,64.19,-0.15,-8.74,4.27,0.00,0.00,-0.00,30.25,18.88,-6.56
1765366260.60,0,1020.10,-56.87,273.44,-1.00,64.25,-0.17,-8.79,4.26,-0.04,0.00,0.00,29.56,20.00,-6.06
1765366260.71,0,1020.10,-56.87,273.44,-1.00,64.38,-0.17,-8.82,4.22,0.02,-0.00,-0.00,29.19,20.00,-5.75
1765366260.83,0,1020.10,-56.87,273.44,-1.00,64.00,-0.17,-8.81,4.30,0.11,-0.00,0.00,29.19,19.56,-5.75
1765366260.94,0,1020.10,-56.87,273.44,-1.00,62.94,-0.19,-8.75,4.35,0.26,-0.00,0.01,-2019.25,19.25,-6.56
1765366261.05,0,1020.10,-56.87,273.44,-1.00,60.69,-0.17,-8.57,4.69,0.42,-0.00,0.00,30.25,18.88,-7.75
1765366261.17,0,1020.10,-56.86,273.50,-1.00,57.50,-0.15,-8.17,5.27,0.56,-0.00,0.00,30.25,18.88,-6.06
1765366261.28,0,1020.10,-56.86,273.56,-1.00,54.50,-0.22,-7.99,5.66,0.55,0.00,-0.00,28.75,17.38,-8.56
1765366261.39,0,1020.10,-56.84,273.69,-1.00,51.06,-0.11,320.15,6.29,0.53,0.06,-0.03,28.38,17.75,-9.50
1765366261.51,0,1020.10,-56.85,273.81,-1.06,48.31,-0.11,-7.09,6.69,0.15,0.00,-0.00,29.19,15.69,-10.00
1765366261.62,0,1020.10,-56.86,273.81,-1.06,56.00,-0.18,-7.28,6.58,-0.10,0.01,-0.00,29.19,16.25,-10.38
1765366261.74,0,1020.10,-56.86,273.75,-1.00,48.38,-0.20,-7.51,6.35,0.10,-0.02,0.01,28.75,16.69,-10.06
1765366261.85,0,1020.10,-56.86,274.19,-1.00,47.38,-0.20,-7.31,6.57,0.30,-0.01,0.00,28.75,17.38,-8.69
1765366261.96,0,1020.10,-56.87,274.44,-1.00,45.44,-0.18,-6.94,6.97,0.32,-0.00,-0.00,29.88,17.06,-10.88
1765366262.08,0,1020.10,-56.85,274.81,-1.00,42.94,-0.16,-6.80,7.14,0.45,0.00,-0.01,29.88,15.56,-11.19
1765366262.19,0,1020.10,-56.86,275.31,-1.00,39.44,-0.19,-6.49,7.48,0.78,-0.01,-0.00,31.00,15.88,-11.56
1765366262.31,0,1020.10,-56.87,275.75,-1.00,33.50,-0.10,-5.38,8.34,0.89,0.05,-0.05,29.88,15.19,-12.50
1765366262.42,0,1020.10,-56.85,276.12,-1.06,28.31,-0.15,-4.72,8.63,0.80,0.01,-0.01,29.56,13.25,-13.25
1765366262.53,0,1020.10,-56.85,276.88,-1.06,23.12,-0.10,-3.87,9.02,0.84,0.02,-0.02,29.88,12.88,-14.06
1765366262.65,0,1020.09,-56.83,277.38,-1.12,17.75,0.09,-2.63,9.47,0.64,-0.02,0.04,29.88,10.19,-15.00
1765366262.76,0,1020.10,-56.84,277.62,-1.12,15.75,-0.14,-2.36,9.59,0.00,0.00,0.00,28.75,9.88,-15.38
1765366262.88,0,1020.10,-56.84,277.81,-1.06,17.19,-0.15,-2.77,9.43,-0.43,0.00,0.01,29.88,9.88,-15.38
1765366262.99,0,1020.10,-56.84,277.94,-1.06,20.31,-0.21,-3.75,9.19,-0.43,-0.02,0.01,30.25,10.19,-14.50
1765366263.11,0,1020.09,-56.83,277.88,-1.00,21.38,-0.13,-2.74,9.07,0.13,0.01,-0.02,28.75,11.00,-14.56
1765366263.22,0,1020.10,-56.84,278.38,-1.06,19.25,-0.35,-3.33,9.43,0.54,0.01,0.00,29.19,11.25,-15.38
1765366263.33,0,1020.10,-56.85,278.56,-1.06,16.56,-0.19,-2.51,9.58,0.28,0.00,-0.01,29.88,10.19,-14.06
1765366263.44,0,1020.10,-56.84,278.62,-1.06,16.06,-0.18,-2.51,9.47,-0.15,0.00,0.01,28.75,9.88,-16.19
1765366263.56,0,1020.10,-56.85,278.75,-1.06,18.31,-0.20,-3.06,9.31,-0.49,0.01,0.00,29.19,10.19,-14.56
1765366263.68,0,1020.10,-56.85,278.75,-1.00,20.38,-0.19,-4.01,9.14,0.01,-0.03,0.07,29.88,10.56,-14.50
1765366263.79,0,1020.10,-56.86,278.19,-1.06,18.00,-0.36,-3.56,9.47,1.03,-0.05,0.26,31.38,11.00,-13.25
1765366263.90,0,1020.10,-56.84,275.75,-0.94,8.69,-0.52,-0.84,10.25,1.95,-0.13,0.60,30.56,9.50,-14.06
1765366264.01,0,1020.09,-56.83,271.19,1.31,0.94,0.14,0.76,11.38,-0.02,-0.76,0.79,28.25,2.75,-16.56
1765366264.13,0,1020.09,-56.80,266.00,5.06,3.81,1.26,-0.75,10.80,-0.01,-0.20,0.81,26.06,-4.75,-22.50
1765366264.25,0,1020.09,-56.81,260.56,2.31,-1.19,0.67,0.24,10.39,1.11,0.96,0.76,27.88,-4.38,-21.25
1765366264.36,0,1020.08,-56.74,255.31,-3.62,-3.56,-0.47,0.49,11.32,-0.37,0.70,0.77,26.38,-10.25,-20.50
1765366264.48,0,1020.07,-56.63,250.38,-3.88,-0.44,-0.54,-0.59,9.95,-0.13,-0.45,0.77,25.06,-11.88,-17.56
1765366264.59,0,1020.07,-56.63,244.75,1.44,-4.00,0.37,0.18,9.83,0.80,-1.04,0.79,24.00,-12.75,-18.75
1765366264.71,0,1020.06,-56.51,239.50,7.31,-5.38,1.05,0.22,10.25,-0.19,-0.44,0.83,19.06,-17.56,-20.50
1765366264.82,0,1020.06,-56.51,234.12,7.12,-2.81,0.62,-0.20,9.85,-0.01,0.40,0.82,17.00,-19.75,-23.06
1765366264.94,0,1020.04,-56.39,228.50,4.00,-3.12,0.01,0.22,9.25,0.08,0.48,0.80,17.06,-20.88,-23.06
1765366265.06,0,1020.04,-56.39,222.19,1.88,-1.06,0.14,0.01,9.85,-0.51,0.19,0.81,16.69,-22.25,-23.00
1765366265.17,0,1020.03,-56.26,215.75,1.06,0.50,0.30,-0.13,9.48,0.19,0.09,0.81,15.69,-22.75,-23.75
1765366265.29,0,1020.03,-56.26,209.12,0.19,-0.88,0.34,0.26,9.63,-0.02,0.20,0.82,11.25,-24.56,-23.75
1765366265.40,0,1020.02,-56.19,202.94,-1.00,0.31,0.02,-0.22,9.44,-0.13,0.13,0.82,10.25,-25.25,-24.69
1765366265.52,0,1020.01,-56.10,197.38,-0.62,-1.25,-0.06,0.06,9.61,0.48,-0.26,0.81,7.88,-25.06,-24.25
1765366265.64,0,1020.01,-56.10,190.88,2.00,-1.94,0.50,0.24,9.53,-0.39,-0.40,0.81,4.19,-26.25,-24.25
1765366265.75,0,1020.00,-56.05,184.88,3.19,0.94,0.74,-0.31,9.74,-0.05,0.11,0.79,-1.00,-25.38,-25.06
1765366265.86,0,1020.00,-56.05,179.75,1.31,-0.69,0.05,0.38,9.01,0.44,0.39,0.76,-1.00,-24.50,-24.69
1765366265.98,0,1020.00,-56.01,174.06,0.19,-0.12,-0.08,0.21,9.86,-0.53,-0.08,0.76,-4.88,-26.38,-24.69
1765366266.09,0,1020.00,-56.01,168.94,2.00,2.06,0.28,-0.20,11.38,0.16,-0.50,0.72,-5.06,-25.25,-26.25
1765366266.21,0,1020.00,-56.01,163.75,4.88,0.00,0.78,0.11,10.72,0.48,-0.29,0.69,-9.06,-24.19,-25.50
1765366266.32,0,1020.00,-56.01,159.19,4.94,-1.38,0.62,0.20,10.12,0.02,0.25,0.67,-11.25,-23.75,-23.00
1765366266.44,0,1019.99,-55.98,154.56,2.62,-1.00,0.21,-0.02,11.96,0.10,0.39,0.63,-13.19,-23.38,-24.25
1765366266.55,0,1019.99,-55.94,150.75,1.50,-1.38,0.04,0.23,10.39,-0.08,0.02,0.59,-13.19,-24.19,-23.75
1765366266.66,0,1019.99,-55.93,147.00,2.44,-0.31,0.37,-0.26,9.56,0.21,-0.19,0.54,-15.75,-22.25,-23.88
1765366266.78,0,1019.98,-55.86,143.31,3.12,-2.94,0.47,0.38,9.49,0.35,0.04,0.50,-16.50,-21.19,-23.75
1765366266.89,0,1019.98,-55.86,140.31,2.56,-0.69,0.29,0.06,9.52,-0.65,0.15,0.48,-17.25,-21.19,-23.75
1765366267.01,0,1019.97,-55.83,137.56,1.94,1.56,0.06,-0.21,8.85,0.05,-0.01,0.42,-17.25,-18.69,-25.06
1765366267.12,0,1019.97,-55.84,134.81,2.62,-0.12,0.08,0.04,8.24,0.43,-0.23,0.38,-18.75,-17.06,-24.25
1765366267.23,0,1019.98,-55.84,132.69,4.56,-1.94,0.34,0.10,11.40,0.21,-0.38,0.34,-19.56,-17.75,-22.19
1765366267.35,0,1019.97,-55.84,130.81,6.31,-2.81,1.03,0.01,13.27,0.18,-0.02,0.29,-21.38,-17.38,-22.56
1765366267.46,0,1019.97,-55.82,129.06,4.25,-4.25,0.69,0.18,10.66,0.21,0.63,0.25,-21.69,-17.38,-21.00
1765366267.58,0,1019.97,-55.82,127.50,0.12,-3.69,-0.02,0.19,10.94,-0.35,0.55,0.21,-21.00,-17.38,-23.00
1765366267.69,0,1019.97,-55.80,126.25,-1.06,-1.06,-0.19,0.05,10.61,-0.38,-0.18,0.17,-19.56,-16.69,-25.38
1765366267.80,0,1019.96,-55.74,125.38,1.44,1.00,0.33,-0.08,9.79,-0.25,-0.53,0.10,-20.50,-14.06,-25.50
1765366267.92,0,1019.96,-55.74,124.94,3.88,0.88,0.62,0.07,8.63,0.22,-0.18,0.06,-21.69,-14.88,-23.50
1765366268.03,0,1019.96,-55.68,124.62,3.62,0.69,0.40,0.12,8.38,-0.20,0.23,0.03,-22.50,-13.75,-23.69
1765366268.15,0,1019.95,-55.67,124.75,2.12,1.56,-0.05,-0.18,8.84,0.11,0.15,-0.02,-22.06,-14.50,-24.19
1765366268.26,0,1019.96,-55.68,125.00,2.56,-0.75,-0.16,0.08,8.65,0.47,-0.36,-0.06,-21.00,-13.75,-24.56
1765366268.38,0,1019.96,-55.68,125.31,5.88,-2.88,0.13,0.16,7.43,0.21,-0.63,-0.07,-22.50,-14.88,-22.06
1765366268.49,0,1019.96,-55.75,125.75,9.38,-3.44,0.52,-0.02,8.47,0.07,-0.47,-0.11,-22.50,-15.56,-20.88
1765366268.60,0,1019.96,-55.75,126.62,11.06,-4.50,0.59,0.14,7.55,0.11,-0.05,-0.14,-23.88,-16.69,-18.25
1765366268.72,0,1019.98,-55.92,127.50,9.44,-3.31,0.90,0.45,7.53,-0.87,0.64,-0.14,-24.69,-16.25,-17.88
1765366268.83,0,1020.02,-56.23,128.69,2.31,2.44,0.84,-0.76,10.88,-0.33,1.46,-0.12,-23.88,-17.06,-20.38
1765366268.95,0,1020.02,-56.22,130.62,-6.62,-2.19,-0.43,0.67,13.15,0.77,1.17,-0.27,-17.69,-16.25,-21.69
1765366269.06,0,1020.05,-56.45,132.31,-9.94,-1.69,-0.68,0.22,9.07,-0.64,-0.06,-0.26,-16.06,-19.56,-23.19
1765366269.18,0,1020.05,-56.45,133.62,-4.06,2.56,-0.54,-0.63,9.65,-0.01,-1.57,-0.26,-17.50,-20.00,-24.88
1765366269.29,0,1020.08,-56.68,134.75,5.12,-2.94,1.57,0.91,12.88,0.94,-1.12,-0.15,-18.19,-18.75,-16.50
1765366269.40,0,1020.08,-56.68,135.56,4.75,-1.88,1.15,0.45,13.72,-0.75,1.10,-0.10,-22.38,-22.88,-17.69
1765366269.52,0,1020.09,-56.81,136.06,1.19,0.81,-0.09,-0.18,8.49,0.09,0.43,-0.06,-22.00,-22.06,-20.69
1765366269.63,0,1020.09,-56.81,136.00,-0.25,-0.44,-2.10,-0.03,12.01,-0.09,0.06,0.03,-20.88,-21.38,-19.06
1765366269.75,0,1020.10,-56.84,135.94,-0.25,-0.62,-0.38,-0.02,10.15,0.09,0.01,0.00,-20.06,-21.00,-19.50
1765366269.86,0,1020.09,-56.83,136.00,-0.31,-1.44,-0.18,0.13,10.23,0.20,-0.00,-0.00,-19.75,-21.00,-18.19
1765366269.97,0,1020.09,-56.83,136.00,-0.31,-2.88,-0.16,0.45,10.17,0.26,0.00,-0.01,-19.50,-21.75,-17.75
1765366270.09,0,1020.09,-56.82,136.00,-0.38,-4.56,-0.15,0.75,10.17,0.25,0.00,-0.01,-20.06,-21.38,-17.38
1765366270.20,0,1020.09,-56.82,136.19,-0.38,-5.94,-0.13,1.01,10.18,0.22,0.00,-0.03,-19.50,-23.19,-16.88
1765366270.32,0,1020.09,-56.80,136.31,-0.44,-6.81,-0.20,1.29,10.12,0.04,-0.00,-0.07,-20.88,-22.06,-16.88
1765366270.43,0,1020.09,-56.80,136.50,-0.50,-6.38,-0.15,1.15,10.14,-0.16,-0.00,0.00,-20.06,-22.88,-16.56
1765366270.55,0,1020.09,-56.80,136.50,-0.50,-5.00,-0.17,0.78,10.17,-0.22,0.00,0.01,-20.88,-23.56,-18.56
1765366270.67,0,1020.09,-56.80,136.75,-0.50,-3.62,-0.16,0.54,10.19,-0.18,0.00,0.01,-20.06,-23.56,-17.75
1765366270.79,0,1020.09,-56.82,137.00,-0.50,-2.44,-0.19,0.39,10.20,-0.16,0.00,0.01,-19.75,-24.00,-18.25
1765366270.90,0,1020.09,-56.82,137.50,-0.50,-1.56,-0.18,0.19,10.23,-0.12,0.00,0.01,-18.69,-23.19,-19.88
1765366271.02,0,1020.09,-56.83,137.88,-0.50,-0.94,-0.14,0.10,10.18,-0.05,0.00,0.00,-18.00,-23.56,-19.88
1765366271.13,0,1020.09,-56.83,137.94,-0.50,-0.94,-0.17,0.07,10.21,0.04,0.00,-0.00,-19.06,-22.50,-20.25
1765366271.26,0,1020.09,-56.82,138.31,-0.50,-1.44,-0.17,0.23,10.19,0.10,0.00,-0.00,-19.75,-23.19,-18.56
1765366271.37,0,1020.10,-56.84,138.19,-0.50,-2.12,-0.16,0.32,10.19,0.14,0.00,-0.00,-21.25,-23.19,-19.88
1765366271.48,0,1020.10,-56.84,138.19,-0.50,-3.25,-0.16,0.45,10.18,0.20,0.00,-0.00,-21.25,-22.06,-19.38
1765366271.60,0,1020.10,-56.84,138.19,-0.50,-4.88,-0.18,0.74,10.17,0.35,0.00,-0.01,-20.50,-22.06,-17.69
1765366271.71,0,1020.10,-56.84,138.00,-0.50,-7.19,-0.11,1.48,10.13,0.26,-0.00,0.01,-20.06,-23.56,-16.38
1765366271.82,0,1020.10,-56.84,138.00,-0.50,-7.44,-0.14,1.44,10.07,-0.14,0.00,0.00,-20.06,-23.19,-17.25
1765366271.94,0,1020.09,-56.83,138.06,-0.50,-5.94,-0.13,0.86,10.20,-0.26,-0.00,-0.01,-19.75,-23.19,-17.25
1765366272.05,0,1020.09,-56.82,138.06,-0.50,-4.88,-0.14,0.71,10.20,-0.06,-0.00,0.00,-20.50,-23.56,-16.75
1765366272.17,0,1020.09,-56.83,138.06,-0.50,-5.00,-0.16,0.76,10.15,0.08,0.00,-0.00,-20.06,-22.88,-16.75
1765366272.28,0,1020.10,-56.83,138.06,-0.50,-6.06,-0.16,1.03,10.16,0.22,0.00,-0.00,-20.06,-23.56,-16.75
1765366272.40,0,1020.09,-56.82,138.06,-0.50,-7.00,-0.16,1.33,10.13,0.05,-0.00,0.00,-19.50,-23.56,-17.25
1765366272.51,0,1020.09,-56.82,138.06,-0.50,-6.69,-0.20,1.10,10.17,-0.11,-0.00,0.00,-19.75,-23.19,-17.69
1765366272.62,0,1020.09,-56.83,138.06,-0.50,-6.25,-0.17,-326.73,10.16,0.01,0.00,-0.00,-21.56,-24.00,-16.50
1765366272.74,1,1020.09,-56.83,138.06,-0.50,-6.75,-0.17,1.19,10.12,0.10,0.00,0.00,-19.75,-23.56,-17.69
1765366272.85,1,1020.09,-56.83,138.06,-0.50,-6.94,-0.16,1.25,10.12,-0.05,-0.00,0.00,-20.50,-24.00,-16.75
1765366272.96,1,1020.09,-56.83,138.06,-0.50,-6.56,-0.17,1.03,10.15,-0.03,0.00,0.00,-20.06,-23.56,-17.25
1765366273.08,1,1020.09,-56.83,138.06,-0.50,-6.56,-0.16,1.11,10.14,0.02,-0.00,-0.00,-20.50,-23.19,-16.75
1765366273.19,1,1020.10,-56.84,138.06,-0.50,-6.62,-0.15,1.16,10.15,-0.01,-0.00,0.00,-19.50,-24.00,-16.50
1765366273.31,1,1020.10,-56.84,138.06,-0.50,-6.50,-0.15,1.08,10.15,-0.02,0.00,0.00,-19.75,-23.56,-16.38
1765366273.42,1,1020.09,-56.83,138.06,-0.50,-6.44,-0.17,1.09,10.14,0.01,0.00,0.00,-19.06,-24.69,-18.06
1765366273.54,1,1020.09,-56.83,138.06,-0.50,-6.56,-0.17,1.14,10.15,0.01,0.00,0.00,-20.06,-23.19,-16.75
1765366273.65,1,1020.09,-56.81,138.06,-0.50,-6.50,-0.16,1.13,10.13,-0.01,0.00,-0.00,-19.50,-24.00,-17.25
1765366273.77,1,1020.09,-56.81,138.06,-0.50,-6.50,-0.18,1.11,10.14,0.01,0.00,0.00,-19.50,-23.56,-18.06
1765366273.88,1,1020.09,-56.81,138.06,-0.50,-6.50,-0.16,1.13,10.14,0.00,0.00,-0.00,-21.25,-24.00,-18.88
1765366274.00,1,1020.09,-56.81,138.06,-0.50,-6.50,-0.20,1.10,10.16,-0.00,0.00,-0.00,-20.06,-23.19,-17.25
1765366274.11,1,1020.09,-56.81,138.06,-0.50,-6.50,-0.15,1.13,10.14,-0.01,-0.00,0.00,-19.75,-23.19,-18.06
1765366274.23,1,1020.09,-56.83,138.06,-0.50,-6.50,-0.15,1.11,10.14,-0.00,-0.00,0.00,-20.50,-24.00,-18.19
1765366274.34,1,1020.09,-56.83,138.06,-0.50,-6.50,-0.15,1.13,10.14,-0.01,0.00,0.00,-20.50,-23.19,-19.25
1765366274.46,1,1020.09,-56.81,138.06,-0.50,-6.50,-0.16,1.12,10.11,-0.01,0.14,0.00,-19.75,-24.00,-16.75
1765366274.57,1,1020.09,-56.82,138.06,-0.50,-6.50,-0.17,1.07,10.13,0.00,0.00,-0.00,-19.50,-23.56,-18.50
1765366274.69,1,1020.09,-56.82,138.06,-0.50,-6.62,-0.17,1.13,10.16,0.02,0.00,0.00,-20.50,-23.56,-17.69
1765366274.80,1,1020.09,-56.82,138.06,-0.50,-6.62,-0.15,1.13,10.14,-0.00,-0.00,0.00,-19.75,-23.56,-17.25
1765366274.91,1,1020.09,-56.82,138.06,-0.50,-6.62,-0.16,1.10,10.14,0.00,0.00,0.00,-19.75,-23.56,-16.75
1765366275.03,1,1020.09,-56.82,138.06,-0.50,-6.62,-0.17,1.14,10.14,0.01,0.00,0.00,-21.25,-23.19,-18.06
1765366275.15,1,1020.09,-56.82,138.06,-0.50,-6.62,-0.17,1.09,10.13,-0.01,0.00,0.00,-21.56,-23.56,-17.69
1765366275.26,1,1020.09,-56.81,138.06,-0.50,-6.62,-0.19,1.12,10.14,0.00,0.00,-0.00,-21.56,-23.19,-17.25
1765366275.38,1,1020.09,-56.80,138.06,-0.50,-6.62,-0.17,1.11,10.14,-0.00,0.00,0.00,-20.06,-24.00,-17.25
1765366275.49,1,1020.09,-56.80,138.06,-0.50,-6.62,-0.15,1.09,10.15,0.01,0.00,0.00,-20.06,-23.56,-17.69
1765366275.61,1,1020.09,-56.80,138.06,-0.50,-6.62,-0.16,1.11,10.16,0.00,0.00,-0.00,-19.75,-22.88,-17.69
1765366275.72,1,1020.09,-56.81,138.06,-0.50,-6.62,-0.15,1.10,10.14,-0.00,-0.00,-0.00,-20.06,-24.00,-17.69
1765366275.84,1,1020.09,-56.82,138.06,-0.50,-6.62,-0.14,1.11,10.15,-0.00,0.00,-0.00,-21.56,-23.56,-17.69
1765366275.95,1,1020.09,-56.82,138.06,-0.50,-6.62,-0.15,1.10,10.15,0.01,0.00,0.00,-20.88,-22.88,-16.75
1765366276.07,1,1020.09,-56.82,138.06,-0.50,-6.69,-0.14,1.12,10.14,0.01,0.00,0.00,-20.06,-24.00,-17.25
1765366276.19,1,1020.09,-56.81,138.06,-0.50,-6.75,-0.15,1.09,10.14,0.01,-0.00,0.00,-20.88,-22.88,-16.75
1765366276.30,1,1020.09,-56.82,138.06,-0.50,-6.75,-0.16,1.14,10.15,0.00,0.00,-0.00,-20.06,-23.56,-17.69
1765366276.42,1,1020.09,-56.82,138.06,-0.50,-6.75,-0.16,1.13,10.15,-0.00,0.00,0.00,-18.25,-24.00,-18.06
1765366276.54,1,1020.09,-56.82,138.06,-0.50,-6.75,-0.17,1.14,10.14,0.01,0.00,0.00,-19.75,-24.00,-18.50
1765366276.65,1,1020.09,-56.81,138.06,-0.50,-6.75,-0.20,1.12,10.15,0.00,0.00,-0.00,-19.75,-24.38,-18.06
1765366276.77,1,1020.09,-56.81,138.06,-0.50,-6.75,-0.16,1.14,10.14,-0.00,0.00,-0.00,-19.06,-24.38,-17.25
1765366276.89,1,1020.09,-56.82,138.06,-0.50,-6.75,-0.16,1.10,10.14,0.01,-0.00,0.00,-19.50,-23.56,-18.88
1765366277.01,1,1020.09,-56.81,138.06,-0.50,-6.75,-0.18,1.15,10.15,0.00,-0.00,0.00,-19.06,-23.56,-18.06
1765366277.12,1,1020.09,-56.82,138.06,-0.50,-6.75,-0.17,1.14,10.14,0.00,-0.00,0.00,-20.88,-24.00,-17.69
1765366277.24,1,1020.09,-56.82,138.06,-0.50,-6.75,-0.16,1.15,10.12,0.00,-0.00,0.00,-20.06,-23.19,-16.50
1765366277.36,1,1020.09,-56.82,138.06,-0.50,-6.69,-0.16,1.12,10.15,-0.01,0.00,0.00,-19.75,-23.56,-19.00
1765366277.47,1,1020.09,-56.82,138.06,-0.50,-6.69,-0.18,1.15,10.13,0.00,0.00,0.00,-20.88,-23.19,-17.69
1765366277.58,1,1020.09,-56.81,138.06,-0.50,-6.69,-0.17,1.12,10.12,-0.01,0.00,-0.00,-21.56,-24.00,-18.50
1765366277.70,1,1020.09,-56.81,138.06,-0.50,-6.69,-0.17,1.12,10.14,0.01,0.00,0.00,-20.06,-24.00,-17.25
1765366277.81,1,1020.10,-56.84,138.06,-0.50,-6.69,-0.15,1.12,10.12,-0.00,0.00,0.00,-20.50,-23.56,-18.50
1765366277.93,1,1020.10,-56.84,138.06,-0.50,-6.69,-0.16,1.15,10.11,0.00,-0.00,0.00,-20.06,-22.50,-18.50
1765366278.05,1,1020.09,-56.83,138.06,-0.50,-6.69,-0.15,1.13,10.15,0.00,0.00,-0.00,-20.88,-24.38,-17.25
1765366278.16,1,1020.09,-56.83,138.06,-0.50,-6.69,-0.17,1.16,10.16,0.00,0.00,-0.00,-20.06,-23.19,-18.06
1765366278.27,1,1020.09,-56.83,138.06,-0.50,-6.69,-0.17,1.13,10.13,-0.01,0.00,0.00,-19.06,-23.56,-17.69
1765366278.39,1,1020.09,-56.82,138.06,-0.50,-6.69,-0.16,1.16,10.12,-0.00,0.00,0.00,-19.75,-24.00,-17.25
1765366278.50,2,1020.09,-56.82,138.06,-0.50,-6.69,-0.16,1.14,10.15,-0.00,0.00,0.00,-19.75,-22.88,-17.25
1765366278.62,2,1020.10,-56.83,138.19,-0.56,-15.50,0.10,2.68,9.75,3.88,-0.00,-0.02,-15.75,-18.06,-11.75
1765366278.73,2,1020.09,-56.83,138.44,-0.62,-32.56,0.00,0.00,0.00,0.00,0.00,0.00,0.00,0.00,0.00
1765366278.84,2,1020.10,-56.85,0.00,0.00,0.00,0.00,0.00,0.00,0.00,0.00,0.00,0.00,0.00,0.00
1765366278.95,2,1020.10,-56.85,0.00,0.00,0.00,0.00,0.00,0.00,0.00,0.00,0.00,0.00,0.00,0.00
1765366279.06,2,1020.10,-56.86,0.00,0.00,0.00,0.00,0.00,0.00,0.00,0.00,0.00,0.00,0.00,0.00
1765366279.17,2,1020.10,-56.85,0.00,0.00,0.00,0.00,0.00,0.00,0.00,0.00,0.00,0.00,0.00,0.00
1765366279.29,2,1020.10,-56.87,0.00,0.00,0.00,0.00,0.00,0.00,0.00,0.00,0.00,0.00,0.00,0.00
1765366279.40,2,1020.10,-56.87,0.00,0.00,0.00,0.00,0.00,0.00,0.00,0.00,0.00,0.00,0.00,0.00
1765366279.51,2,1020.10,-56.85,0.00,0.00,0.00,0.00,0.00,0.00,0.00,0.00,0.00,0.00,0.00,0.00
1765366279.62,2,1020.10,-56.84,0.00,0.00,0.00,0.00,0.00,0.00,0.00,0.00,0.00,0.00,0.00,0.00
1765366279.73,2,1020.10,-56.84,0.00,0.00,0.00,0.00,0.00,0.00,0.00,0.00,0.00,0.00,0.00,0.00
1765366279.84,2,1020.09,-56.82,0.00,0.00,0.00,0.00,0.00,0.00,0.00,0.00,0.00,0.00,0.00,0.00
1765366279.95,2,1020.09,-56.81,0.00,0.00,0.00,0.00,0.00,0.00,0.00,0.00,0.00,0.00,0.00,0.00
1765366280.06,2,1020.10,-56.84,0.00,0.00,0.00,0.00,0.00,0.00,0.00,0.00,0.00,0.00,0.00,0.00
1765366280.17,2,1020.10,-56.84,0.00,0.00,0.00,0.00,0.00,0.00,0.00,0.00,0.00,0.00,0.00,0.00
1765366280.28,2,1020.09,-56.82,0.00,0.00,0.00,0.00,0.00,0.00,0.00,0.00,0.00,0.00,0.00,0.00
1765366280.39,2,1020.09,-56.83,0.00,0.00,0.00,0.00,0.00,0.00,0.00,0.00,0.00,0.00,0.00,0.00
1765366280.51,2,1020.10,-56.86,0.00,0.00,0.00,0.00,0.00,0.00,0.00,0.00,0.00,0.00,0.00,0.00
1765366280.62,2,1020.10,-56.86,0.00,0.00,0.00,0.00,0.00,0.00,0.00,0.00,0.00,0.00,0.00,0.00
1765366280.73,2,1020.10,-56.85,0.00,0.00,0.00,0.00,0.00,0.00,0.00,0.00,0.00,0.00,0.00,0.00
1765366280.84,2,1020.10,-56.85,0.00,0.00,0.00,0.00,0.00,0.00,0.00,0.00,0.00,0.00,0.00,0.00
1765366280.95,2,1020.09,-56.82,0.00,0.00,0.00,0.00,0.00,0.00,0.00,0.00,0.00,0.00,0.00,0.00
1765366281.06,2,1020.09,-56.82,0.00,0.00,0.00,0.00,0.00,0.00,0.00,0.00,0.00,0.00,0.00,0.00
1765366281.17,2,1020.09,-56.81,0.00,0.00,0.00,0.00,0.00,0.00,0.00,0.00,0.00,0.00,0.00,0.00
1765366281.28,2,1020.09,-56.81,0.00,0.00,0.00,0.00,0.00,0.00,0.00,0.00,0.00,0.00,0.00,0.00
1765366281.39,2,1020.09,-56.81,0.00,0.00,0.00,0.00,0.00,0.00,0.00,0.00,0.00,0.00,0.00,0.00
1765366281.50,2,1020.09,-56.83,0.00,0.00,0.00,0.00,0.00,0.00,0.00,0.00,0.00,0.00,0.00,0.00
1765366281.61,2,1020.09,-56.83,0.00,0.00,0.00,0.00,0.00,0.00,0.00,0.00,0.00,0.00,0.00,0.00
1765366281.72,2,1020.10,-56.85,0.00,0.00,0.00,0.00,0.00,0.00,0.00,0.00,0.00,0.00,0.00,0.00
1765366281.83,2,1020.10,-56.85,0.00,0.00,0.00,0.00,0.00,0.00,0.00,0.00,0.00,0.00,0.00,0.00
1765366281.94,2,1020.10,-56.86,0.00,0.00,0.00,0.00,0.00,0.00,0.00,0.00,0.00,0.00,0.00,0.00
1765366282.06,2,1020.10,-56.86,0.00,0.00,0.00,0.00,0.00,0.00,0.00,0.00,0.00,0.00,0.00,0.00
1765366282.17,2,1020.10,-56.86,0.00,0.00,0.00,0.00,0.00,0.00,0.00,0.00,0.00,0.00,0.00,0.00
1765366282.28,2,1020.10,-56.86,0.00,0.00,0.00,0.00,0.00,0.00,0.00,0.00,0.00,0.00,0.00,0.00
1765366282.39,2,1020.09,-56.82,0.00,0.00,0.00,0.00,0.00,0.00,0.00,0.00,0.00,0.00,0.00,0.00
1765366282.51,2,1020.09,-56.81,0.00,0.00,0.00,0.00,0.00,0.00,0.00,0.00,0.00,0.00,0.00,0.00
1765366282.62,2,1020.08,-56.75,0.00,0.00,0.00,0.00,0.00,0.00,0.00,0.00,0.00,0.00,0.00,0.00
1765366282.73,2,1020.08,-56.74,0.00,0.00,0.00,0.00,0.00,0.00,0.00,0.00,0.00,0.00,0.00,0.00
1765366282.84,2,1020.08,-56.75,0.00,0.00,0.00,0.00,0.00,0.00,0.00,0.00,0.00,0.00,0.00,0.00
1765366282.95,2,1020.08,-56.73,0.00,0.00,0.00,0.00,0.00,0.00,0.00,0.00,0.00,0.00,0.00,0.00
1765366283.06,2,1020.08,-56.72,0.00,0.00,0.00,0.00,0.00,0.00,0.00,0.00,0.00,0.00,0.00,0.00
1765366283.17,2,1020.08,-56.69,0.00,0.00,0.00,0.00,0.00,0.00,0.00,0.00,0.00,0.00,0.00,0.00
1765366283.28,2,1020.08,-56.70,0.00,0.00,0.00,0.00,0.00,0.00,0.00,0.00,0.00,0.00,0.00,0.00
1765366283.39,2,1020.07,-56.66,0.00,0.00,0.00,0.00,0.00,0.00,0.00,0.00,0.00,0.00,0.00,0.00
1765366283.50,2,1020.07,-56.65,0.00,0.00,0.00,0.00,0.00,0.00,0.00,0.00,0.00,0.00,0.00,0.00
1765366283.61,3,1020.07,-56.63,0.00,0.00,0.00,0.00,0.00,0.00,0.00,0.00,0.00,0.00,0.00,0.00
1765366283.72,3,1020.07,-56.63,0.00,0.00,0.00,0.00,0.00,0.00,0.00,0.00,0.00,0.00,0.00,0.00
1765366283.84,3,1020.07,-56.62,0.00,0.00,0.00,0.00,0.00,0.00,0.00,0.00,0.00,0.00,0.00,0.00
1765366283.95,3,1020.07,-56.62,0.00,0.00,0.00,0.00,0.00,0.00,0.00,0.00,0.00,0.00,0.00,0.00
1765366284.05,3,1020.06,-56.56,0.00,0.00,0.00,0.00,0.00,0.00,0.00,0.00,0.00,0.00,0.00,0.00
1765366284.17,3,1020.06,-56.57,0.00,0.00,0.00,0.00,0.00,0.00,0.00,0.00,0.00,0.00,0.00,0.00
1765366284.28,3,1020.05,-56.48,0.00,0.00,0.00,0.00,0.00,0.00,0.00,0.00,0.00,0.00,0.00,0.00
1765366284.39,3,1020.03,-56.33,0.00,0.00,0.00,0.00,0.00,0.00,0.00,0.00,0.00,0.00,0.00,0.00
1765366284.50,3,1020.03,-56.33,0.00,0.00,0.00,0.00,0.00,0.00,0.00,0.00,0.00,0.00,0.00,0.00
1765366284.61,3,1020.02,-56.23,0.00,0.00,0.00,0.00,0.00,0.00,0.00,0.00,0.00,0.00,0.00,0.00
1765366284.72,3,1020.02,-56.22,0.00,0.00,0.00,0.00,0.00,0.00,0.00,0.00,0.00,0.00,0.00,0.00
1765366284.83,3,1020.01,-56.16,0.00,0.00,0.00,0.00,0.00,0.00,0.00,0.00,0.00,0.00,0.00,0.00
1765366284.94,3,1020.01,-56.16,0.00,0.00,0.00,0.00,0.00,0.00,0.00,0.00,0.00,0.00,0.00,0.00
1765366285.05,3,1020.01,-56.14,0.00,0.00,0.00,0.00,0.00,0.00,0.00,0.00,0.00,0.00,0.00,0.00
1765366285.16,3,1020.01,-56.14,0.00,0.00,0.00,0.00,0.00,0.00,0.00,0.00,0.00,0.00,0.00,0.00
1765366285.27,3,1020.01,-56.17,0.00,0.00,0.00,0.00,0.00,0.00,0.00,0.00,0.00,0.00,0.00,0.00
1765366285.38,3,1020.01,-56.17,0.00,0.00,0.00,0.00,0.00,0.00,0.00,0.00,0.00,0.00,0.00,0.00
1765366285.49,3,1020.02,-56.22,0.00,0.00,0.00,0.00,0.00,0.00,0.00,0.00,0.00,0.00,0.00,0.00
1765366285.60,3,1020.02,-56.22,0.00,0.00,0.00,0.00,0.00,0.00,0.00,0.00,0.00,0.00,0.00,0.00
1765366285.71,3,1020.02,-56.24,0.00,0.00,0.00,0.00,0.00,0.00,0.00,0.00,0.00,0.00,0.00,0.00
1765366285.82,3,1020.02,-56.23,0.00,0.00,0.00,0.00,0.00,0.00,0.00,0.00,0.00,0.00,0.00,0.00
1765366285.93,3,1020.03,-56.26,0.00,0.00,0.00,0.00,0.00,0.00,0.00,0.00,0.00,0.00,0.00,0.00
1765366286.04,3,1020.03,-56.26,0.00,0.00,0.00,0.00,0.00,0.00,0.00,0.00,0.00,0.00,0.00,0.00
1765366286.15,3,1020.03,-56.27,0.00,0.00,0.00,0.00,0.00,0.00,0.00,0.00,0.00,0.00,0.00,0.00
1765366286.26,3,1020.03,-56.26,0.00,0.00,0.00,0.00,0.00,0.00,0.00,0.00,0.00,0.00,0.00,0.00
1765366286.37,3,1020.03,-56.26,0.00,0.00,0.00,0.00,0.00,0.00,0.00,0.00,0.00,0.00,0.00,0.00
1765366286.48,3,1020.03,-56.27,0.00,0.00,0.00,0.00,0.00,0.00,0.00,0.00,0.00,0.00,0.00,0.00
1765366286.59,3,1020.03,-56.28,0.00,0.00,0.00,0.00,0.00,0.00,0.00,0.00,0.00,0.00,0.00,0.00
1765366286.70,3,1020.03,-56.28,0.00,0.00,0.00,0.00,0.00,0.00,0.00,0.00,0.00,0.00,0.00,0.00
