Timestamp,Pressure_hPa,Temp_C,Altitude_m,Heading,Roll,Pitch,AccelX,AccelY,AccelZ
1765363139.70,1019.54,30.98,-52.23,0.00,0.00,0.00,-1.19,-4.09,-8.89
1765363139.81,1019.54,30.98,-52.22,214.44,-7.38,155.06,-1.27,-4.14,-8.98
1765363139.92,1019.54,30.98,-52.21,214.44,-7.38,155.06,-1.25,-4.13,-8.93
1765363140.04,1019.54,30.98,-52.21,214.44,-7.38,155.06,-1.29,-4.14,-8.89
1765363140.14,1019.54,30.98,-52.22,214.44,-7.38,155.06,-1.28,-4.12,-8.91
1765363140.25,1019.54,30.98,-52.23,214.44,-7.38,155.06,-1.26,-4.15,-8.93
1765363140.36,1019.54,30.98,-52.23,214.44,-7.38,155.06,-1.28,-4.15,-8.90
1765363140.47,1019.54,30.98,-52.22,214.44,-7.38,155.06,-1.26,-4.16,-8.90
1765363140.59,1019.54,30.99,-52.23,214.44,-7.38,155.06,-1.27,-4.14,-8.90
1765363140.69,1019.54,30.99,-52.22,214.44,-7.38,155.06,-1.28,-4.15,-8.92
1765363140.80,1019.54,30.99,-52.22,214.44,-7.38,155.06,-1.29,-4.15,-8.92
1765363140.91,1019.54,30.99,-52.22,214.44,-7.38,155.06,-1.27,-4.04,-8.81
1765363141.03,1019.54,31.00,-52.23,214.38,-7.38,155.06,-1.27,-4.11,-8.83
1765363141.14,1019.54,31.00,-52.25,214.38,-7.38,155.06,-1.27,-4.10,-8.77
1765363141.25,1019.54,30.98,-52.24,214.38,-7.38,155.06,-1.28,-4.08,-8.82
1765363141.36,1019.55,30.98,-52.32,214.38,-7.38,155.06,-1.23,-4.10,-8.86
1765363141.47,1019.55,30.97,-52.31,214.38,-7.38,155.06,-1.26,-4.09,-8.82
1765363141.58,1019.56,30.97,-52.38,214.38,-7.38,155.06,-1.25,-4.08,-8.82
1765363141.69,1019.55,30.95,-52.35,214.38,-7.38,155.06,-1.26,-4.08,-8.85
1765363141.80,1019.56,30.95,-52.38,214.44,-7.38,155.06,-1.32,-4.13,-8.85
1765363141.91,1019.56,30.94,-52.37,214.44,-7.38,155.06,-1.23,-4.07,-8.89
1765363142.02,1019.56,30.93,-52.38,214.44,-7.38,155.06,-1.22,-4.06,-8.80
1765363142.13,1019.56,30.93,-52.37,214.44,-7.38,155.06,-1.24,-4.11,-8.77
1765363142.25,1019.56,30.93,-52.37,214.44,-7.38,155.06,-1.22,-4.12,-8.85
1765363142.37,1019.56,30.93,-52.39,214.44,-7.38,155.06,-1.23,-4.06,-8.82
1765363142.48,1019.56,30.93,-52.40,214.44,-7.38,155.06,-1.07,-4.15,-8.75
1765363142.59,1019.56,30.93,-52.39,214.50,-7.31,155.00,-1.27,-4.11,-8.79
1765363142.70,1019.56,30.94,-52.40,214.50,-7.31,155.00,-1.22,-4.11,-8.83
1765363142.82,1019.56,30.94,-52.37,214.50,-7.31,155.00,-1.21,-4.09,-8.82
1765363142.93,1019.56,30.95,-52.38,214.50,-7.31,155.00,-1.25,-4.12,-8.83
1765363143.04,1019.56,30.95,-52.38,214.50,-7.31,155.00,-1.27,-4.09,-8.81
1765363143.15,1019.56,30.95,-52.38,214.50,-7.31,155.00,-1.25,-4.09,-8.79
1765363143.27,1019.56,30.95,-52.37,214.50,-7.31,155.00,-1.32,-4.10,-8.77
1765363143.38,1019.55,30.95,-52.36,214.50,-7.31,155.00,-1.24,-4.11,-8.82
1765363143.49,1019.55,30.95,-52.36,214.50,-7.31,155.00,-1.24,-4.11,-8.82
1765363143.61,1019.56,30.95,-52.38,214.50,-7.31,155.00,-1.23,-4.11,-8.79
1765363143.72,1019.56,30.95,-52.37,214.50,-7.31,155.00,-1.24,-4.10,-8.82
1765363143.83,1019.56,30.95,-52.37,214.50,-7.31,155.00,-1.25,-4.12,-8.83
1765363143.95,1019.56,30.95,-52.38,214.50,-7.31,155.00,-1.26,-4.08,-8.84
1765363144.06,1019.56,30.95,-52.37,214.50,-7.31,155.00,-1.25,-4.10,-8.82
1765363144.17,1019.56,30.95,-52.37,214.50,-7.31,155.00,-1.23,-4.09,-8.81
1765363144.29,1019.56,30.95,-52.37,214.50,-7.31,155.00,-1.27,-4.08,-8.82
1765363144.40,1019.56,30.95,-52.37,214.50,-7.31,155.00,-1.23,-4.08,-8.80
1765363144.51,1019.55,30.94,-52.35,214.50,-7.31,155.00,-1.26,-4.12,-8.83
1765363144.62,1019.56,30.94,-52.37,214.50,-7.31,155.00,-1.23,-4.10,-8.77
1765363144.73,1019.55,30.93,-52.35,214.50,-7.31,155.00,-1.28,-4.07,-8.83
1765363144.84,1019.56,30.93,-52.40,214.50,-7.31,155.00,-1.27,-4.08,-8.80
1765363144.95,1019.56,30.93,-52.39,214.50,-7.31,155.00,-1.24,-4.09,-8.81
1765363145.06,1019.57,30.93,-52.46,214.50,-7.31,155.00,-1.23,-4.15,-8.80
1765363145.17,1019.56,30.91,-52.44,214.50,-7.31,155.00,-1.23,-4.08,-8.82
1765363145.28,1019.57,30.91,-52.47,214.50,-7.31,155.00,-1.22,-4.11,-8.84
1765363145.39,1019.57,30.90,-52.45,214.50,-7.31,155.00,-1.23,-4.10,-8.83
1765363145.50,1019.56,30.90,-52.43,214.50,-7.31,155.00,-1.25,-4.11,-8.75
1765363145.61,1019.56,30.89,-52.42,214.50,-7.31,155.00,-1.24,-4.09,-8.84
1765363145.72,1019.56,30.89,-52.42,214.50,-7.31,155.00,-1.25,-4.10,-8.85
1765363145.83,1019.56,30.89,-52.42,214.50,-7.31,155.00,-1.25,-4.10,-8.81
1765363145.94,1019.56,30.89,-52.42,214.50,-7.31,155.00,-1.24,-4.11,-8.79
1765363146.05,1019.56,30.89,-52.42,214.50,-7.31,155.00,-1.22,-4.09,-8.82
1765363146.16,1019.56,30.90,-52.41,214.50,-7.31,155.00,-1.24,-4.13,-8.79
1765363146.27,1019.56,30.90,-52.39,214.50,-7.31,155.00,-1.23,-4.10,-8.82
1765363146.39,1019.56,30.91,-52.40,214.50,-7.31,155.00,-1.25,-4.10,-8.84
1765363146.50,1019.56,30.91,-52.40,214.50,-7.31,155.00,-1.22,-4.13,-8.83
1765363146.61,1019.56,30.91,-52.40,214.50,-7.31,155.00,-1.23,-4.09,-8.82
1765363146.72,1019.56,30.91,-52.37,214.50,-7.31,155.00,-1.26,-4.10,-8.83
1765363146.83,1019.56,30.92,-52.39,214.50,-7.31,155.00,-1.23,-4.08,-8.81
1765363146.94,1019.56,30.92,-52.38,214.50,-7.31,155.00,-1.22,-4.10,-8.81
1765363147.05,1019.56,30.92,-52.38,214.50,-7.31,155.00,-1.23,-4.10,-8.82
1765363147.16,1019.55,30.92,-52.34,214.50,-7.31,155.00,-1.24,-4.10,-8.80
1765363147.27,1019.55,30.92,-52.34,214.50,-7.31,155.00,-1.24,-4.10,-8.78
1765363147.38,1019.55,30.92,-52.34,214.50,-7.31,155.00,-1.27,-4.08,-8.79
1765363147.49,1019.55,30.92,-52.31,214.50,-7.31,155.00,-1.25,-4.10,-8.80
1765363147.60,1019.55,30.94,-52.33,214.50,-7.31,155.00,-1.26,-4.10,-8.79
1765363147.71,1019.55,30.94,-52.33,214.50,-7.31,155.00,-1.24,-4.12,-8.82
1765363147.82,1019.55,30.94,-52.33,214.50,-7.31,155.00,-1.25,-4.10,-8.79
1765363147.93,1019.55,30.94,-52.33,214.50,-7.31,155.00,-1.24,-4.11,-8.81
1765363148.04,1019.55,30.94,-52.32,214.50,-7.31,155.00,-1.25,-4.11,-8.81
1765363148.15,1019.55,30.95,-52.33,214.50,-7.31,155.00,-1.23,-4.11,-8.82
1765363148.26,1019.55,30.95,-52.32,214.50,-7.31,155.00,-1.26,-4.09,-8.77
1765363148.37,1019.55,30.96,-52.33,214.50,-7.31,155.00,-1.26,-4.12,-8.78
1765363148.48,1019.55,30.96,-52.34,214.50,-7.31,155.00,-1.26,-4.06,-8.84
1765363148.59,1019.55,30.95,-52.32,214.50,-7.31,155.00,-1.24,-4.11,-8.84
1765363148.70,1019.55,30.95,-52.31,214.50,-7.31,155.00,-1.25,-4.10,-8.83
1765363148.81,1019.55,30.96,-52.32,214.50,-7.31,155.00,-1.25,-4.07,-8.79
1765363148.92,1019.55,30.96,-52.31,214.50,-7.31,155.00,-1.23,-4.11,-8.82
1765363149.04,1019.55,30.96,-52.31,214.50,-7.31,155.00,-1.25,-4.10,-8.80
1765363149.15,1019.55,30.96,-52.31,214.50,-7.31,155.00,-1.24,-4.10,-8.81
1765363149.26,1019.55,30.95,-52.30,214.50,-7.31,155.00,-1.24,-4.10,-8.78
1765363149.37,1019.55,30.95,-52.30,214.50,-7.31,155.00,-1.26,-4.10,-8.82
1765363149.49,1019.55,30.95,-52.29,214.50,-7.31,155.00,-1.25,-4.09,-8.81
1765363149.60,1019.55,30.96,-52.29,214.50,-7.31,155.00,-1.26,-4.12,-8.80
1765363149.71,1019.55,30.96,-52.31,214.50,-7.31,155.00,-1.25,-4.11,-8.82
1765363149.83,1019.55,30.96,-52.31,214.50,-7.31,155.00,-1.26,-4.10,-8.84
1765363149.94,1019.55,30.96,-52.29,214.50,-7.31,155.00,-1.25,-4.09,-8.82
1765363150.05,1019.55,30.96,-52.30,214.50,-7.31,155.00,-1.27,-4.09,-8.86
1765363150.16,1019.55,30.96,-52.31,214.50,-7.31,155.00,-1.27,-4.08,-8.83
1765363150.27,1019.55,30.97,-52.31,214.50,-7.31,155.00,-1.26,-4.08,-8.79
1765363150.38,1019.55,30.97,-52.28,214.50,-7.31,155.00,-1.25,-4.11,-8.79
1765363150.49,1019.55,30.96,-52.28,214.50,-7.31,155.00,-1.25,-4.09,-8.82
1765363150.61,1019.55,30.96,-52.28,214.50,-7.31,155.00,-1.26,-4.07,-8.80
1765363150.72,1019.55,30.97,-52.29,214.50,-7.31,155.00,-1.26,-4.10,-8.80
1765363150.83,1019.54,30.96,-52.28,214.50,-7.31,155.00,-1.26,-4.09,-8.80
1765363150.94,1019.55,30.96,-52.29,214.50,-7.31,155.00,-1.25,-4.10,-8.80
1765363151.05,1019.55,30.96,-52.29,214.50,-7.31,155.00,-1.26,-4.10,-8.81
1765363151.16,1019.54,30.96,-52.28,214.50,-7.31,155.00,-1.25,-4.09,-8.83
1765363151.27,1019.55,30.97,-52.28,214.50,-7.31,155.00,-1.25,-4.09,-8.83
1765363151.38,1019.55,30.97,-52.28,214.50,-7.31,155.00,-1.24,-4.09,-8.83
1765363151.52,1019.54,30.97,-52.28,214.50,-7.31,155.00,-1.26,-4.10,-8.82
1765363151.63,1019.54,30.97,-52.26,214.50,-7.31,155.00,-1.24,-4.08,-8.83
1765363151.74,1019.54,30.97,-52.26,214.50,-7.31,155.00,-1.25,-4.09,-8.80
1765363151.85,1019.54,30.97,-52.27,214.50,-7.31,155.00,-1.25,-4.09,-8.82
1765363151.96,1019.54,30.97,-52.26,214.50,-7.31,155.00,-1.24,-4.07,-8.81
1765363152.07,1019.54,30.97,-52.24,214.50,-7.31,155.00,-1.25,-4.11,-8.79
1765363152.19,1019.54,30.97,-52.26,214.50,-7.31,155.00,-1.23,-4.09,-8.78
1765363152.30,1019.54,30.97,-52.27,214.50,-7.31,155.00,-1.25,-4.09,-8.84
1765363152.41,1019.54,30.97,-52.27,214.50,-7.31,155.00,-1.27,-4.09,-8.83
1765363152.51,1019.54,30.97,-52.27,214.50,-7.31,155.00,-1.25,-4.07,-8.80
1765363152.62,1019.54,30.97,-52.26,214.50,-7.31,155.00,-1.26,-4.09,-8.80
1765363152.74,1019.54,30.97,-52.25,214.50,-7.31,155.00,-1.25,-4.06,-8.78
1765363152.85,1019.54,30.97,-52.25,214.50,-7.31,155.00,-1.24,-4.09,-8.80
1765363152.96,1019.54,30.98,-52.26,214.50,-7.31,155.00,-1.25,-4.09,-8.84
1765363153.07,1019.54,30.98,-52.24,214.50,-7.31,155.00,-1.26,-4.09,-8.83
1765363153.18,1019.54,30.97,-52.24,214.50,-7.31,155.00,-1.25,-4.09,-8.79
1765363153.29,1019.54,30.97,-52.23,214.50,-7.31,155.00,-1.26,-4.08,-8.82
1765363153.40,1019.54,30.97,-52.22,214.50,-7.31,155.00,-1.25,-4.09,-8.81
1765363153.51,1019.54,30.97,-52.22,214.50,-7.31,155.00,-1.26,-4.10,-8.82
1765363153.62,1019.54,30.97,-52.23,214.50,-7.31,155.00,-1.25,-4.12,-8.80
1765363153.73,1019.54,30.97,-52.23,214.50,-7.31,155.00,-1.27,-4.08,-8.82
1765363153.84,1019.54,30.98,-52.23,214.50,-7.31,155.00,-1.24,-4.11,-8.83
1765363153.95,1019.54,30.98,-52.22,214.50,-7.31,155.00,-1.26,-4.09,-8.80
1765363154.06,1019.54,30.98,-52.23,214.50,-7.31,155.00,-1.25,-4.08,-8.83
1765363154.17,1019.54,30.98,-52.23,214.50,-7.31,155.00,-1.25,-4.11,-8.80
1765363154.28,1019.54,30.98,-52.21,214.50,-7.31,155.00,-1.25,-4.07,-8.81
1765363154.39,1019.54,30.98,-52.21,214.50,-7.31,155.00,-1.25,-4.11,-8.81
1765363154.50,1019.54,30.98,-52.22,214.50,-7.31,155.00,-1.26,-4.08,-8.80
1765363154.61,1019.54,30.98,-52.23,214.50,-7.31,155.00,-1.26,-4.09,-8.84
1765363154.72,1019.54,30.98,-52.22,214.50,-7.31,155.00,-1.26,-4.08,-8.83
1765363154.84,1019.54,30.99,-52.22,214.50,-7.31,155.00,-1.26,-4.09,-8.84
1765363154.95,1019.54,30.99,-52.23,214.50,-7.31,155.00,-1.24,-4.07,-8.84
1765363155.06,1019.54,30.98,-52.23,214.50,-7.31,155.00,-1.26,-4.10,-8.83
1765363155.17,1019.54,30.98,-52.22,214.50,-7.31,155.00,-1.25,-4.10,-8.81
1765363155.28,1019.54,30.99,-52.23,214.50,-7.31,155.00,-1.25,-4.09,-8.84
1765363155.41,1019.54,30.99,-52.23,214.50,-15.31,155.00,-1.26,-4.11,-8.81
1765363155.52,1019.54,30.99,-52.22,214.50,-7.31,155.00,-1.23,-4.11,-8.84
1765363155.63,1019.54,30.99,-52.22,214.50,-7.31,155.00,-1.25,-4.11,-8.82
1765363155.74,1019.54,30.99,-52.23,214.50,-7.31,155.00,-1.27,-4.08,-8.81
1765363155.85,1019.54,30.99,-52.23,214.50,-7.31,155.00,-1.26,-4.09,-8.80
1765363155.97,1019.54,30.99,-52.21,214.50,-7.31,155.00,-1.27,-4.11,-8.80
1765363156.08,1019.54,30.99,-52.21,214.50,-7.31,155.00,-1.23,-4.13,-8.84
1765363156.19,1019.54,30.99,-52.22,214.50,-7.31,155.00,-1.23,-4.10,-8.83
1765363156.30,1019.54,30.99,-52.22,214.50,-7.31,155.00,-1.25,-4.11,-8.82
1765363156.41,1019.54,30.99,-52.23,214.50,-7.31,155.00,-1.26,-4.08,-8.84
1765363156.52,1019.54,30.99,-52.20,214.50,-7.31,155.00,-1.23,-4.11,-8.80
1765363156.63,1019.54,31.00,-52.21,214.50,-7.31,155.00,-1.25,-4.09,-8.80
1765363156.74,1019.54,30.99,-52.21,214.50,-7.31,155.00,-1.25,-4.11,-8.79
1765363156.85,1019.54,30.99,-52.22,214.50,-7.31,155.00,-1.28,-4.12,-8.77
1765363156.96,1019.54,30.99,-52.22,214.50,-7.31,155.00,-1.27,-4.09,-8.80
1765363157.07,1019.54,30.99,-52.20,214.50,-7.31,155.00,-1.25,-4.12,-8.85
1765363157.18,1019.53,30.99,-52.19,214.19,-7.38,155.12,-1.24,-4.11,-8.80
1765363157.29,1019.53,30.99,-52.17,214.12,-7.38,155.12,-1.25,-4.10,-8.81
1765363157.40,1019.53,30.99,-52.18,214.12,-7.38,155.12,-1.26,-4.04,-8.77
1765363157.51,1019.53,30.99,-52.18,214.12,-7.38,155.12,-1.24,-4.08,-8.79
1765363157.62,1019.53,30.99,-52.17,214.12,-7.38,155.12,-1.26,-4.03,-8.77
1765363157.73,1019.54,30.99,-52.25,214.12,-7.38,155.12,-1.26,-4.05,-8.82
1765363157.84,1019.54,30.97,-52.23,214.12,-7.38,155.12,-1.31,-4.04,-8.82
1765363157.95,1019.55,30.97,-52.31,214.12,-7.38,155.12,-1.25,-4.13,-8.91
1765363158.06,1019.55,30.96,-52.29,214.12,-7.38,155.12,-1.28,-4.09,-8.85
1765363158.17,1019.56,30.96,-52.41,214.12,-7.38,155.12,-1.26,-4.09,-8.87
1765363158.28,1019.56,30.94,-52.40,214.12,-7.38,155.12,-1.26,-4.07,-8.81
1765363158.40,1019.56,30.93,-52.44,214.12,-7.38,155.12,-1.26,-4.10,-8.83
1765363158.51,1019.56,30.93,-52.42,214.12,-7.38,155.12,-1.29,-4.09,-8.80
1765363158.62,1019.56,30.92,-52.41,214.12,-7.38,155.12,-1.28,-4.08,-8.81
1765363158.73,1019.56,30.92,-52.41,214.12,-7.38,155.12,-1.24,-4.08,-8.82
1765363158.84,1019.56,30.91,-52.40,214.12,-7.38,155.12,-1.25,-4.07,-8.83
1765363158.95,1019.56,30.91,-52.39,214.12,-7.38,155.12,-1.29,-4.07,-8.80
1765363159.06,1019.56,30.92,-52.40,214.12,-7.38,155.12,-1.26,-4.09,-8.81
1765363159.18,1019.56,30.92,-52.39,214.12,-7.38,155.12,-1.28,-4.08,-8.81
1765363159.29,1019.56,30.92,-52.40,214.12,-7.38,155.12,-1.28,-4.10,-8.82
1765363159.40,1019.56,30.92,-52.40,214.12,-7.38,155.12,-1.27,-4.05,-8.81
1765363159.51,1019.56,30.93,-52.40,214.12,-7.38,155.12,-1.26,-4.10,-8.82
1765363159.62,1019.56,30.93,-52.39,214.12,-7.38,155.12,-1.27,-4.06,-8.84
1765363159.73,1019.56,30.93,-52.38,214.12,-7.38,155.12,-1.26,-4.07,-8.80
1765363159.84,1019.56,30.93,-52.38,214.12,-7.38,155.12,-1.26,-4.08,-8.87
1765363159.95,1019.56,30.92,-52.37,214.12,-7.38,155.12,-1.27,-4.07,-8.79
1765363160.06,1019.56,30.93,-52.38,214.12,-7.38,155.12,-1.28,-4.06,-8.78
1765363160.17,1019.56,30.93,-52.38,214.12,-7.38,155.12,-1.26,-4.07,-8.76
1765363160.28,1019.56,30.94,-52.39,214.12,-7.38,155.12,-1.27,-4.05,-8.91
1765363160.39,1019.56,30.94,-52.39,214.12,-7.38,155.12,-1.31,-4.01,-8.71
1765363160.50,1019.56,30.94,-52.40,214.12,-7.38,155.12,-1.28,-4.08,-8.78
1765363160.62,1019.55,30.94,-52.36,214.12,-7.38,155.12,-1.28,-4.07,-8.84
1765363160.73,1019.56,30.95,-52.37,214.12,-7.38,155.12,-1.28,-4.04,-8.78
1765363160.84,1019.56,30.95,-52.38,214.06,-7.44,154.94,-1.21,-4.04,-9.23
1765363160.95,1019.56,30.95,-52.38,213.69,-7.94,155.25,-1.42,-4.15,-8.66
1765363161.06,1019.55,30.95,-52.34,213.12,-8.00,155.12,-1.41,-4.21,-8.55
1765363161.18,1019.55,30.95,-52.35,212.62,-7.88,155.56,-1.30,-3.72,-8.92
1765363161.29,1019.55,30.95,-52.34,212.56,-7.88,155.56,-1.42,-4.00,-8.71
1765363161.40,1019.55,30.96,-52.34,212.56,-7.88,155.56,-1.42,-3.99,-8.85
1765363161.52,1019.55,30.96,-52.34,212.56,-7.88,155.56,-1.35,-3.99,-8.80
1765363161.63,1019.56,30.96,-52.38,212.56,-7.88,155.56,-1.35,-4.00,-8.84
1765363161.74,1019.56,30.95,-52.37,212.56,-7.88,155.56,-1.35,-4.01,-8.86
1765363161.85,1019.56,30.95,-52.39,212.56,-7.88,155.56,-1.32,-4.02,-8.85
1765363161.97,1019.56,30.95,-52.39,212.56,-7.88,155.56,-1.34,-3.99,-8.94
1765363162.08,1019.56,30.95,-52.39,212.56,-7.88,155.56,-1.34,-4.08,-8.83
1765363162.19,1019.56,30.96,-52.40,212.56,-7.88,155.56,-1.34,-4.03,-8.87
1765363162.30,1019.56,30.96,-52.41,212.56,-7.88,155.56,-1.37,-3.99,-8.83
1765363162.41,1019.56,30.95,-52.40,212.56,-7.88,155.56,-1.38,-4.02,-8.84
1765363162.52,1019.56,30.95,-52.39,212.56,-7.88,155.56,-1.36,-4.02,-8.80
1765363162.63,1019.56,30.96,-52.40,212.56,-7.88,155.56,-1.36,-4.01,-8.82
1765363162.74,1019.56,30.96,-52.40,212.56,-7.88,155.56,-1.35,-3.99,-8.88
1765363162.85,1019.56,30.96,-52.40,212.56,-7.88,155.56,-1.36,-4.01,-8.83
1765363162.96,1019.56,30.96,-52.38,212.56,-7.88,155.56,-1.36,-4.00,-8.86
1765363163.07,1019.56,30.96,-52.38,212.56,-7.88,155.56,-1.36,-3.98,-8.86
1765363163.18,1019.56,30.97,-52.38,212.56,-7.88,155.56,-1.36,-4.00,-8.86
1765363163.29,1019.56,30.97,-52.39,212.56,-7.88,155.56,-1.35,-3.99,-8.83
1765363163.40,1019.56,30.97,-52.40,212.56,-7.88,155.44,-1.48,-4.04,-8.86
1765363163.51,1019.56,30.97,-52.39,212.50,-7.88,155.38,-1.40,-4.04,-8.77
1765363163.62,1019.56,30.97,-52.39,212.44,-7.94,155.19,-1.42,-4.01,-8.80
1765363163.73,1019.56,30.97,-52.37,212.44,-7.88,155.50,-1.39,-3.99,-8.86
1765363163.84,1019.56,30.97,-52.37,212.44,-7.88,155.50,-1.35,-4.03,-8.86
1765363163.95,1019.56,30.97,-52.38,212.44,-7.88,155.50,-1.37,-4.06,-8.88
1765363164.06,1019.56,30.97,-52.37,212.44,-7.88,155.50,-1.41,-4.03,-8.81
1765363164.17,1019.55,30.97,-52.36,212.44,-7.88,155.50,-1.37,-4.02,-8.83
1765363164.28,1019.56,30.98,-52.37,212.44,-7.88,155.50,-1.35,-4.01,-8.84
1765363164.40,1019.56,30.98,-52.38,212.44,-7.88,155.50,-1.38,-4.02,-8.85
1765363164.51,1019.56,30.98,-52.38,212.44,-7.88,155.50,-1.37,-4.00,-8.84
1765363164.62,1019.55,30.97,-52.36,212.44,-7.88,155.50,-1.36,-4.01,-8.83
1765363164.73,1019.55,30.97,-52.36,212.44,-7.88,155.50,-1.34,-4.00,-8.85
1765363164.84,1019.55,30.97,-52.36,212.44,-7.88,155.50,-1.37,-4.01,-8.84
1765363164.96,1019.55,30.97,-52.35,212.44,-7.88,155.50,-1.37,-4.00,-8.85
1765363165.07,1019.56,30.99,-52.36,212.44,-7.88,155.50,-1.35,-4.01,-8.82
1765363165.18,1019.55,30.99,-52.35,212.44,-7.88,155.50,-1.35,-4.02,-8.82
1765363165.29,1019.55,30.98,-52.34,212.44,-7.88,155.50,-1.35,-4.03,-8.80
1765363165.40,1019.55,30.98,-52.34,212.44,-7.88,155.50,-1.36,-4.02,-8.82
1765363165.51,1019.55,30.99,-52.35,212.44,-7.88,155.50,-1.38,-4.03,-8.82
1765363165.62,1019.55,30.99,-52.35,212.44,-7.88,155.50,-1.36,-4.02,-8.84
1765363165.73,1019.55,30.98,-52.34,212.44,-7.88,155.50,-1.37,-4.00,-8.82
1765363165.84,1019.55,30.98,-52.32,212.44,-7.88,155.50,-1.36,-3.99,-8.81
1765363165.95,1019.55,30.98,-52.32,212.44,-7.88,155.50,-1.35,-4.01,-8.86
1765363166.06,1019.55,30.98,-52.31,212.44,-7.88,155.50,-1.36,-4.01,-8.83
1765363166.17,1019.55,30.98,-52.30,212.44,-7.88,155.50,-1.37,-4.00,-8.83
1765363166.28,1019.55,30.99,-52.32,212.44,-7.88,155.50,-1.38,-4.03,-8.83
1765363166.39,1019.55,30.99,-52.32,212.44,-7.88,155.50,-1.39,-4.02,-8.84
1765363166.50,1019.55,30.99,-52.32,212.44,-7.88,155.50,-1.38,-4.04,-8.85
1765363166.62,1019.55,30.99,-52.31,212.44,-7.88,155.50,-1.39,-4.00,-8.83
1765363166.74,1019.55,31.00,-52.32,212.44,-7.88,155.50,-1.36,-4.01,-8.83
1765363166.85,1019.55,31.00,-52.31,212.44,-7.88,155.50,-1.36,-4.02,-8.83
1765363166.96,1019.55,31.00,-52.32,212.44,-7.88,155.50,-1.35,-4.01,-8.81
1765363167.07,1019.55,31.00,-52.31,212.44,-7.88,155.50,-1.36,-4.00,-8.84
1765363167.19,1019.55,31.00,-52.30,212.44,-7.88,155.50,-1.37,-4.01,-8.81
1765363167.30,1019.55,31.00,-52.29,212.44,-7.88,155.50,-1.39,-4.02,-8.82
1765363167.41,1019.54,30.99,-52.28,212.44,-7.88,155.50,-1.34,-4.02,-8.84
1765363167.52,1019.55,30.99,-52.28,212.44,-7.88,155.50,-1.36,-4.04,-8.81
1765363167.63,1019.54,30.99,-52.27,212.44,-7.88,155.50,-1.35,-4.02,-8.84
1765363167.75,1019.54,30.99,-52.26,212.44,-7.88,155.50,-1.39,-4.03,-8.82
1765363167.86,1019.54,30.99,-52.27,212.44,-7.88,155.50,-1.37,-4.01,-8.86
1765363167.97,1019.54,30.99,-52.27,212.44,-7.88,155.50,-1.37,-4.02,-8.84
1765363168.08,1019.54,30.99,-52.26,212.44,-7.88,155.50,-1.35,-3.98,-8.83
1765363168.19,1019.54,31.00,-52.27,212.44,-7.88,155.50,-1.35,-3.98,-8.83
1765363168.30,1019.54,31.00,-52.26,212.44,-7.88,155.50,-1.36,-3.97,-8.84
1765363168.41,1019.54,30.99,-52.25,212.44,-7.88,155.50,-1.35,-4.03,-8.85
1765363168.52,1019.54,30.99,-52.24,212.44,-7.88,155.50,-1.39,-4.03,-8.84
1765363168.63,1019.54,30.99,-52.24,212.44,-7.88,155.50,-1.38,-4.01,-8.84
1765363168.74,1019.54,30.99,-52.23,212.44,-7.88,155.50,-1.35,-4.01,-8.83
1765363168.85,1019.54,30.99,-52.23,212.44,-7.88,155.50,-1.36,-4.00,-8.85
1765363168.96,1019.54,30.99,-52.21,212.44,-7.88,155.50,-1.37,-4.00,-8.84
1765363169.07,1019.53,30.98,-52.19,212.44,-7.88,155.50,-1.36,-4.03,-8.84
1765363169.18,1019.54,30.99,-52.21,212.44,-7.88,155.50,-1.38,-4.01,-8.82
1765363169.29,1019.54,30.99,-52.20,212.44,-7.88,155.50,-1.36,-4.00,-8.83
1765363169.40,1019.53,30.98,-52.19,212.44,-7.88,155.50,-1.36,-4.01,-8.84
1765363169.51,1019.53,30.98,-52.19,212.44,-7.88,155.50,-1.36,-3.98,-8.84
1765363169.62,1019.53,30.99,-52.19,212.44,-7.88,155.50,-1.36,-4.00,-8.83
1765363169.73,1019.53,30.99,-52.20,212.44,-7.88,155.50,-1.36,-3.99,-8.83
1765363169.84,1019.54,30.99,-52.20,212.44,-7.88,155.50,-1.36,-4.03,-8.83
1765363169.95,1019.54,30.99,-52.20,212.44,-7.88,155.50,-1.36,-4.01,-8.84
1765363170.06,1019.54,31.00,-52.21,212.44,-7.88,155.50,-1.36,-4.01,-8.81
1765363170.18,1019.53,31.00,-52.19,212.44,-7.88,155.50,-1.37,-4.02,-8.85
1765363170.29,1019.53,31.00,-52.19,212.44,-7.88,155.50,-1.35,-4.01,-8.84
1765363170.40,1019.53,31.00,-52.19,212.44,-7.88,155.50,-1.37,-3.98,-8.84
1765363170.51,1019.53,31.00,-52.19,212.44,-7.88,155.50,-1.36,-3.98,-8.82
1765363170.62,1019.54,31.00,-52.20,212.44,-7.88,155.50,-1.35,-4.01,-8.84
1765363170.73,1019.54,31.00,-52.20,212.44,-7.88,155.50,-1.35,-4.00,-8.83
1765363170.84,1019.53,31.00,-52.19,212.44,-7.88,155.50,-1.36,-4.02,-8.81
1765363170.95,1019.53,31.00,-52.19,212.44,-7.88,155.50,-1.35,-4.04,-8.83
1765363171.06,1019.54,31.00,-52.20,212.44,-7.88,155.50,-1.36,-4.02,-8.82
1765363171.17,1019.53,31.00,-52.19,212.44,-7.88,155.50,-1.37,-4.01,-8.86
1765363171.28,1019.53,31.00,-52.19,212.44,-7.88,155.50,-1.35,-4.01,-8.80
1765363171.39,1019.54,31.00,-52.20,212.44,-7.88,155.50,-1.38,-4.01,-8.83
1765363171.50,1019.54,31.00,-52.20,212.44,-7.88,155.50,-1.35,-3.99,-8.83
1765363171.61,1019.53,31.00,-52.19,212.44,-7.88,155.50,-1.36,-4.01,-8.84
1765363171.72,1019.53,31.00,-52.19,212.44,-7.88,155.50,-1.37,-4.00,-8.87
1765363171.83,1019.54,31.00,-52.20,212.44,-7.88,155.50,-1.36,-4.02,-8.85
1765363171.94,1019.54,31.00,-52.20,212.44,-7.88,155.50,-1.34,-4.01,-8.84
1765363172.05,1019.54,31.00,-52.22,212.44,-7.88,155.50,-1.37,-4.00,-8.85
1765363172.16,1019.54,31.01,-52.23,212.44,-7.88,155.50,-1.36,-4.02,-8.86
1765363172.28,1019.54,31.01,-52.22,212.44,-7.88,155.50,-1.37,-4.04,-8.85
1765363172.39,1019.54,31.00,-52.21,212.44,-7.88,155.50,-1.38,-4.02,-8.82
1765363172.50,1019.54,31.01,-52.22,212.44,-7.88,155.50,-1.36,-4.03,-8.84
1765363172.61,1019.54,31.01,-52.21,212.44,-7.88,155.50,-1.35,-4.00,-8.86
1765363172.72,1019.54,31.01,-52.22,212.44,-7.88,155.50,-1.36,-4.04,-8.85
1765363172.84,1019.54,31.01,-52.23,212.44,-7.88,155.50,-1.36,-4.01,-8.87
1765363172.95,1019.54,31.01,-52.23,212.44,-7.88,155.50,-1.38,-3.99,-8.80
1765363173.07,1019.54,31.01,-52.23,212.44,-7.88,155.50,-1.39,-3.99,-8.87
1765363173.18,1019.54,31.01,-52.23,212.44,-7.88,155.50,-1.35,-4.00,-8.84
1765363173.29,1019.54,31.01,-52.25,212.44,-7.88,155.50,-1.37,-4.00,-8.82
1765363173.40,1019.54,31.00,-52.25,212.44,-7.88,155.50,-1.36,-4.02,-8.83
1765363173.54,1019.54,31.00,-52.23,212.44,-7.88,155.50,-1.40,-4.02,-8.81
1765363173.67,1019.54,31.00,-52.24,212.44,-7.88,155.50,-1.38,-4.01,-8.84
1765363173.78,1019.54,31.00,-52.24,212.44,-7.88,155.50,-1.36,-4.02,-8.86
1765363173.89,1019.54,31.00,-52.26,212.44,-7.88,155.50,-1.36,-4.01,-8.85
1765363174.00,1019.54,31.00,-52.27,212.44,-7.88,155.50,-1.35,-4.02,-8.83
1765363174.11,1019.55,31.00,-52.28,212.44,-7.88,155.50,-1.36,-4.01,-8.80
1765363174.22,1019.54,31.00,-52.28,212.44,-7.88,155.50,-1.38,-4.02,-8.83
1765363174.33,1019.55,31.00,-52.30,212.44,-7.88,155.50,-1.36,-4.00,-8.87
1765363174.44,1019.55,31.00,-52.29,212.44,-7.88,155.50,-1.37,-4.00,-8.86
1765363174.55,1019.55,31.00,-52.31,212.44,-7.88,155.50,-1.33,-4.03,-8.83
1765363174.66,1019.55,30.99,-52.30,212.44,-7.88,155.50,-1.36,-4.00,-8.86
1765363174.77,1019.55,30.99,-52.33,212.44,-7.88,155.50,-1.37,-4.00,-8.84
1765363174.89,1019.55,30.99,-52.33,212.44,-7.88,155.50,-1.37,-3.99,-8.82
1765363175.00,1019.55,30.99,-52.33,212.44,-7.88,155.50,-1.35,-4.01,-8.82
1765363175.11,1019.55,30.99,-52.34,212.44,-7.88,155.50,-1.33,-4.01,-8.85
1765363175.22,1019.55,31.00,-52.36,212.44,-7.88,155.50,-1.37,-4.01,-8.85
1765363175.33,1019.55,31.00,-52.36,212.44,-7.88,155.50,-1.35,-3.99,-8.84
1765363175.44,1019.56,31.01,-52.37,212.44,-7.88,155.50,-1.36,-4.02,-8.84
1765363175.55,1019.55,31.01,-52.36,212.44,-7.88,155.50,-1.38,-4.03,-8.83
1765363175.66,1019.56,31.01,-52.36,212.44,-7.88,155.50,-1.35,-4.02,-8.83
1765363175.78,1019.56,31.01,-52.37,212.44,-7.88,155.50,-1.36,-4.00,-8.83
1765363175.88,1019.56,31.01,-52.37,212.44,-7.88,155.50,-1.37,-4.00,-8.86
1765363176.00,1019.56,31.01,-52.37,212.44,-7.88,155.50,-1.36,-4.02,-8.81
1765363176.11,1019.56,31.01,-52.38,212.44,-7.88,155.50,-1.36,-4.02,-8.84
1765363176.22,1019.56,31.01,-52.38,212.44,-7.88,155.50,-1.36,-4.02,-8.83
1765363176.33,1019.56,31.01,-52.40,212.44,-7.88,155.50,-1.35,-4.01,-8.82
1765363176.44,1019.56,31.01,-52.39,212.44,-7.88,155.50,-1.35,-4.03,-8.84
1765363176.55,1019.56,31.01,-52.39,212.44,-7.88,155.50,-1.35,-4.00,-8.85
1765363176.66,1019.56,31.01,-52.40,212.44,-7.88,155.50,-1.37,-4.03,-8.84
1765363176.77,1019.56,31.01,-52.41,212.44,-7.88,155.50,-1.36,-4.02,-8.85
1765363176.88,1019.56,31.01,-52.41,212.44,-7.88,155.50,-1.36,-4.02,-8.86
1765363176.99,1019.56,31.01,-52.39,212.44,-7.88,155.50,-1.36,-4.02,-8.86
1765363177.10,1019.56,31.02,-52.40,212.44,-7.88,155.50,-1.36,-4.02,-8.85
1765363177.21,1019.56,31.02,-52.41,212.44,-7.88,155.50,-1.37,-4.02,-8.83
1765363177.32,1019.56,31.02,-52.41,212.44,-7.88,155.50,-1.39,-3.99,-8.83
1765363177.43,1019.56,31.02,-52.41,212.44,-7.88,155.50,-1.35,-4.02,-8.85
1765363177.54,1019.56,31.02,-52.40,212.44,-7.88,155.50,-1.36,-4.01,-8.87
1765363177.65,1019.56,31.02,-52.42,212.44,-7.88,155.50,-1.34,-4.02,-8.83
1765363177.76,1019.56,31.02,-52.42,212.44,-7.88,155.50,-1.37,-3.98,-8.82
1765363177.87,1019.56,31.02,-52.41,212.44,-7.88,155.50,-1.37,-4.01,-8.85
1765363177.99,1019.56,31.02,-52.42,212.44,-7.88,155.50,-1.36,-4.02,-8.85
1765363178.10,1019.56,31.02,-52.42,212.44,-7.88,155.50,-1.37,-4.00,-8.81
1765363178.21,1019.56,31.02,-52.42,212.44,-7.88,155.50,-1.37,-4.01,-8.85
1765363178.32,1019.56,31.02,-52.43,212.44,-7.88,155.50,-1.35,-4.01,-8.85
1765363178.44,1019.56,31.02,-52.41,212.44,-7.88,155.50,-1.36,-4.04,-8.81
1765363178.55,1019.56,31.01,-52.40,212.44,-7.88,155.50,-1.38,-4.00,-8.84
1765363178.66,1019.56,31.01,-52.41,212.44,-7.88,155.50,-1.39,-4.03,-8.82
1765363178.78,1019.56,31.02,-52.42,212.44,-7.88,155.50,-1.37,-4.03,-8.83
1765363178.89,1019.56,31.02,-52.40,212.44,-7.88,155.50,-1.33,-4.01,-8.86
1765363179.00,1019.56,31.01,-52.39,212.44,-7.88,155.50,-1.36,-3.99,-8.83
1765363179.11,1019.56,31.01,-52.40,212.44,-7.88,155.50,-1.35,-3.97,-8.91
1765363179.22,1019.56,31.01,-52.41,212.44,-7.94,155.19,-1.36,-4.06,-8.77
1765363179.34,1019.56,31.01,-52.38,212.44,-7.94,155.19,-1.40,-4.06,-8.77
1765363179.45,1019.56,31.01,-52.40,212.44,-7.94,155.25,-1.38,-4.04,-8.84
1765363179.56,1019.56,31.02,-52.40,212.44,-7.94,155.25,-1.37,-4.06,-8.82
1765363179.67,1019.56,31.02,-52.38,212.44,-7.94,155.25,-1.35,-4.04,-8.84
1765363179.78,1019.56,31.02,-52.39,212.44,-7.94,155.25,-1.38,-4.03,-8.83
1765363179.89,1019.56,31.02,-52.37,212.44,-7.94,155.25,-1.39,-4.04,-8.84
1765363180.00,1019.56,31.02,-52.37,212.44,-7.94,155.25,-1.38,-4.04,-8.85
1765363180.11,1019.56,31.02,-52.37,212.44,-7.94,155.25,-1.37,-4.04,-8.84
1765363180.22,1019.56,31.02,-52.37,212.44,-7.94,155.25,-1.36,-4.04,-8.84
1765363180.33,1019.56,31.02,-52.38,212.44,-7.94,155.25,-1.40,-4.04,-8.81
1765363180.44,1019.56,31.03,-52.38,212.44,-8.00,155.19,-1.38,-4.05,-8.85
1765363180.55,1019.56,31.03,-52.39,212.75,-8.06,154.75,-1.54,-4.06,-8.70
1765363180.66,1019.56,31.03,-52.39,212.25,-8.12,154.44,-1.45,-4.10,-8.86
1765363180.77,1019.56,31.03,-52.39,211.25,-8.12,154.50,-1.46,-4.21,-8.65
1765363180.88,1019.56,31.03,-52.40,210.31,-8.12,154.50,-1.43,-4.04,-8.91
1765363180.99,1019.56,31.03,-52.41,209.69,-8.12,154.44,-1.48,-4.01,-8.84
1765363181.10,1019.56,31.03,-52.39,209.69,-8.12,154.75,-1.40,-4.13,-8.73
1765363181.21,1019.56,31.02,-52.39,209.56,-8.12,155.31,-1.57,-4.17,-8.81
1765363181.32,1019.56,31.02,-52.41,209.62,-8.06,155.69,-1.46,-3.92,-8.83
1765363181.43,1019.56,31.03,-52.41,209.56,-8.06,155.69,-1.43,-4.01,-8.89
1765363181.54,1019.56,31.03,-52.39,209.56,-8.06,155.69,-1.42,-3.96,-8.88
1765363181.66,1019.56,31.02,-52.37,209.25,-8.12,155.38,-1.59,-3.51,-8.91
1765363181.77,1019.56,31.02,-52.37,208.62,-8.19,155.00,-1.65,-3.94,-8.67
1765363181.87,1019.56,31.02,-52.37,208.12,-8.31,154.94,-1.15,-4.65,-8.80
1765363181.99,1019.56,31.02,-52.39,208.56,-8.56,156.19,-1.47,-3.91,-8.70
1765363182.10,1019.56,31.02,-52.39,208.81,-8.50,156.50,-1.60,-3.80,-8.99
1765363182.21,1019.56,31.02,-52.38,208.94,-8.25,156.25,-1.26,-4.01,-8.88
1765363182.32,1019.56,31.02,-52.38,209.00,-8.19,156.12,-1.46,-3.86,-8.70
1765363182.44,1019.56,31.02,-52.37,209.00,-8.19,156.12,-1.44,-3.92,-8.87
1765363182.62,1019.55,31.02,-52.36,209.00,-8.19,156.12,-1.43,-3.95,-8.84
1765363182.74,1019.56,31.03,-52.37,209.00,-8.19,156.12,-1.43,-3.93,-8.85
1765363182.85,1019.55,31.03,-52.35,209.00,-8.19,156.12,-1.44,-3.92,-8.87
1765363182.96,1019.55,31.02,-52.34,209.00,-8.19,156.12,-1.43,-3.93,-8.88
1765363183.07,1019.55,31.02,-52.34,209.00,-8.19,156.12,-1.42,-3.93,-8.87
1765363183.18,1019.55,31.02,-52.33,209.00,-8.19,156.12,-1.44,-3.95,-8.83
1765363183.29,1019.55,31.03,-52.34,209.00,-8.19,156.12,-1.41,-3.93,-8.87
1765363183.40,1019.55,31.03,-52.33,209.00,-8.19,156.12,-1.42,-3.95,-8.86
1765363183.51,1019.55,31.02,-52.31,209.00,-8.19,156.12,-1.42,-3.92,-8.88
1765363183.62,1019.55,31.02,-52.31,209.00,-8.19,156.12,-1.36,-3.93,-8.85
1765363183.74,1019.55,31.02,-52.32,209.00,-8.19,156.12,-1.38,-3.92,-8.88
1765363183.85,1019.55,31.02,-52.30,209.00,-8.19,156.12,-1.39,-3.94,-8.88
1765363183.96,1019.55,31.02,-52.30,209.00,-8.19,156.12,-1.39,-3.92,-8.87
1765363184.07,1019.55,31.02,-52.31,209.00,-8.19,156.12,-1.40,-3.91,-8.86
1765363184.19,1019.55,31.02,-52.31,209.00,-8.19,156.12,-1.42,-3.94,-8.85
1765363184.30,1019.55,31.02,-52.31,209.00,-8.19,156.12,-1.40,-3.92,-8.86
1765363184.42,1019.55,31.02,-52.32,209.06,-8.12,156.06,-0.54,-3.41,-10.14
1765363184.53,1019.55,31.02,-52.32,207.81,-7.81,155.50,-1.08,-3.49,-9.25
1765363184.64,1019.55,31.02,-52.31,206.88,-7.94,155.75,-1.39,-3.94,-8.82
1765363184.76,1019.55,31.02,-52.31,206.62,-8.00,155.81,-1.29,-4.14,-8.96
1765363184.87,1019.55,31.02,-52.29,205.25,-8.00,155.56,-1.34,-3.85,-9.38
1765363184.98,1019.55,31.02,-52.29,203.69,-7.94,155.50,-1.36,-4.03,-8.87
1765363185.09,1019.55,31.02,-52.29,203.25,-7.94,155.38,-0.35,-4.22,-8.72
1765363185.20,1019.55,31.03,-52.31,200.62,-15.62,156.19,-2.08,-4.09,-8.51
1765363185.31,1019.55,31.03,-52.29,196.81,-7.12,156.75,-2.16,-4.77,-8.23
1765363185.42,1019.55,31.03,-52.29,190.00,-7.12,157.06,-1.32,-3.50,-8.91
1765363185.53,1019.54,31.03,-52.27,184.62,-5.44,155.25,-1.21,-3.02,-9.42
1765363185.64,1019.54,31.03,-52.27,180.25,-4.50,155.19,-0.04,-3.79,-8.84
1765363185.75,1019.55,31.03,-52.29,176.12,-3.50,154.50,-0.12,-3.99,-8.85
1765363185.86,1019.54,31.03,-52.27,168.88,-3.06,155.00,0.19,-4.04,-9.19
1765363185.97,1019.55,31.03,-52.28,162.00,-2.94,155.69,0.50,-3.61,-10.36
1765363186.08,1019.55,31.03,-52.30,158.31,-3.56,156.19,-2.87,-4.05,-9.90
1765363186.19,1019.55,31.03,-52.29,158.75,-3.06,154.75,-0.70,-4.36,-8.64
1765363186.30,1019.55,31.03,-52.29,158.69,-2.88,154.44,-0.67,-4.15,-8.84
1765363186.41,1019.55,31.03,-52.29,158.75,-2.94,154.44,-0.66,-4.19,-8.82
1765363186.52,1019.55,31.03,-52.29,158.75,-3.00,154.50,-0.66,-4.19,-8.82
1765363186.63,1019.55,31.03,-52.29,158.75,-3.00,154.50,-0.64,-4.22,-8.87
1765363186.74,1019.55,31.03,-52.28,157.69,-2.94,154.31,-0.52,-4.83,-8.75
1765363186.85,1019.55,31.03,-52.28,158.31,-2.69,153.69,-0.70,-3.81,-9.23
1765363186.96,1019.54,31.03,-52.26,158.50,-2.56,153.69,-0.65,-4.43,-8.99
1765363187.07,1019.54,31.03,-52.27,159.00,-2.69,153.56,-0.35,-4.37,-8.88
1765363187.18,1019.55,31.03,-52.29,159.12,-2.56,153.44,-0.47,-4.24,-8.88
1765363187.29,1019.55,31.03,-52.29,160.31,-2.69,154.50,-0.38,-4.34,-8.83
1765363187.40,1019.54,31.03,-52.26,160.38,-2.44,152.94,-0.66,-4.51,-8.67
1765363187.51,1019.54,31.04,-52.27,160.25,-2.25,151.88,0.08,-4.75,-8.59
1765363187.62,1019.55,31.04,-52.28,160.38,-2.38,152.69,-0.17,-4.83,-8.84
1765363187.73,1019.55,31.04,-52.28,160.56,-2.56,152.81,-0.63,-4.33,-8.49
1765363187.85,1019.55,31.04,-52.29,160.25,-2.31,152.19,-0.87,-4.50,-8.66
1765363187.96,1019.55,31.04,-52.29,158.44,-2.25,152.06,-0.33,-4.52,-8.69
1765363188.07,1019.55,31.04,-52.29,157.88,-2.25,151.94,-0.82,-4.33,-8.80
1765363188.17,1019.55,31.04,-52.30,156.38,-2.38,152.38,-0.39,-4.48,-8.72
1765363188.29,1019.55,31.04,-52.30,156.44,-2.25,152.00,-0.22,-4.56,-8.86
1765363188.40,1019.55,31.04,-52.29,156.31,-2.38,152.19,-0.59,-4.46,-8.77
1765363188.51,1019.55,31.03,-52.28,156.31,-2.38,152.50,-0.59,-4.66,-8.54
1765363188.62,1019.55,31.03,-52.29,156.25,-2.25,151.81,-0.36,-4.65,-8.61
1765363188.73,1019.55,31.05,-52.31,156.00,-2.25,151.50,-0.60,-4.59,-8.66
1765363188.84,1019.55,31.05,-52.30,155.81,-2.25,151.06,-0.44,-4.67,-8.59
