Time,Phase,Pressure,Altitude,Heading,Roll,Pitch,AccelX,AccelY,AccelZ,GyroX,GyroY,GyroZ,MagX,MagY,MagZ
2025-12-15 21:05:57.425,0,1015.57,-19.32,318.75,-1.44,1.31,-0.37,-0.11,9.57,-0.06,-0.12,0.06,-9.56,-17.56,-50.50
2025-12-15 21:05:57.542,0,1015.57,-19.32,318.25,-0.94,1.62,-0.30,-0.17,9.46,-0.02,-0.03,0.07,-10.25,-17.25,-48.38
2025-12-15 21:05:57.655,0,1015.57,-19.34,317.81,-1.12,1.62,-0.40,-0.11,9.51,-0.01,0.05,0.08,-10.69,-18.00,-49.06
2025-12-15 21:05:57.768,0,1015.57,-19.33,317.25,-1.50,1.69,-0.44,-0.13,9.39,-0.04,0.02,0.09,-10.25,-17.25,-49.06
2025-12-15 21:05:57.884,0,1015.57,-19.34,316.62,-1.62,1.69,-0.41,-0.14,9.41,0.02,-0.01,0.10,-10.25,-16.88,-49.38
2025-12-15 21:05:57.998,0,1015.58,-19.34,315.94,-1.62,1.44,-0.36,-0.14,9.44,0.04,0.02,0.11,-11.06,-18.00,-50.19
2025-12-15 21:05:58.111,0,1015.58,-19.35,315.19,-2.00,1.19,-0.34,-0.14,9.51,0.06,0.11,0.12,-11.06,-16.19,-48.56
2025-12-15 21:05:58.226,0,1015.58,-19.35,314.38,-2.94,0.69,-0.44,-0.10,9.44,0.06,0.14,0.13,-11.38,-16.19,-49.38
2025-12-15 21:05:58.341,0,1015.57,-19.34,313.50,-3.50,0.50,-0.47,-0.13,9.42,-0.02,0.04,0.15,-11.38,-17.25,-48.88
2025-12-15 21:05:58.454,0,1015.57,-19.33,312.50,-3.50,0.44,-0.41,-0.18,9.41,0.04,-0.03,0.16,-11.75,-16.50,-49.19
2025-12-15 21:05:58.568,0,1015.58,-19.35,311.56,-3.38,0.00,-0.35,-0.09,9.39,0.04,0.02,0.17,-11.38,-16.56,-47.69
2025-12-15 21:05:58.683,0,1015.58,-19.36,310.38,-3.50,0.19,-0.43,-0.12,9.43,-0.09,0.03,0.18,-11.19,-16.56,-47.69
2025-12-15 21:05:58.796,0,1015.58,-19.36,309.19,-3.38,0.69,-0.53,-0.13,9.55,-0.06,-0.08,0.19,-11.88,-15.88,-49.38
2025-12-15 21:05:58.909,0,1015.58,-19.37,308.00,-2.44,0.88,-0.46,-0.13,9.39,-0.04,-0.21,0.20,-13.00,-15.56,-48.19
2025-12-15 21:05:59.021,0,1015.58,-19.37,306.69,-1.06,1.19,-0.29,-0.11,9.61,-0.09,-0.20,0.21,-14.06,-14.38,-48.56
2025-12-15 21:05:59.135,0,1015.58,-19.37,305.25,-0.44,1.69,-0.25,-0.16,9.52,-0.04,-0.03,0.22,-14.88,-13.19,-48.88
2025-12-15 21:05:59.251,0,1015.58,-19.37,303.88,-0.94,1.44,-0.30,-0.14,9.49,0.06,0.13,0.23,-14.88,-13.56,-48.00
2025-12-15 21:05:59.364,0,1015.58,-19.37,302.44,-2.06,1.12,-0.44,-0.09,9.09,-0.04,0.19,0.24,-15.19,-14.00,-48.00
2025-12-15 21:05:59.476,0,1015.58,-19.37,300.81,-3.00,1.69,-0.57,-0.16,9.99,-0.12,0.03,0.25,-14.88,-12.06,-48.38
2025-12-15 21:05:59.591,0,1015.58,-19.38,299.25,-2.44,1.81,-0.43,-0.22,9.30,0.06,-0.16,0.26,-15.19,-11.75,-50.00
2025-12-15 21:05:59.706,0,1015.58,-19.38,297.44,-1.81,1.00,-0.12,-0.08,9.26,0.10,0.03,0.27,-14.75,-11.75,-48.25
2025-12-15 21:05:59.819,0,1015.58,-19.40,295.75,-2.88,0.62,-0.22,-0.08,9.81,-0.01,0.31,0.29,-15.75,-11.69,-48.25
2025-12-15 21:05:59.936,0,1015.58,-19.39,293.81,-5.12,0.62,-0.55,-0.19,10.10,0.04,0.32,0.30,-14.50,-10.88,-48.25
2025-12-15 21:06:00.050,0,1015.58,-19.37,292.00,-6.00,0.00,-0.54,-0.10,9.37,0.09,0.07,0.31,-14.75,-9.56,-47.19
2025-12-15 21:06:00.162,0,1015.58,-19.37,290.12,-5.69,-0.19,-0.44,-0.08,9.61,-0.05,-0.07,0.32,-15.88,-10.50,-48.00
2025-12-15 21:06:00.275,0,1015.58,-19.35,288.06,-5.38,0.38,-0.30,-0.07,9.71,-0.21,-0.01,0.33,-15.88,-8.50,-46.75
2025-12-15 21:06:00.390,0,1015.58,-19.35,285.81,-5.56,1.31,-0.45,-0.18,9.24,-0.10,0.07,0.33,-16.75,-8.06,-48.38
2025-12-15 21:06:00.508,0,1015.57,-19.33,283.75,-5.56,1.25,-0.58,-0.10,8.68,-0.00,-0.14,0.34,-17.00,-7.88,-46.06
2025-12-15 21:06:00.622,0,1015.57,-19.32,281.44,-3.62,1.75,-0.53,-0.05,9.38,-0.22,-0.41,0.34,-19.50,-6.56,-47.69
2025-12-15 21:06:00.738,0,1015.57,-19.30,279.31,-1.06,3.25,-0.14,-0.19,9.44,-0.25,-0.38,0.34,-20.25,-5.88,-46.88
2025-12-15 21:06:00.854,0,1015.57,-19.29,277.00,0.06,4.06,-0.02,-0.26,9.62,0.03,0.01,0.33,-21.69,-3.69,-46.25
2025-12-15 21:06:00.967,0,1015.57,-19.28,275.00,-1.12,2.56,-0.45,-0.17,9.45,0.33,0.24,0.34,-23.00,-2.56,-45.50
2025-12-15 21:06:01.081,0,1015.57,-19.28,272.75,-2.06,0.06,-0.75,-0.08,8.67,0.33,-0.10,0.34,-22.56,-3.50,-46.88
2025-12-15 21:06:01.198,0,1015.57,-19.28,270.69,0.00,-0.75,-0.50,-0.09,9.27,-0.02,-0.58,0.35,-22.56,-3.25,-45.56
2025-12-15 21:06:01.314,0,1015.57,-19.29,268.31,3.25,-0.38,0.26,-0.15,9.86,-0.02,-0.25,0.35,-26.56,-2.06,-45.50
2025-12-15 21:06:01.438,0,1015.57,-19.29,266.00,1.94,-0.88,0.22,-0.20,9.86,0.31,0.73,0.34,-27.38,-2.00,-43.00
2025-12-15 21:06:01.559,0,1015.57,-19.31,263.69,-4.06,-2.19,-0.70,0.19,10.71,-0.23,0.88,0.31,-24.00,-1.38,-45.69
2025-12-15 21:06:01.673,0,1015.57,-19.30,261.31,-7.50,0.00,-1.12,-0.28,9.45,-0.16,0.11,0.35,-20.69,0.69,-47.38
2025-12-15 21:06:01.790,0,1015.57,-19.32,259.06,-6.94,0.38,-0.76,-0.21,9.71,-0.07,0.04,0.42,-21.56,0.75,-44.50
2025-12-15 21:06:01.909,0,1015.57,-19.31,256.38,-8.19,0.00,-0.75,-0.17,9.14,0.05,0.29,0.35,-19.88,1.75,-46.25
2025-12-15 21:06:02.026,0,1015.57,-19.32,254.56,-9.06,-1.19,-0.63,-0.20,9.58,0.23,-0.05,0.22,-21.06,4.19,-46.19
2025-12-15 21:06:02.141,0,1015.57,-19.30,253.38,-8.00,-2.88,-0.47,-0.12,10.32,0.28,-0.24,0.22,-20.88,3.56,-45.88
2025-12-15 21:06:02.257,0,1015.57,-19.30,252.06,-6.38,-4.31,-0.26,-0.05,8.43,0.08,-0.20,0.21,-22.19,3.06,-44.25
2025-12-15 21:06:02.369,0,1015.57,-19.28,250.75,-5.62,-3.69,-0.25,0.00,9.03,-0.35,-0.03,0.21,-23.38,4.56,-45.50
2025-12-15 21:06:02.484,0,1015.57,-19.27,249.25,-5.38,-1.25,-0.51,-0.23,9.50,-0.27,0.00,0.20,-23.00,6.06,-43.75
2025-12-15 21:06:02.598,0,1015.57,-19.31,248.06,-4.44,-0.06,-0.59,-0.11,9.51,-0.10,-0.25,0.19,-24.88,5.56,-42.19
2025-12-15 21:06:02.759,0,1015.57,-19.31,246.31,-0.81,1.81,-0.31,-0.19,9.78,-0.24,-0.47,0.17,-24.88,7.50,-40.19
2025-12-15 21:06:02.871,0,1015.57,-19.32,245.31,1.12,2.62,-0.01,-0.30,9.43,0.04,-0.17,0.16,-27.88,9.38,-37.69
2025-12-15 21:06:02.984,0,1015.57,-19.33,244.38,0.81,1.25,-0.36,-0.08,10.28,0.27,0.19,0.14,-27.56,9.38,-36.25
2025-12-15 21:06:03.099,0,1015.57,-19.33,243.44,-0.06,0.12,-0.67,-0.06,9.32,0.03,0.01,0.14,-28.69,8.69,-37.25
2025-12-15 21:06:03.216,0,1015.58,-19.34,242.62,0.44,0.31,-0.52,-0.20,9.47,-0.03,-0.38,0.13,-28.69,9.00,-35.25
2025-12-15 21:06:03.328,0,1015.58,-19.34,241.75,2.06,0.06,0.00,-0.21,9.34,0.18,-0.26,0.12,-29.75,9.25,-35.38
2025-12-15 21:06:03.442,0,1015.57,-19.33,241.00,1.50,-1.06,0.21,-0.12,9.75,0.24,0.46,0.11,-29.00,9.00,-33.00
2025-12-15 21:06:03.557,0,1015.57,-19.33,240.25,-3.19,-2.44,-0.36,-0.15,10.10,0.30,0.92,0.09,-27.69,8.19,-35.06
2025-12-15 21:06:03.671,0,1015.57,-19.33,239.75,-7.94,-3.62,-0.72,-0.01,9.38,0.13,0.69,0.07,-26.06,7.25,2009.44
2025-12-15 21:06:03.783,0,1015.57,-19.32,239.25,-9.88,-3.38,-0.90,-0.08,8.98,-0.11,0.04,0.06,-25.25,6.38,-37.38
2025-12-15 21:06:03.898,0,1015.57,-19.32,238.81,-8.19,-2.12,-0.44,-0.14,8.97,-0.18,-0.34,0.06,-25.19,7.06,-36.56
2025-12-15 21:06:04.013,0,1015.57,-19.29,238.50,-5.44,-0.62,-0.11,-0.15,8.84,-0.18,-0.17,0.05,-23.56,5.19,-34.75
2025-12-15 21:06:04.126,0,1015.57,-19.29,238.19,-4.88,0.06,-0.32,-0.21,10.07,0.03,0.11,0.04,-24.69,5.56,-34.38
2025-12-15 21:06:04.239,0,1015.57,-19.30,238.00,-5.44,-0.62,-0.58,-0.10,9.04,0.16,0.02,0.04,-23.50,5.19,-35.38
2025-12-15 21:06:04.354,0,1015.57,-19.30,237.75,-4.44,-0.88,-0.57,-0.02,9.22,-0.07,-0.30,0.05,-23.06,5.00,-35.19
2025-12-15 21:06:04.469,0,1015.57,-19.30,237.38,-1.94,0.31,-0.30,-0.10,9.77,-0.29,-0.45,0.05,-25.00,3.75,-33.69
2025-12-15 21:06:04.583,0,1015.57,-19.30,236.94,0.12,1.69,0.00,-0.25,10.34,-0.08,-0.13,0.06,-25.25,6.00,-34.06
2025-12-15 21:06:04.698,0,1015.57,-19.27,236.56,-0.69,1.19,-0.10,-0.01,9.47,0.08,0.39,0.07,-25.19,6.00,-33.38
2025-12-15 21:06:04.813,0,1015.57,-19.28,236.00,-4.06,1.56,-0.61,0.06,9.81,-0.26,0.53,0.10,-24.50,5.00,-34.88
2025-12-15 21:06:04.925,0,1015.57,-19.27,235.19,-5.50,4.19,-1.17,-0.10,10.91,-0.55,-0.11,0.12,-26.69,8.19,-33.06
2025-12-15 21:06:05.037,0,1015.57,-19.26,234.12,-2.50,7.38,-0.48,-0.32,8.64,-0.39,-0.75,0.13,-27.25,8.75,-27.25
2025-12-15 21:06:05.152,0,1015.56,-19.25,232.94,1.62,8.31,0.24,-0.16,10.10,-0.03,-0.44,0.14,-26.50,7.25,-22.00
2025-12-15 21:06:05.269,0,1015.56,-19.23,232.00,1.25,8.56,0.19,-0.07,9.07,-0.05,0.43,0.16,-24.19,5.75,-19.38
2025-12-15 21:06:05.382,0,1015.56,-19.23,231.31,-3.00,8.81,-0.60,-0.17,9.76,0.01,0.77,0.18,-20.88,6.69,-22.06
2025-12-15 21:06:05.495,0,1015.56,-19.22,230.38,-6.38,7.88,-1.16,-0.01,10.05,0.02,0.08,0.19,-19.75,7.50,-26.06
2025-12-15 21:06:05.610,0,1015.56,-19.23,228.94,-4.44,8.12,-0.49,-0.22,8.09,-0.02,-0.61,0.21,-19.25,9.06,-27.19
2025-12-15 21:06:05.727,0,1015.56,-19.20,227.25,-0.75,7.75,0.05,-0.17,9.69,0.09,-0.47,0.22,-18.69,11.00,-29.06
2025-12-15 21:06:05.842,0,1015.56,-19.18,225.50,-0.25,6.94,-0.05,-0.12,8.95,0.02,0.22,0.23,-18.19,12.56,-28.69
2025-12-15 21:06:05.982,0,1015.56,-19.17,224.19,-2.56,5.44,-0.55,-0.27,9.66,0.18,0.34,0.23,-17.06,15.75,-29.75
2025-12-15 21:06:06.094,0,1015.56,-19.18,222.69,-3.88,3.25,-0.70,-0.07,9.46,0.26,-0.03,0.24,-16.50,15.06,-29.56
2025-12-15 21:06:06.209,0,1015.56,-19.19,221.19,-2.50,1.81,-0.53,-0.16,9.46,0.18,-0.38,0.25,-17.00,15.56,-30.88
2025-12-15 21:06:06.324,0,1015.60,-19.52,219.62,0.00,0.31,-0.22,-0.13,9.73,0.31,-0.40,0.26,-17.06,16.56,-29.56
2025-12-15 21:06:06.437,0,1015.60,-19.52,217.81,1.56,-0.94,0.02,-0.04,9.45,0.02,-0.03,0.27,-18.25,16.38,-29.50
2025-12-15 21:06:06.554,0,1015.64,-19.87,216.19,0.25,-0.88,-0.31,-0.22,8.88,0.09,0.40,0.27,-17.25,16.25,-30.00
2025-12-15 21:06:06.670,0,1015.64,-19.87,214.38,-2.25,-1.62,-0.67,-0.04,10.03,0.16,0.24,0.27,-16.88,16.69,-28.19
2025-12-15 21:06:06.785,0,1015.60,-19.58,212.62,-2.31,-0.31,-0.56,0.05,10.18,-0.66,-0.17,0.28,-16.19,17.75,-29.50
2025-12-15 21:06:06.899,0,1015.60,-19.51,210.69,-1.00,2.44,-0.35,-0.27,9.16,-0.14,-0.20,0.28,-14.38,18.75,-28.06
2025-12-15 21:06:07.015,0,1015.60,-19.51,208.94,-0.12,3.19,-0.36,-0.10,10.36,-0.12,-0.12,0.29,-14.38,19.69,-27.56
2025-12-15 21:06:07.130,0,1015.59,-19.46,206.94,0.12,4.06,-0.35,-0.16,9.42,-0.18,-0.05,0.30,-12.88,19.75,-25.00
2025-12-15 21:06:07.248,0,1015.59,-19.46,204.94,-0.31,3.81,-0.22,-0.29,10.09,0.17,0.10,0.30,-12.06,21.69,-24.75
2025-12-15 21:06:07.366,0,1015.58,-19.40,203.19,-1.81,2.00,-0.30,-0.11,9.44,0.29,0.35,0.30,-11.75,21.00,-26.50
2025-12-15 21:06:07.484,0,1015.58,-19.40,201.25,-4.31,0.44,-0.49,-0.08,9.43,0.11,0.37,0.29,-9.88,20.69,-27.75
2025-12-15 21:06:07.599,0,1015.58,-19.38,199.38,-6.00,-0.19,-0.57,-0.15,8.11,0.07,0.14,0.29,-8.00,19.88,-28.88
2025-12-15 21:06:07.717,0,1015.58,-19.37,197.56,-5.62,-0.56,-0.59,-0.11,9.19,-0.04,-0.23,0.29,-7.69,20.19,-28.38
2025-12-15 21:06:07.834,0,1015.58,-19.37,195.69,-3.31,-0.44,-0.41,-0.21,9.42,0.04,-0.38,0.29,-7.56,21.25,-28.50
2025-12-15 21:06:07.946,0,1015.58,-19.40,193.94,-1.38,-1.25,-0.25,-0.13,9.04,0.14,-0.22,0.29,-7.69,21.69,-28.38
2025-12-15 21:06:08.063,0,1015.58,-19.40,192.06,-0.50,-1.62,-0.42,-0.15,9.29,0.06,-0.11,0.28,-7.38,21.38,-28.00
2025-12-15 21:06:08.178,0,1015.58,-19.41,190.44,0.00,-2.12,-0.52,-0.29,9.60,0.38,-0.25,0.28,-7.06,22.50,-26.56
2025-12-15 21:06:08.291,0,1015.58,-19.41,188.75,1.75,-4.56,-0.37,0.00,10.04,0.37,-0.34,0.28,-7.88,-2026.25,-26.50
2025-12-15 21:06:08.404,0,1015.58,-19.41,186.88,3.50,-5.56,-0.08,-0.06,8.82,0.05,-0.13,0.29,-6.06,21.25,-28.88
2025-12-15 21:06:08.519,0,1015.58,-19.41,185.12,2.31,-4.00,-0.04,-0.13,8.93,-0.04,0.27,0.28,-6.56,21.75,-28.56
2025-12-15 21:06:08.634,0,1015.59,-19.44,183.12,-0.75,-2.81,-0.20,-0.09,8.80,0.01,0.55,0.28,-6.25,22.25,-27.88
2025-12-15 21:06:08.748,0,1015.59,-19.47,181.38,-4.50,-2.00,-0.55,0.12,11.93,-0.38,0.62,0.28,-4.88,21.75,-29.56
2025-12-15 21:06:08.864,0,1015.59,-19.48,179.19,-6.94,2.31,-0.89,-0.16,11.51,-0.84,0.05,0.30,-1.56,23.19,-28.38
2025-12-15 21:06:08.979,0,1015.59,-19.45,177.12,-5.75,6.88,-0.53,-0.30,8.61,-0.75,-0.41,0.27,-1.69,25.38,-25.56
2025-12-15 21:06:09.092,0,1015.59,-19.45,175.25,-3.06,8.19,0.08,-0.49,8.84,0.19,-0.28,0.25,-0.88,28.19,-22.75
2025-12-15 21:06:09.204,0,1015.59,-19.42,173.75,-3.00,4.75,0.02,0.00,10.22,0.30,0.36,0.22,-0.50,27.50,-24.75
2025-12-15 21:06:09.319,0,1015.59,-19.43,172.56,-6.12,3.75,-0.68,-0.05,11.58,0.09,0.47,0.21,-1.38,27.06,-25.56
2025-12-15 21:06:09.436,0,1015.58,-19.39,171.25,-7.38,3.06,-0.66,-0.17,8.79,0.06,-0.09,0.21,0.06,27.00,-25.06
2025-12-15 21:06:09.549,0,1015.58,-19.39,170.00,-5.75,2.25,-0.32,-0.07,7.90,0.07,-0.34,0.20,-1.00,27.38,-27.06
2025-12-15 21:06:09.664,0,1015.57,-19.32,168.75,-3.94,2.25,0.11,-0.11,9.78,-0.11,-0.02,0.20,0.06,27.88,-25.69
2025-12-15 21:06:09.779,0,1015.57,-19.32,167.44,-5.38,2.56,-0.11,-0.19,7.97,-0.05,0.47,0.19,0.00,26.75,-25.69
2025-12-15 21:06:09.892,0,1015.57,-19.30,166.38,-7.56,1.94,-0.64,-0.16,8.40,0.11,0.46,0.19,-0.69,27.75,-27.25
2025-12-15 21:06:10.007,0,1015.57,-19.32,165.06,-7.81,1.12,-1.12,-0.05,10.05,-0.00,-0.38,0.25,1.06,27.25,-27.00
2025-12-15 21:06:10.121,0,1015.57,-19.33,163.44,-3.25,1.00,-0.36,-0.17,10.29,0.11,-0.94,0.28,-1.19,27.19,-27.06
2025-12-15 21:06:10.237,0,1015.58,-19.36,161.25,0.81,-0.06,0.47,-0.03,9.70,0.22,-0.21,0.39,-2.25,26.75,-26.69
2025-12-15 21:06:10.349,0,1015.58,-19.36,158.62,-0.75,-0.44,0.08,0.00,9.98,-0.11,0.64,0.39,-3.38,27.00,-28.69
2025-12-15 21:06:10.464,0,1015.58,-19.38,156.19,-5.62,0.31,-0.59,-0.20,8.75,-0.10,0.76,0.40,-0.75,27.25,-28.88
2025-12-15 21:06:10.579,0,1015.58,-19.38,153.56,-8.62,0.00,-1.21,-0.11,9.73,0.07,0.05,0.40,2.06,27.88,-28.69
2025-12-15 21:06:10.694,0,1015.58,-19.36,151.12,-5.88,-0.25,-0.55,-0.14,9.78,0.00,-0.75,0.40,2.69,27.69,-29.06
2025-12-15 21:06:10.806,0,1015.58,-19.36,148.75,-1.31,-0.50,0.13,-0.23,9.18,0.10,-0.57,0.39,0.75,28.56,-30.75
2025-12-15 21:06:10.921,0,1015.58,-19.38,146.19,0.50,-2.00,0.04,-0.18,10.36,0.41,0.05,0.38,1.50,27.75,-30.00
2025-12-15 21:06:11.036,0,1015.58,-19.40,143.88,-0.56,-4.19,-0.66,0.03,10.91,0.20,0.21,0.37,3.56,27.75,-32.75
2025-12-15 21:06:11.148,0,1015.58,-19.39,141.62,-0.19,-4.31,-0.71,-0.09,8.43,-0.03,-0.39,0.37,4.56,27.19,-33.50
2025-12-15 21:06:11.261,0,1015.58,-19.35,139.38,3.25,-3.12,-0.03,-0.11,9.88,-0.15,-0.59,0.35,4.88,28.19,-32.88
2025-12-15 21:06:11.382,0,1015.58,-19.36,137.19,4.50,-2.31,0.61,-0.13,8.89,-0.06,0.35,0.33,5.19,29.50,-32.69
2025-12-15 21:06:11.495,0,1015.58,-19.36,135.12,-0.81,-1.69,-0.03,-0.05,8.70,-0.14,1.23,0.31,8.75,28.88,-33.19
2025-12-15 21:06:11.607,0,1015.58,-19.36,133.06,-8.19,-0.62,-1.06,-0.15,9.32,-0.24,0.93,0.32,15.25,30.50,-32.00
2025-12-15 21:06:11.724,0,1015.58,-19.40,130.75,-10.44,0.62,-1.26,-0.10,9.51,-0.29,-0.18,0.32,19.06,30.19,-31.25
2025-12-15 21:06:11.840,0,1015.58,-19.40,128.62,-6.38,2.62,-0.45,-0.16,11.00,-0.40,-0.94,0.29,21.38,32.25,-31.88
2025-12-15 21:06:11.952,0,1015.59,-19.45,126.75,-1.88,4.06,0.32,-0.24,8.52,-0.08,-0.39,0.26,20.50,31.25,-30.88
2025-12-15 21:06:12.069,0,1015.59,-19.45,125.06,-1.69,3.81,0.09,-0.10,8.93,0.00,0.40,0.25,21.88,32.56,-30.69
2025-12-15 21:06:12.184,0,1015.59,-19.44,123.50,-5.56,3.81,-0.53,-0.30,10.20,0.10,0.62,0.24,24.69,33.19,-29.06
2025-12-15 21:06:12.298,0,1015.59,-19.47,122.25,-8.62,2.06,-0.64,-0.10,8.54,0.27,0.33,0.22,26.56,32.69,-26.75
2025-12-15 21:06:12.412,0,1015.59,-19.47,120.94,-9.25,1.25,-0.57,-0.20,9.45,-0.02,-0.07,0.22,28.38,32.06,-26.38
2025-12-15 21:06:12.528,0,1015.59,-19.48,119.62,-6.94,0.38,-0.50,-0.22,9.89,0.20,-0.27,0.21,28.69,31.00,-26.00
2025-12-15 21:06:12.645,0,1015.59,-19.48,118.38,-4.75,-1.88,-0.49,-0.06,10.93,0.41,-0.35,0.20,27.69,30.06,-29.00
2025-12-15 21:06:12.761,0,1015.59,-19.48,117.25,-2.44,-3.69,-0.33,-0.06,8.71,0.22,-0.36,0.20,28.25,28.25,-30.19
2025-12-15 21:06:12.877,0,1015.59,-19.48,116.00,-0.38,-3.94,-0.11,-0.14,8.70,-0.11,-0.20,0.19,26.50,26.75,-32.06
2025-12-15 21:06:12.996,0,1015.59,-19.46,114.94,-0.31,-3.81,-0.05,-0.22,10.07,0.10,0.24,0.16,26.06,25.00,-32.56
2025-12-15 21:06:13.110,0,1015.59,-19.45,113.88,-2.62,-4.38,-0.53,0.00,8.74,0.00,0.35,0.14,29.50,23.56,-31.00
2025-12-15 21:06:13.227,0,1015.59,-19.45,112.88,-3.69,-2.50,-0.74,-0.11,8.12,-0.45,-0.08,0.13,30.06,23.56,-29.69
2025-12-15 21:06:13.347,0,1015.59,-19.46,112.06,-1.44,0.06,-0.50,-0.15,9.21,-0.36,-0.51,0.10,30.19,24.50,-29.69
2025-12-15 21:06:13.462,0,1015.59,-19.46,111.44,1.38,2.12,0.01,-0.04,10.20,-0.37,-0.30,0.07,28.38,25.25,-31.88
2025-12-15 21:06:13.577,0,1015.59,-19.49,111.12,1.56,5.50,-0.01,-0.11,10.77,-0.65,0.27,0.06,26.56,27.50,-30.69
2025-12-15 21:06:13.691,0,1015.59,-19.49,111.00,-1.06,9.00,-0.52,-0.32,8.81,-0.41,0.42,0.05,28.06,27.75,-27.38
2025-12-15 21:06:13.804,0,1015.59,-19.48,110.81,-3.06,8.50,-0.62,-0.29,8.69,0.02,0.10,0.03,28.06,28.19,-26.50
2025-12-15 21:06:13.917,0,1015.59,-19.47,110.69,-2.69,6.94,-0.35,-0.39,10.16,0.57,-0.14,0.02,28.06,28.88,-25.38
2025-12-15 21:06:14.033,0,1015.59,-19.47,110.75,-2.50,1.50,0.03,-0.10,9.20,0.88,0.14,-0.00,28.06,27.00,-27.56
2025-12-15 21:06:14.149,0,1015.59,-19.48,110.94,-4.75,-2.06,-0.30,0.02,10.55,0.25,0.59,-0.04,27.69,24.00,-29.19
2025-12-15 21:06:14.262,0,1015.59,-19.47,314.00,-8.25,-3.62,-0.84,-0.10,9.05,0.26,0.34,-0.05,28.38,23.00,-27.56
2025-12-15 21:06:14.377,0,1015.59,-19.47,314.62,-7.56,-4.69,-0.96,-0.28,9.81,0.37,-0.58,-0.07,30.19,22.88,-27.25
2025-12-15 21:06:14.492,0,1015.59,-19.46,315.50,-2.06,-6.56,-0.17,-0.02,9.53,0.31,-0.91,-0.07,28.38,22.88,-29.50
2025-12-15 21:06:14.606,0,1015.59,-19.45,316.31,1.62,-6.12,0.46,-0.01,9.47,-0.27,-0.25,-0.08,24.00,21.75,-32.88
2025-12-15 21:06:14.718,0,1015.59,-19.46,316.88,0.19,-4.38,-0.03,-0.13,8.14,-0.05,0.62,-0.11,22.06,21.75,-31.25
2025-12-15 21:06:14.833,0,1015.59,-19.44,317.44,-4.25,-3.00,-0.71,-0.06,8.63,-0.23,0.59,-0.11,23.56,22.50,-30.06
2025-12-15 21:06:14.948,0,1015.59,-19.43,317.94,-5.69,-0.19,-0.98,-0.06,9.35,-0.63,-0.13,-0.12,25.00,23.88,-27.75
2025-12-15 21:06:15.060,0,1015.59,-19.47,318.56,-3.00,4.12,-0.33,-0.18,9.56,-0.73,-0.55,-0.16,24.25,25.06,-27.75
2025-12-15 21:06:15.173,0,1015.59,-19.48,319.50,-0.75,8.69,0.37,-0.13,10.96,-0.64,0.04,-0.20,23.19,26.88,-26.88
2025-12-15 21:06:15.290,0,1015.60,-19.51,320.81,-3.25,12.44,-0.44,-0.27,7.13,-0.52,0.64,-0.20,22.38,29.06,-25.88
2025-12-15 21:06:15.405,0,1015.59,-19.49,322.06,-5.69,14.25,-1.41,-0.61,12.04,0.19,0.05,-0.20,22.38,31.50,-21.06
2025-12-15 21:06:15.519,0,1015.59,-19.50,323.12,-2.38,9.50,-0.49,-0.25,8.10,0.95,-0.85,-0.18,22.00,31.50,-20.88
2025-12-15 21:06:15.634,0,1015.59,-19.50,324.12,2.25,3.75,0.67,-0.06,10.24,0.82,-0.31,-0.15,19.75,30.75,-26.50
2025-12-15 21:06:15.749,0,1015.59,-19.50,325.44,0.00,-0.44,-0.03,0.00,10.31,0.53,0.80,-0.18,16.50,29.38,-29.38
2025-12-15 21:06:15.862,0,1015.59,-19.50,326.81,-4.56,-2.00,-1.35,-0.14,11.30,0.08,0.36,-0.21,17.56,28.38,-30.88
2025-12-15 21:06:15.976,0,1015.59,-19.50,329.31,-3.00,-1.06,-0.96,-0.26,9.58,-0.27,-0.79,-0.23,17.25,28.50,-31.38
2025-12-15 21:06:16.091,0,1015.59,-19.49,331.38,2.75,-1.44,0.20,-0.37,8.37,0.40,-0.84,-0.23,15.75,27.75,-34.19
2025-12-15 21:06:16.207,0,1015.59,-19.49,332.88,4.94,-4.38,0.79,-0.05,9.09,0.43,0.33,-0.24,11.50,26.06,-36.25
2025-12-15 21:06:16.319,0,1015.59,-19.45,334.19,-1.00,-5.25,-0.17,0.02,8.09,-0.14,1.27,-0.25,12.56,25.75,-35.75
2025-12-15 21:06:16.434,0,1015.59,-19.47,335.31,-8.31,-3.19,-1.30,-0.13,8.62,-0.32,0.80,-0.21,15.56,26.19,-34.50
2025-12-15 21:06:16.549,0,1015.59,-19.48,336.56,-9.25,8.00,-1.29,-0.11,9.44,-0.62,-0.54,-0.23,19.38,27.69,-32.38
2025-12-15 21:06:16.663,0,1015.60,-19.51,338.00,-3.25,3.81,-0.17,-0.19,10.95,-0.51,-1.11,-0.28,15.19,30.56,-33.25
2025-12-15 21:06:16.778,0,1015.60,-19.51,339.81,2.00,6.88,0.49,-0.12,8.86,-0.43,-0.35,-0.32,12.19,33.06,-33.56
2025-12-15 21:06:16.893,0,1015.59,-19.50,341.69,1.00,8.62,0.09,-0.45,11.26,0.08,0.72,-0.33,10.06,33.56,-33.38
2025-12-15 21:06:17.009,0,1015.59,-19.50,343.44,-3.44,6.00,-0.75,-0.06,8.53,0.53,0.65,-0.37,12.25,32.00,-33.56
2025-12-15 21:06:17.121,0,1015.60,-19.51,346.19,-5.31,4.00,-0.90,-0.15,10.21,0.23,-0.06,-0.38,12.56,31.06,-34.00
2025-12-15 21:06:17.237,0,1015.60,-19.52,348.44,-3.25,2.38,-0.29,-0.14,9.59,0.22,-0.43,-0.38,10.69,-2017.31,-34.50
2025-12-15 21:06:17.353,0,1015.60,-19.51,350.31,-1.12,1.12,-0.01,-0.07,10.14,0.16,-0.09,-0.39,8.69,29.50,-36.25
2025-12-15 21:06:17.465,0,1015.60,-19.51,351.56,-1.81,0.38,-0.50,-0.15,9.75,0.15,0.20,-0.39,7.19,28.50,2011.31
2025-12-15 21:06:17.578,0,1015.59,-19.50,353.31,-2.12,-0.12,-0.69,-0.13,8.58,0.03,-0.19,-0.41,7.75,28.00,-36.00
2025-12-15 21:06:17.693,0,1015.59,-19.48,355.38,0.19,-0.44,-0.20,-0.24,9.63,0.18,-0.43,-0.41,5.88,27.06,-34.69
2025-12-15 21:06:17.808,0,1015.59,-19.47,356.94,1.44,-1.94,0.14,0.00,8.61,0.13,0.08,-0.42,4.38,25.88,-36.75
2025-12-15 21:06:17.921,0,1015.59,-19.46,358.06,-0.50,-1.00,-0.39,-0.09,8.80,-0.41,0.50,-0.42,3.88,26.56,-35.88
2025-12-15 21:06:18.035,0,1015.59,-19.46,0.75,-3.19,1.38,-1.02,-0.11,9.38,-0.33,0.15,-0.41,6.00,26.69,-35.75
2025-12-15 21:06:18.152,0,1015.59,-19.49,3.44,-1.06,3.69,-0.81,-0.15,10.40,-0.33,-0.76,-0.43,5.56,27.38,-34.25
2025-12-15 21:06:18.266,0,1015.59,-19.50,5.94,4.69,5.81,0.05,-0.18,9.46,-0.35,-0.87,-0.45,2.88,27.56,-33.25
2025-12-15 21:06:18.380,0,1015.59,-19.50,8.69,8.12,7.19,0.56,-0.21,9.34,-0.20,-0.07,-0.47,0.06,28.50,-30.75
2025-12-15 21:06:18.498,0,1015.60,-19.51,12.06,5.38,6.75,0.02,-0.37,10.17,0.38,1.04,-0.50,0.25,27.25,-27.50
2025-12-15 21:06:18.616,0,1015.59,-19.48,15.75,-1.25,3.19,-0.83,-0.02,8.39,0.48,0.91,-0.54,2.25,27.38,-23.75
2025-12-15 21:06:18.732,0,1015.59,-19.49,19.19,-4.00,2.25,-1.00,-0.27,10.81,0.09,-0.00,-0.55,2.06,24.25,-24.25
2025-12-15 21:06:18.850,0,1015.59,-19.49,22.88,-2.25,0.44,-0.13,-0.09,10.00,0.32,-0.33,-0.54,0.06,24.50,-21.56
2025-12-15 21:06:18.968,0,1015.59,-19.49,26.50,-1.31,-0.88,0.07,0.00,10.88,0.14,0.18,-0.54,-4.19,23.25,-24.06
2025-12-15 21:06:19.086,0,1015.59,-19.49,30.06,-3.88,-1.44,-0.56,-0.22,7.89,0.15,0.41,-0.54,-5.25,21.56,-23.69
2025-12-15 21:06:19.205,0,1015.59,-19.49,32.31,-4.81,-2.25,-0.84,-0.09,8.67,0.12,-0.20,-0.55,-6.00,21.88,-24.50
2025-12-15 21:06:19.318,0,1015.59,-19.49,34.12,-2.44,-2.19,-0.08,-0.09,8.84,-0.07,-0.43,-0.54,-9.19,21.06,-26.56
2025-12-15 21:06:19.431,0,1015.59,-19.46,37.12,-1.50,-1.19,0.13,-0.17,9.41,-0.13,0.17,-0.54,-13.69,19.69,-25.19
2025-12-15 21:06:19.546,0,1015.59,-19.46,40.25,-3.88,-0.62,-0.52,-0.14,9.20,-0.02,0.40,-0.53,-13.38,20.25,-26.69
2025-12-15 21:06:19.661,0,1015.59,-19.47,43.38,-4.62,0.25,-1.09,-0.12,8.55,-0.21,-0.22,-0.52,-14.19,17.75,-26.56
2025-12-15 21:06:19.775,0,1015.59,-19.49,46.31,0.00,1.62,-0.95,-0.28,9.72,-0.08,-1.23,-0.52,-16.75,19.06,-26.56
2025-12-15 21:06:19.887,0,1015.59,-19.48,49.38,9.31,0.62,0.18,-0.20,10.35,0.29,-1.36,-0.50,-19.38,18.00,-24.00
2025-12-15 21:06:20.002,0,1015.59,-19.47,51.94,14.69,-1.25,0.73,0.05,9.25,0.02,-0.38,-0.48,-22.19,16.75,-24.00
2025-12-15 21:06:20.117,0,1015.59,-19.47,54.50,12.56,-0.44,0.47,-1.32,10.63,-0.40,1.00,-0.47,-24.56,14.50,-22.75
2025-12-15 21:06:20.230,0,1015.59,-19.47,57.25,4.31,1.50,-0.55,-0.16,8.35,-0.39,1.31,-0.43,-22.75,14.50,-24.50
2025-12-15 21:06:20.343,0,1015.59,-19.47,59.06,-1.50,3.50,-1.22,-0.14,9.69,-0.33,0.48,-0.39,-18.69,15.88,-26.56
2025-12-15 21:06:20.461,0,1015.59,-19.46,60.62,-1.62,5.38,-0.67,-0.24,9.88,-0.19,-0.33,-0.38,-16.50,16.19,-26.69
2025-12-15 21:06:20.573,0,1015.59,-19.47,61.94,1.00,5.31,-0.02,-0.23,10.27,0.20,-0.34,-0.37,-20.38,15.38,-24.00
2025-12-15 21:06:20.685,0,1015.59,-19.50,63.25,1.06,3.56,0.12,-0.18,10.30,0.39,0.39,-0.37,-18.88,15.00,-24.19
2025-12-15 21:06:20.800,0,1015.59,-19.46,65.19,-2.06,0.62,-0.59,-0.02,8.60,0.40,0.46,-0.38,-20.00,13.06,-25.75
2025-12-15 21:06:20.915,0,1015.59,-19.46,67.31,-3.50,0.25,-0.66,0.03,9.04,-0.23,0.05,-0.37,-20.25,11.25,-25.75
2025-12-15 21:06:21.027,0,1015.59,-19.44,69.25,-2.81,1.56,-0.38,-0.21,8.97,-0.04,-0.19,-0.36,-21.38,10.19,-26.56
2025-12-15 21:06:21.141,0,1015.59,-19.44,71.38,-1.75,1.38,-0.22,-0.22,8.74,0.14,-0.08,-0.34,-21.25,9.88,-27.00
2025-12-15 21:06:21.255,0,1015.59,-19.45,73.44,-1.62,0.25,-0.52,-0.10,9.45,0.20,-0.02,-0.33,-23.56,8.06,-27.00
2025-12-15 21:06:21.371,0,1015.59,-19.44,75.44,-0.69,-0.62,-0.74,-0.12,10.15,0.20,-0.40,-0.31,-24.38,6.25,-25.69
2025-12-15 21:06:21.483,0,1015.59,-19.44,77.56,3.12,-2.00,-0.44,-0.23,9.86,0.24,-0.74,-0.29,-25.06,6.00,-27.38
2025-12-15 21:06:21.598,0,1015.59,-19.47,79.69,7.12,-4.00,0.07,0.00,9.14,0.26,-0.48,-0.27,-27.69,2.69,-25.38
2025-12-15 21:06:21.713,0,1015.59,-19.48,81.31,7.62,-3.44,0.38,0.08,9.87,-0.53,0.38,-0.10,-28.75,2.06,-24.06
2025-12-15 21:06:21.828,0,1015.59,-19.46,82.06,3.00,-0.06,-0.35,-0.12,8.69,-0.47,0.95,-0.07,-28.00,1.69,-27.50
2025-12-15 21:06:21.940,0,1015.59,-19.44,82.75,-1.69,2.50,-1.20,-0.43,10.38,-0.17,0.37,-0.03,-25.06,1.69,-28.25
2025-12-15 21:06:22.055,0,1015.59,-19.44,83.81,-1.12,1.19,-0.80,-0.27,9.85,0.41,-0.51,-0.02,-25.06,1.25,-29.50
2025-12-15 21:06:22.173,0,1015.59,-19.46,84.62,2.81,-1.75,0.14,0.01,11.55,0.46,-0.55,0.01,-27.00,-0.50,-28.56
2025-12-15 21:06:22.286,0,1015.59,-19.46,85.50,3.56,-3.94,0.17,-0.14,8.78,0.27,0.34,0.02,-27.00,-1.19,-26.75
2025-12-15 21:06:22.400,0,1015.59,-19.44,85.69,0.12,-5.31,-0.52,-0.04,8.76,0.13,0.62,0.02,-26.00,-1.88,-28.50
2025-12-15 21:06:22.517,0,1015.59,-19.44,85.69,-3.06,-3.19,-0.69,0.08,8.66,-0.63,0.22,0.03,-24.50,-2.88,-31.38
2025-12-15 21:06:22.629,0,1015.58,-19.40,85.50,-3.19,0.75,-0.52,-0.24,9.52,-0.42,-0.13,0.06,-23.38,1.06,-32.38
2025-12-15 21:06:22.743,0,1015.58,-19.39,85.56,-2.06,1.69,-0.30,-0.28,9.02,0.11,-0.17,0.06,-25.00,1.38,-31.50
2025-12-15 21:06:22.857,0,1015.58,-19.40,85.25,-1.31,0.69,-0.43,-0.16,9.85,0.18,-0.08,0.06,-24.19,1.75,-32.75
2025-12-15 21:06:22.974,0,1015.59,-19.45,85.06,-0.62,-0.50,-0.61,-0.03,10.69,0.10,-0.25,0.08,-24.56,1.06,-32.00
2025-12-15 21:06:23.087,0,1015.59,-19.45,84.75,1.81,-0.88,-0.39,-0.24,8.25,0.14,-0.53,0.09,-25.25,0.69,-31.00
2025-12-15 21:06:23.201,0,1015.59,-19.44,84.31,5.12,-2.31,0.00,0.06,9.27,0.23,-0.39,0.16,-27.75,0.69,-31.00
2025-12-15 21:06:23.316,0,1015.59,-19.44,80.69,5.44,-1.38,0.24,0.00,9.48,-0.47,0.45,1.12,-26.38,0.69,-29.69
2025-12-15 21:06:23.430,0,1015.58,-19.42,73.19,0.62,1.75,-0.43,-0.17,8.65,-0.31,0.87,1.14,-24.06,5.50,-30.56
2025-12-15 21:06:23.542,0,1015.59,-19.43,66.38,-3.69,3.06,-1.08,-0.19,9.89,-0.14,0.36,1.16,-21.50,8.19,-33.50
2025-12-15 21:06:23.658,0,1015.59,-19.46,59.31,-3.31,3.06,-0.80,-0.25,10.66,-0.02,-0.59,1.16,-19.25,11.75,-32.69
2025-12-15 21:06:23.774,0,1015.59,-19.46,51.50,1.19,1.81,0.07,-0.33,10.79,0.37,-0.71,1.17,-17.25,13.75,-30.56
2025-12-15 21:06:23.889,0,1015.58,-19.42,44.25,3.25,-0.69,0.23,0.01,7.86,0.36,0.03,1.18,-18.38,15.75,-30.06
2025-12-15 21:06:24.004,0,1015.59,-19.43,36.12,1.00,-0.56,0.21,-0.04,8.30,-0.30,0.74,1.19,-15.88,17.38,-30.50
2025-12-15 21:06:24.121,0,1015.58,-19.39,27.50,-5.38,0.19,-0.56,-0.18,9.58,-0.04,1.08,1.20,-11.50,20.75,-30.50
2025-12-15 21:06:24.235,0,1015.58,-19.40,19.44,-10.00,-0.50,-1.39,-0.15,8.98,0.03,0.33,1.21,-2.38,21.25,-31.25
2025-12-15 21:06:24.349,0,1015.58,-19.41,11.00,-7.00,-0.50,-1.05,-0.07,9.72,-0.40,-1.03,1.19,-0.19,22.50,-31.06
2025-12-15 21:06:24.477,0,1015.59,-19.44,2.94,1.31,1.81,0.49,-0.34,11.20,-0.37,-1.15,1.14,-0.19,23.25,-29.75
2025-12-15 21:06:24.595,0,1015.59,-19.45,354.38,4.38,3.00,0.40,-0.18,7.65,0.04,0.00,1.11,0.88,23.19,-28.00
2025-12-15 21:06:24.712,0,1015.58,-19.40,346.50,0.94,3.62,-0.04,-0.16,11.79,-0.04,0.78,1.10,3.50,23.56,-28.25
2025-12-15 21:06:24.830,0,1015.58,-19.40,339.00,-4.56,2.62,-0.66,-0.25,7.69,0.29,0.73,1.06,10.56,22.25,-26.88
2025-12-15 21:06:24.945,0,1015.58,-19.39,331.06,-7.81,0.31,-1.00,-0.05,9.73,0.04,0.14,1.04,15.69,20.06,-26.88
2025-12-15 21:06:25.062,0,1015.58,-19.36,324.81,-6.44,-0.25,-0.53,-0.12,9.57,-0.05,-0.50,1.02,16.06,20.50,-27.38
2025-12-15 21:06:25.177,0,1015.58,-19.37,318.06,-2.75,0.50,-0.17,-0.09,11.04,-0.27,-0.52,0.99,18.06,19.69,-28.50
2025-12-15 21:06:25.289,0,1015.58,-19.37,312.12,-0.94,2.12,-0.19,-0.13,9.25,-0.23,-0.17,0.96,17.88,18.19,-28.88
2025-12-15 21:06:25.402,0,1015.58,-19.37,306.31,-0.50,3.94,-0.32,-0.34,7.94,-0.21,-0.10,0.94,19.75,17.38,-28.88
2025-12-15 21:06:25.516,0,1015.58,-19.34,300.19,-0.69,2.69,-0.19,-0.50,9.33,0.71,0.05,0.92,20.50,16.38,-29.00
2025-12-15 21:06:25.631,0,1015.58,-19.35,295.06,-1.94,-1.88,-0.29,0.07,9.08,0.33,0.31,0.88,21.88,12.88,-29.38
2025-12-15 21:06:25.745,0,1015.58,-19.35,290.62,-3.62,-2.06,-0.55,-0.12,8.88,-0.07,0.22,0.87,22.19,9.50,-29.75
2025-12-15 21:06:25.858,0,1015.58,-19.35,285.38,-3.81,-1.19,-0.58,-0.04,9.78,-0.36,-0.12,0.84,25.00,7.88,-29.19
2025-12-15 21:06:25.973,0,1015.58,-19.39,281.00,-2.50,0.94,-0.22,-0.26,11.75,-0.22,-0.19,0.80,23.50,7.56,-30.88
2025-12-15 21:06:26.088,0,1015.58,-19.40,276.31,-2.44,1.69,-0.06,-0.33,7.84,-0.08,0.13,0.80,24.25,5.56,-30.88
2025-12-15 21:06:26.200,0,1015.58,-19.39,270.81,-4.19,1.31,-0.27,-0.30,11.50,0.12,0.37,1.13,24.88,4.88,-31.00
2025-12-15 21:06:26.316,0,1015.58,-19.37,264.81,-6.31,-1.19,-0.76,-0.22,7.63,0.43,0.13,1.09,27.00,1.88,-30.88
2025-12-15 21:06:26.432,0,1015.58,-19.38,258.12,-4.81,-4.31,-0.88,-0.07,9.16,0.21,-0.48,1.07,26.56,-2.75,-28.75
2025-12-15 21:06:26.545,0,1015.58,-19.39,252.31,0.00,-5.00,-0.16,-0.04,10.78,-0.05,-0.75,1.05,22.88,-6.88,-32.56
2025-12-15 21:06:26.658,0,1015.58,-19.39,246.31,3.06,-3.50,0.53,-0.08,9.94,-0.35,0.07,1.01,19.50,-10.25,-34.38
2025-12-15 21:06:26.772,0,1015.58,-19.41,239.69,-0.44,-0.50,0.00,-0.10,11.24,-0.38,1.00,1.00,18.56,-10.25,-34.00
2025-12-15 21:06:26.887,0,1015.58,-19.40,233.62,-6.69,1.56,-0.89,-0.17,7.91,-0.45,0.77,1.01,22.00,-13.19,-33.06
2025-12-15 21:06:27.002,0,1015.58,-19.39,226.75,-8.88,2.25,-1.33,-0.37,8.39,-0.00,-0.26,1.00,22.69,-14.69,-30.50
2025-12-15 21:06:27.117,0,1015.58,-19.39,220.31,-3.75,0.56,-0.62,-0.17,9.42,0.26,-1.32,0.99,19.75,-16.88,-32.19
2025-12-15 21:06:27.231,0,1015.58,-19.40,213.38,4.19,-0.31,0.75,-0.05,8.62,0.01,-0.83,0.97,14.00,-19.75,-33.75
2025-12-15 21:06:27.344,0,1015.58,-19.40,206.69,4.19,0.00,0.95,-0.24,9.49,0.13,0.75,0.92,5.56,-21.69,-36.00
2025-12-15 21:06:27.458,0,1015.58,-19.41,200.50,-4.25,-1.50,-0.66,-0.11,9.84,0.33,1.69,0.85,6.75,-23.56,-33.56
2025-12-15 21:06:27.579,0,1015.59,-19.42,194.31,-12.00,-4.31,-2.09,0.00,11.18,0.14,0.24,0.80,9.06,-23.69,-32.25
2025-12-15 21:06:27.695,0,1015.59,-19.42,187.50,-8.25,-4.94,-0.59,-0.21,8.00,-0.13,-0.99,0.77,7.38,-28.25,-30.19
2025-12-15 21:06:27.807,0,1015.59,-19.42,182.25,-1.81,-5.12,0.22,-0.12,11.04,0.01,-0.73,0.73,2.56,-28.69,-30.56
2025-12-15 21:06:27.923,0,1015.58,-19.42,176.75,0.94,-4.19,-0.08,-0.05,8.09,-0.30,-0.09,0.70,-2.00,-29.38,-31.19
2025-12-15 21:06:28.037,0,1015.58,-19.42,171.81,1.44,-2.31,-0.78,-0.16,10.14,-0.32,-0.11,0.67,-4.69,-29.06,-30.69
2025-12-15 21:06:28.150,0,1015.58,-19.42,167.19,4.00,-0.50,-0.63,-0.25,9.08,-0.13,-0.65,0.63,-8.50,-27.56,-32.75
2025-12-15 21:06:28.262,0,1015.58,-19.42,163.12,8.25,-0.25,0.47,-0.08,10.21,0.08,-0.50,0.60,-11.75,-27.25,-32.38
2025-12-15 21:06:28.379,0,1015.59,-19.43,159.06,7.38,0.25,0.74,-0.08,11.31,-0.06,1.00,0.56,-14.69,-25.75,-31.19
2025-12-15 21:06:28.494,0,1015.59,-19.43,155.69,-1.12,8.19,-0.52,-0.33,8.84,0.29,1.64,0.52,-12.50,-24.56,-32.38
2025-12-15 21:06:28.607,0,1015.58,-19.42,152.31,-9.94,-2.31,-1.62,0.10,8.30,0.13,0.82,0.45,-9.50,-24.56,-32.00
2025-12-15 21:06:28.722,0,1015.59,-19.42,149.38,-9.31,-0.44,-1.32,-0.37,9.40,-0.55,-0.97,0.41,-8.69,-23.69,-31.75
2025-12-15 21:06:28.836,0,1015.58,-19.36,146.69,-0.69,-0.88,0.32,-0.17,9.02,0.39,-1.29,0.41,-12.00,-22.19,-30.06
2025-12-15 21:06:28.949,0,1015.58,-19.35,144.25,3.19,-2.25,1.08,-0.21,9.27,0.18,0.07,0.39,-16.50,-21.38,-25.88
2025-12-15 21:06:29.063,0,1015.58,-19.38,141.81,-2.19,-4.25,-0.36,-0.09,10.09,0.33,1.45,0.33,-16.75,-21.75,-25.75
2025-12-15 21:06:29.177,0,1015.58,-19.39,139.75,-9.81,-5.88,-2.08,-0.04,10.57,0.07,0.55,0.28,-11.75,-22.19,-25.38
2025-12-15 21:06:29.292,0,1015.58,-19.41,138.25,-6.69,-5.94,-1.00,-0.22,7.81,-0.06,-1.15,0.25,-9.88,-22.88,-25.19
2025-12-15 21:06:29.405,0,1015.58,-19.41,137.19,1.38,-6.12,0.53,0.03,10.86,-0.01,-1.08,0.25,-11.56,-23.19,-23.25
2025-12-15 21:06:29.518,0,1015.58,-19.36,135.88,4.12,-3.00,0.32,0.00,8.13,-0.93,0.25,0.21,-14.50,-22.69,-23.56
2025-12-15 21:06:29.635,0,1015.58,-19.35,134.62,0.94,1.75,-0.94,-0.24,9.54,-0.40,0.50,0.22,-14.50,-20.75,-27.50
2025-12-15 21:06:29.752,0,1015.58,-19.35,133.19,-0.25,3.75,-1.09,-0.33,9.41,-0.25,-0.46,0.20,-11.56,-18.56,-29.88
2025-12-15 21:06:29.866,0,1015.58,-19.36,131.88,3.62,2.88,0.24,-0.22,10.57,0.44,-0.74,0.18,-13.06,-17.50,-31.56
2025-12-15 21:06:29.982,0,1015.58,-19.36,131.38,4.62,-0.06,0.76,-0.05,9.98,0.45,0.58,0.15,-15.25,-16.75,-29.38
2025-12-15 21:06:30.099,0,1015.57,-19.34,132.25,-3.06,-2.69,-0.50,-0.11,8.79,0.37,1.44,0.08,-14.06,-17.50,-30.69
2025-12-15 21:06:30.215,0,1015.57,-19.33,132.88,-10.12,-4.06,-1.58,0.01,8.01,-0.07,0.57,0.03,-9.38,-17.50,-31.06
2025-12-15 21:06:30.332,0,1015.57,-19.32,133.12,-8.88,-2.50,-1.22,-0.29,9.31,-0.20,-0.91,0.01,-8.00,-17.06,-31.00
2025-12-15 21:06:30.450,0,1015.57,-19.31,133.50,-0.88,-3.19,0.47,-0.26,9.17,0.38,-1.08,0.00,-12.38,-15.69,-29.69
2025-12-15 21:06:30.565,0,1015.57,-19.30,134.00,1.31,-5.69,0.96,-0.03,10.83,0.36,0.51,-0.03,-13.88,-16.75,-29.25
2025-12-15 21:06:30.682,0,1015.58,-19.34,134.12,-5.44,-6.25,-0.88,-0.02,9.00,-0.25,1.20,-0.06,-12.38,-16.69,-28.38
2025-12-15 21:06:30.797,0,1015.58,-19.34,134.00,-9.69,-4.69,-1.88,-0.19,8.86,-0.18,0.12,-0.07,-11.25,-16.06,-29.88
2025-12-15 21:06:30.910,0,1015.57,-19.33,133.88,-4.00,-2.19,-0.86,0.00,10.35,-0.64,-1.79,-0.13,-12.06,-14.56,-29.88
2025-12-15 21:06:31.024,0,1015.57,-19.33,135.19,7.44,2.44,0.79,-0.22,7.74,-0.69,-1.38,-0.23,-17.88,-13.88,-30.25
2025-12-15 21:06:31.140,0,1015.57,-19.32,136.94,10.56,4.75,1.07,-0.20,10.19,-0.05,0.56,-0.28,-22.56,-12.75,-27.88
2025-12-15 21:06:31.255,0,1015.57,-19.32,139.12,2.62,4.81,-0.48,-0.32,10.23,0.03,1.60,-0.30,-19.25,-12.69,-31.06
2025-12-15 21:06:31.367,0,1015.57,-19.33,141.38,-4.94,2.88,-1.89,-0.21,11.85,0.50,0.71,-0.36,-13.75,-14.19,-32.19
2025-12-15 21:06:31.482,0,1015.58,-19.34,143.38,-4.44,0.00,-0.52,-0.09,8.13,0.54,-0.51,-0.37,-12.69,-15.69,-32.69
2025-12-15 21:06:31.599,0,1015.57,-19.33,145.12,-1.44,-2.12,0.17,0.07,8.05,-0.01,-0.22,-0.38,-13.75,-17.38,-30.50
2025-12-15 21:06:31.711,0,1015.57,-19.31,146.44,-2.06,-0.50,-0.04,-0.26,8.87,-0.21,0.39,-0.40,-14.06,-18.19,-31.25
2025-12-15 21:06:31.824,0,1015.57,-19.32,148.31,-5.06,-0.62,-0.55,-0.32,9.09,0.28,0.51,-0.43,-13.75,-20.25,-30.50
2025-12-15 21:06:31.938,0,1015.57,-19.32,151.00,-6.94,-2.50,-0.83,-0.14,10.11,0.47,0.10,-0.46,-10.50,-21.38,-30.06
2025-12-15 21:06:32.055,0,1015.57,-19.33,153.94,-6.12,-4.75,-0.62,0.11,12.09,0.25,-0.38,-0.48,-7.88,-23.25,-27.06
2025-12-15 21:06:32.168,0,1015.57,-19.33,157.19,-3.88,-4.00,-0.17,-0.15,7.75,-0.22,-0.32,-0.50,-8.25,-25.06,-27.50
2025-12-15 21:06:32.284,0,1015.57,-19.33,160.25,-2.94,-3.00,-0.46,-0.11,11.61,-0.20,-0.08,-0.52,-7.19,-24.25,-28.75
2025-12-15 21:06:32.399,0,1015.58,-19.36,163.75,-2.06,-1.50,-0.61,-0.14,8.05,-0.21,-0.27,-0.55,-6.50,-24.25,-28.38
2025-12-15 21:06:32.512,0,1015.58,-19.36,167.25,0.69,-0.25,-0.55,-0.22,9.80,-0.10,-0.62,-0.57,-4.56,-24.69,-30.00
2025-12-15 21:06:32.624,0,1015.57,-19.33,170.81,4.00,-0.50,0.14,-0.10,10.95,0.13,-0.42,-0.59,-6.06,-17.19,-30.50
2025-12-15 21:06:32.739,0,1015.57,-19.32,174.62,3.75,-0.75,0.35,-0.04,11.44,-0.13,0.50,-0.61,-5.69,-25.38,-30.06
2025-12-15 21:06:32.855,0,1015.57,-19.32,178.31,-1.44,0.44,-0.36,-0.20,7.22,-0.24,1.00,-0.61,-1.00,-25.75,-30.50
2025-12-15 21:06:32.972,0,1015.57,-19.32,182.56,-6.88,1.44,-1.23,-0.21,8.82,0.02,0.49,-0.63,1.88,-25.50,-32.19
2025-12-15 21:06:33.087,0,1015.57,-19.33,186.38,-6.00,2.00,-1.05,-0.12,8.39,-0.11,-0.73,-0.64,5.88,-25.75,-29.56
2025-12-15 21:06:33.201,0,1015.57,-19.32,190.56,0.50,2.75,0.14,-0.19,9.40,-0.05,-0.98,-0.66,6.69,-25.06,-30.88
2025-12-15 21:06:33.313,0,1015.57,-19.31,194.75,3.44,2.19,0.82,-0.18,9.58,0.16,0.13,-0.68,5.56,-25.19,-32.00
2025-12-15 21:06:33.426,0,1015.57,-19.34,199.44,-1.56,1.06,-0.24,-0.08,12.30,0.14,1.32,-0.71,8.00,-25.19,-30.69
2025-12-15 21:06:33.541,0,1015.57,-19.34,204.81,-8.75,0.94,-1.37,-0.20,7.68,0.06,0.64,-0.73,15.00,-24.00,-29.38
2025-12-15 21:06:33.657,0,1015.58,-19.34,210.12,-7.75,0.62,-1.58,-0.27,10.62,0.29,-0.98,-0.73,18.25,-22.38,-28.25
2025-12-15 21:06:33.770,0,1015.57,-19.33,214.94,0.44,-1.06,0.17,-0.01,7.98,0.22,-1.44,-0.70,18.25,-22.75,-30.00
2025-12-15 21:06:33.883,0,1015.57,-19.32,219.94,6.62,-1.56,1.15,-0.11,9.26,-0.11,-0.26,-0.71,15.38,-21.69,-33.00
2025-12-15 21:06:33.998,0,1015.57,-19.31,224.56,2.31,-1.31,0.15,-0.17,9.83,-0.19,1.44,-0.72,15.88,-20.56,-33.00
2025-12-15 21:06:34.113,0,1015.57,-19.32,229.81,-7.44,-0.19,-1.94,-0.21,12.36,-0.08,1.12,-0.70,23.25,-17.38,-30.06
2025-12-15 21:06:34.225,0,1015.58,-19.34,234.69,-7.94,0.94,-1.25,-0.16,7.81,-0.15,-0.68,-0.71,28.00,-15.88,-28.38
2025-12-15 21:06:34.342,0,1015.58,-19.34,239.69,-0.81,2.56,0.01,-0.25,8.42,-0.16,-1.11,-0.73,25.75,-13.25,-30.56
2025-12-15 21:06:34.457,0,1015.57,-19.29,244.12,3.88,2.06,0.43,-0.31,8.53,0.26,-0.35,-0.73,22.50,-11.50,-32.19
2025-12-15 21:06:34.569,0,1015.57,-19.28,249.00,3.12,0.06,0.06,-0.04,9.43,0.19,0.49,-0.73,22.88,-8.88,-33.06
2025-12-15 21:06:34.682,0,1015.57,-19.27,253.94,-0.50,0.06,-0.79,-0.13,9.07,-0.12,0.47,-0.73,24.38,-6.69,-31.38
2025-12-15 21:06:34.795,0,1015.57,-19.27,259.25,-1.62,1.25,-0.76,-0.32,10.82,-0.15,-0.17,-0.74,26.69,-4.38,-31.00
2025-12-15 21:06:34.911,0,1015.57,-19.31,264.50,0.12,0.81,-0.01,-0.07,9.39,0.09,-0.19,-0.75,25.56,0.00,-33.56
2025-12-15 21:06:35.025,0,1015.57,-19.31,268.88,0.00,1.69,0.25,-0.66,9.25,-0.32,0.29,-0.12,26.75,0.38,-35.19
2025-12-15 21:06:35.140,0,1015.57,-19.31,266.81,-3.44,2.06,-0.60,-0.30,10.39,0.18,0.62,0.45,26.69,1.00,-36.06
2025-12-15 21:06:35.255,0,1015.57,-19.32,263.94,-5.81,0.81,-1.00,-0.14,8.05,0.08,0.01,0.44,28.19,-0.38,-35.06
2025-12-15 21:06:35.371,0,1015.57,-19.33,261.25,-3.50,0.62,-0.59,-0.11,9.75,-0.09,-0.63,0.43,26.69,-5.50,-36.00
2025-12-15 21:06:35.484,0,1015.57,-19.34,258.56,0.00,1.44,0.29,-0.22,10.44,-0.11,-0.32,0.42,23.38,-5.50,-36.75
2025-12-15 21:06:35.603,0,1015.57,-19.33,255.88,-0.88,1.81,-0.12,-0.09,10.73,-0.07,0.60,0.40,20.75,-8.38,-37.56
2025-12-15 21:06:35.719,0,1015.57,-19.32,253.31,-5.19,2.56,-0.79,-0.22,7.82,-0.18,0.52,0.39,23.56,-10.38,-34.69
2025-12-15 21:06:35.833,0,1015.57,-19.32,250.94,-5.75,2.19,-1.31,-0.34,9.04,0.29,-0.49,0.39,23.88,-10.75,-33.00
2025-12-15 21:06:35.951,0,1015.57,-19.29,248.38,0.31,-0.31,-0.42,-0.09,9.18,0.33,-1.27,0.40,21.38,-12.56,-32.19
2025-12-15 21:06:36.069,0,1015.56,-19.25,245.69,7.25,-1.00,0.71,-0.08,8.88,-0.04,-0.59,0.40,15.19,-14.19,-33.38
2025-12-15 21:06:36.183,0,1015.56,-19.25,243.31,6.12,-0.12,0.65,-0.07,9.77,-0.18,0.87,0.39,12.06,-15.25,-34.38
2025-12-15 21:06:36.304,0,1015.57,-19.32,239.44,-2.19,1.19,-0.87,-0.17,10.48,-0.17,1.37,0.39,14.69,-13.75,-33.50
2025-12-15 21:06:36.425,0,1015.57,-19.31,235.12,-8.31,2.00,-1.16,-0.13,8.10,-0.20,0.34,0.39,19.50,-13.75,-30.25
2025-12-15 21:06:36.538,0,1015.57,-19.32,232.00,-7.69,3.06,-0.61,-0.32,10.27,-0.14,-0.47,0.38,21.69,-12.25,-30.56
2025-12-15 21:06:36.655,0,1015.57,-19.33,228.88,-4.31,2.38,-0.12,-0.22,9.09,0.20,-0.44,0.36,19.06,-13.06,-32.75
2025-12-15 21:06:36.770,0,1015.58,-19.34,226.12,-2.69,0.94,0.07,-0.14,8.80,0.20,-0.03,0.35,16.06,-15.56,-32.38
2025-12-15 21:06:36.884,0,1015.57,-19.31,222.81,-4.25,-0.12,-0.36,-0.08,10.00,0.09,0.44,0.33,14.56,-16.00,-34.00
2025-12-15 21:06:36.999,0,1015.57,-19.31,220.25,-6.50,-0.38,-0.94,-0.15,11.14,-0.05,0.14,0.31,15.25,-16.75,-33.19
2025-12-15 21:06:37.114,0,1015.57,-19.30,217.31,-5.38,-0.06,-0.58,-0.17,9.49,-0.14,-0.44,0.29,15.00,-18.25,-31.50
2025-12-15 21:06:37.227,0,1015.57,-19.29,214.12,-2.38,0.69,-0.17,-0.33,8.29,-0.05,-0.44,0.27,11.56,-19.00,-31.06
2025-12-15 21:06:37.339,0,1015.57,-19.27,211.56,-0.56,-0.31,-0.36,-0.26,8.06,0.34,-0.20,0.27,10.19,-19.75,-31.50
2025-12-15 21:06:37.454,0,1015.57,-19.27,209.31,0.69,-2.12,-0.51,0.02,9.92,0.06,-0.22,0.17,9.56,-20.50,-31.06
2025-12-15 21:06:37.569,0,1015.56,-19.23,207.12,2.19,-1.31,-0.15,-0.13,9.24,-0.16,-0.17,0.15,5.88,-22.06,-28.69
2025-12-15 21:06:37.682,0,1015.56,-19.23,204.94,1.62,0.00,0.18,-0.26,9.54,-0.16,0.43,0.13,6.06,-20.56,-29.19
2025-12-15 21:06:37.794,0,1015.57,-19.29,203.31,-3.31,0.00,-0.46,-0.06,11.64,0.11,0.96,0.11,5.75,-20.25,-27.88
2025-12-15 21:06:37.911,0,1015.57,-19.29,201.25,-7.75,0.38,-0.77,-0.27,6.90,-0.23,0.39,0.46,8.25,-19.88,-26.69
2025-12-15 21:06:38.025,0,1015.57,-19.26,197.12,-8.00,0.19,-1.26,-0.28,11.92,0.17,-0.38,0.64,9.56,-20.25,-25.38
2025-12-15 21:06:38.138,0,1015.57,-19.30,192.81,-3.25,-0.50,-0.45,-0.16,7.29,-0.05,-0.96,0.63,6.56,-20.25,-25.88
2025-12-15 21:06:38.253,0,1015.57,-19.30,189.06,1.81,-0.88,0.35,-0.11,8.97,0.07,-0.51,0.61,5.19,-22.00,-25.38
2025-12-15 21:06:38.368,0,1015.57,-19.30,185.19,1.75,-0.75,0.31,0.01,11.20,-0.04,0.55,0.59,2.06,-21.19,-24.88
2025-12-15 21:06:38.484,0,1015.57,-19.30,182.19,-3.44,0.19,-0.60,-0.10,12.67,-0.21,0.94,0.58,3.19,-20.75,-25.69
2025-12-15 21:06:38.598,0,1015.57,-19.33,178.69,-8.31,0.88,-0.68,-0.28,7.31,-0.03,0.50,0.57,3.88,-19.69,-23.56
2025-12-15 21:06:38.713,0,1015.57,-19.33,175.69,-9.44,0.06,-0.83,-0.11,8.02,0.05,-0.07,0.55,4.56,-20.06,-26.19
2025-12-15 21:06:38.828,0,1015.57,-19.31,172.94,-7.00,-0.12,-0.65,-0.13,8.48,-0.08,-0.63,0.52,4.56,-20.00,-16.19
2025-12-15 21:06:38.940,0,1015.57,-19.31,170.25,-2.56,0.00,-0.02,-0.22,9.10,0.00,-0.64,0.50,1.69,-19.56,-25.75
2025-12-15 21:06:39.055,0,1015.57,-19.31,167.88,-0.81,-0.81,0.28,-0.02,11.30,0.11,0.17,0.47,-1.25,-18.00,-25.38
2025-12-15 21:06:39.170,0,1015.58,-19.34,165.31,-4.12,-0.44,-0.50,-0.02,8.37,-0.28,0.64,0.43,-1.06,-18.38,-24.06
2025-12-15 21:06:39.284,0,1015.58,-19.34,163.75,-6.69,0.75,-1.33,-0.28,10.01,-0.07,0.09,0.42,0.06,-17.25,-25.00
2025-12-15 21:06:39.397,0,1015.58,-19.36,161.44,-3.31,0.44,-0.64,-0.06,8.67,-0.04,-1.07,0.39,-1.75,-16.56,-23.75
2025-12-15 21:06:39.513,0,1015.58,-19.37,159.00,3.62,1.06,0.38,-0.12,8.09,-0.11,-0.78,0.36,-4.75,-16.19,-24.19
2025-12-15 21:06:39.629,0,1015.57,-19.32,157.50,4.62,1.75,0.73,-0.19,10.25,-0.01,0.55,0.33,-6.25,-16.06,-23.69
2025-12-15 21:06:39.742,0,1015.57,-19.33,156.06,-2.12,1.62,-0.63,-0.02,12.50,-0.02,1.35,0.30,-6.38,-15.25,-23.56
2025-12-15 21:06:39.857,0,1015.58,-19.34,154.38,-8.25,2.12,-1.10,-0.27,7.25,-0.08,0.46,0.29,-5.25,-15.25,-24.06
2025-12-15 21:06:39.974,0,1015.58,-19.34,152.62,-8.19,1.12,-1.03,-0.21,8.29,0.22,-0.47,0.26,-4.38,-15.25,-24.06
2025-12-15 21:06:40.088,0,1015.57,-19.33,151.25,-3.56,0.31,-0.19,-0.02,8.43,-0.07,-0.85,0.24,-5.50,-16.56,-23.50
2025-12-15 21:06:40.201,0,1015.57,-19.32,149.88,0.12,0.38,0.50,-0.23,8.80,0.14,-0.13,0.21,-7.38,-16.19,-22.69
2025-12-15 21:06:40.315,0,1015.57,-19.30,148.69,-2.12,-1.31,0.01,-0.14,11.47,0.45,0.88,0.17,-10.00,-16.56,-23.50
2025-12-15 21:06:40.431,0,1015.57,-19.34,148.25,-7.50,-3.38,-1.39,0.06,11.12,0.09,0.57,0.13,-7.00,-16.88,-23.19
2025-12-15 21:06:40.543,0,1015.57,-19.34,146.88,-7.88,-3.25,-1.21,-0.14,9.15,-0.08,-0.38,0.19,-6.69,-17.56,-25.19
2025-12-15 21:06:40.660,0,1015.57,-19.33,145.94,-2.62,-2.62,-0.39,0.02,10.97,-0.20,-1.12,0.16,-7.69,-17.56,-24.00
2025-12-15 21:06:40.775,0,1015.57,-19.33,145.06,3.69,-0.19,0.18,-0.10,7.00,-0.46,-0.71,0.12,-11.38,-16.56,-23.19
2025-12-15 21:06:40.887,0,1015.57,-19.31,144.19,5.50,2.12,0.28,-0.27,10.15,-0.24,0.08,0.08,-14.00,-15.38,-21.50
2025-12-15 21:06:40.999,0,1015.57,-19.30,143.81,2.56,2.81,-0.35,-0.04,10.33,-0.06,0.65,0.07,-13.69,-15.38,-21.06
2025-12-15 21:06:41.116,0,1015.57,-19.32,143.38,-1.94,3.62,-0.50,-0.21,10.71,-0.16,0.66,0.05,-13.25,-15.00,-21.88
2025-12-15 21:06:41.233,0,1015.57,-19.32,143.44,-5.56,2.81,-0.63,-0.31,8.66,0.47,0.46,0.03,-10.00,-16.50,-21.56
2025-12-15 21:06:41.349,0,1015.57,-19.33,144.19,-7.12,0.44,-0.79,0.06,8.12,-0.04,-0.04,-0.01,-8.38,-17.50,-20.69
2025-12-15 21:06:41.465,0,1015.57,-19.31,144.75,-5.38,1.25,-0.49,-0.29,8.57,0.10,-0.41,-0.03,-7.56,-17.88,-21.06
2025-12-15 21:06:41.582,0,1015.57,-19.31,145.62,-3.00,-0.06,0.01,-0.20,8.76,0.22,-0.19,-0.05,-9.06,-18.56,-20.38
2025-12-15 21:06:41.696,0,1015.57,-19.33,147.56,-3.44,-2.38,-0.09,-0.12,11.08,0.46,0.37,-0.08,-8.00,-19.00,-20.75
2025-12-15 21:06:41.813,0,1015.58,-19.35,148.62,-6.25,-4.00,-0.75,-0.05,8.92,-0.01,0.34,-0.11,-6.88,-22.00,-19.50
2025-12-15 21:06:41.929,0,1015.58,-19.35,149.44,2041.00,-3.94,-0.86,-0.20,9.05,0.07,-0.15,-0.13,2042.94,-22.25,-18.75
2025-12-15 21:06:42.047,0,1015.57,-19.33,151.31,-3.94,-3.69,-0.53,0.01,9.44,-0.16,-0.68,-0.15,-3.56,-22.25,-21.00
2025-12-15 21:06:42.164,0,1015.57,-19.33,153.75,0.06,-1.69,-0.08,-0.14,9.15,-0.36,-0.57,-0.17,-4.69,-21.19,-21.00
2025-12-15 21:06:42.282,0,1015.57,-19.31,156.19,2.38,0.31,-0.07,-0.17,9.01,-0.28,-0.11,-0.20,-6.19,-20.75,-22.19
2025-12-15 21:06:42.395,0,1015.57,-19.32,158.00,2.00,1.50,-0.44,-0.14,10.52,-0.16,0.13,-0.22,-6.06,-19.50,-24.69
2025-12-15 21:06:42.509,0,1015.57,-19.32,160.50,1.50,2.38,-0.48,-0.15,9.42,-0.12,0.02,-0.24,-6.06,-19.88,-25.50
2025-12-15 21:06:42.624,0,1015.57,-19.34,162.62,1.31,2.50,-0.22,-0.16,9.31,0.08,0.14,-0.26,-5.69,-19.06,-24.69
2025-12-15 21:06:42.739,0,1015.57,-19.34,165.69,-0.19,2.38,-0.44,-0.09,8.19,-0.08,0.27,-0.28,-4.19,-19.88,-26.75
2025-12-15 21:06:42.852,0,1015.58,-19.36,167.50,-1.50,2.94,-0.52,-0.24,8.47,-0.06,0.14,-0.30,-4.19,-20.19,-27.06
2025-12-15 21:06:42.967,0,1015.58,-19.36,169.44,-1.81,2.25,-0.37,-0.22,9.28,0.29,0.03,-0.32,-4.19,-20.19,-28.00
2025-12-15 21:06:43.082,0,1015.58,-19.34,171.31,-2.44,0.19,-0.12,0.01,13.33,0.27,0.25,-0.34,-3.88,-20.75,-27.88
2025-12-15 21:06:43.196,0,1015.58,-19.34,172.88,-5.19,-0.19,-0.35,-0.15,7.62,-0.02,0.55,-0.37,-3.06,-21.56,-26.56
2025-12-15 21:06:43.309,0,1015.58,-19.38,174.62,-8.44,-0.56,-0.85,-0.20,11.67,0.30,0.41,-0.39,-1.25,-22.19,-25.75
2025-12-15 21:06:43.424,0,1015.58,-19.37,176.88,-9.06,-1.00,-0.73,-0.08,7.01,-0.08,-0.26,-0.41,-0.19,-23.00,-25.69
2025-12-15 21:06:43.540,0,1015.58,-19.38,178.94,-6.00,-0.19,-0.58,-0.19,8.60,-0.02,-0.71,-0.42,0.88,-21.06,-27.25
2025-12-15 21:06:43.656,0,1015.58,-19.36,180.62,-1.06,0.00,0.00,-0.10,10.37,0.06,-0.63,-0.43,-1.00,-22.50,-28.19
2025-12-15 21:06:43.773,0,1015.58,-19.36,182.56,0.88,0.12,0.12,-0.04,12.29,-0.11,0.13,-0.46,-3.38,-21.75,-27.75
2025-12-15 21:06:43.892,0,1015.58,-19.37,185.38,-1.25,0.88,-0.34,-0.26,8.19,-0.02,0.54,-0.48,-3.00,-21.56,-27.50
2025-12-15 21:06:44.004,0,1015.58,-19.37,188.69,-4.38,0.62,-0.95,-0.18,8.16,0.15,0.33,-0.50,-1.38,-21.88,-25.88
2025-12-15 21:06:44.120,0,1015.58,-19.36,191.81,-3.12,0.31,-1.09,-0.14,9.07,0.01,-0.78,-0.51,0.38,-21.75,-23.75
2025-12-15 21:06:44.234,0,1015.58,-19.37,195.25,3.56,0.56,0.06,-0.13,8.47,-0.07,-1.01,-0.53,2.19,-21.75,-23.38
2025-12-15 21:06:44.347,0,1015.57,-19.33,198.56,6.75,0.69,0.97,-0.20,9.76,-0.06,0.07,-0.54,-0.38,-20.69,-25.50
2025-12-15 21:06:44.461,0,1015.58,-19.42,201.12,0.88,0.00,-0.02,-0.16,12.42,0.19,1.68,-0.56,2.19,-20.25,-25.50
2025-12-15 21:06:44.575,0,1015.58,-19.38,204.19,-9.56,-0.62,-1.24,-0.16,6.97,0.09,1.22,-0.58,6.25,-19.38,-24.19
2025-12-15 21:06:44.690,0,1015.58,-19.38,207.00,-10.69,0.00,-2.32,-0.04,11.73,-0.12,-0.91,-0.56,11.75,-20.06,-22.00
2025-12-15 21:06:44.802,0,1015.58,-19.40,209.44,-0.44,1.31,-0.09,-0.34,6.52,-0.01,-1.88,-0.58,9.69,-17.06,-25.50
2025-12-15 21:06:44.915,0,1015.58,-19.40,213.00,8.62,-0.81,1.52,-0.08,9.31,0.45,-0.54,-0.55,8.19,-18.00,-26.19
2025-12-15 21:06:45.029,0,1015.58,-19.38,215.81,4.69,-1.19,0.77,0.09,11.65,-0.39,1.52,-0.56,6.69,-18.69,-26.19
2025-12-15 21:06:45.147,0,1015.58,-19.37,218.81,-7.06,1.69,-1.81,-0.11,11.63,-0.33,1.40,-0.49,13.25,-16.75,-24.88
2025-12-15 21:06:45.259,0,1015.58,-19.38,221.19,-9.88,4.75,-1.27,-0.32,6.67,-0.33,-0.14,-0.48,15.88,-15.25,-22.75
2025-12-15 21:06:45.374,0,1015.58,-19.38,223.75,-5.50,5.75,-0.67,-0.38,7.94,0.19,-1.07,-0.48,16.69,-13.06,-23.69
2025-12-15 21:06:45.489,0,1015.57,-19.33,226.56,2.19,4.12,0.25,-0.03,9.20,0.18,-0.99,-0.46,15.88,-12.38,-25.25
2025-12-15 21:06:45.602,0,1015.57,-19.31,229.19,4.88,4.56,0.66,-0.09,10.03,-0.28,0.16,-0.47,14.50,-12.50,-25.75
2025-12-15 21:06:45.714,0,1015.57,-19.32,232.25,0.56,4.75,-0.42,-0.38,10.04,0.05,1.05,-0.47,14.06,-10.56,-25.75
2025-12-15 21:06:45.830,0,1015.58,-19.37,236.00,-4.94,3.38,-1.25,-0.22,10.71,0.32,0.52,-0.50,18.19,-9.06,-24.88
2025-12-15 21:06:45.946,0,1015.58,-19.37,239.44,-4.88,2.31,-0.66,-0.06,7.94,0.03,-0.33,-0.50,21.88,-8.88,-23.75
2025-12-15 21:06:46.058,0,1015.57,-19.33,242.38,-2.12,2.94,-0.35,-0.33,10.93,-0.04,-0.47,-0.17,21.06,-7.75,-24.56
2025-12-15 21:06:46.172,0,1015.57,-19.33,243.50,0.44,1.38,-0.10,-0.33,7.27,0.53,-0.27,-0.17,20.06,-8.06,-25.38
2025-12-15 21:06:46.287,0,1015.57,-19.33,244.75,0.88,-2.00,-0.26,-0.07,9.18,0.42,0.11,-0.18,21.50,-9.56,-26.25
2025-12-15 21:06:46.401,0,1015.57,-19.33,245.88,-0.06,-3.69,-0.65,0.03,10.88,0.02,0.08,-0.18,21.50,-11.50,-25.00
2025-12-15 21:06:46.515,0,1015.58,-19.35,247.06,0.75,-2.75,-0.75,-0.22,12.22,-0.16,-0.41,-0.19,21.75,-12.25,-25.00
2025-12-15 21:06:46.631,0,1015.57,-19.33,248.44,3.69,-1.69,0.03,-0.11,7.78,-0.20,-0.38,-0.20,21.75,-11.50,-26.38
2025-12-15 21:06:46.745,0,1015.57,-19.33,249.75,3.81,0.00,0.18,-0.26,8.47,-0.20,0.26,-0.20,22.50,-10.50,-26.69
2025-12-15 21:06:46.859,0,1015.57,-19.32,250.88,0.75,0.00,-0.56,-0.25,8.76,0.09,0.56,-0.20,25.69,-9.00,-26.69
2025-12-15 21:06:46.973,0,1015.57,-19.32,252.25,-1.94,-0.12,-0.89,-0.01,8.82,-0.10,0.04,-0.19,27.56,-9.06,-25.00
2025-12-15 21:06:47.089,0,1015.58,-19.35,253.38,-0.69,1.75,-0.47,-0.21,10.53,-0.34,-0.46,-0.19,27.88,-8.00,-24.19
2025-12-15 21:06:47.207,0,1015.58,-19.36,254.69,1.69,3.81,0.38,-0.26,11.57,-0.24,-0.09,-0.20,30.50,-5.06,-27.50
2025-12-15 21:06:47.321,0,1015.58,-19.37,256.12,-1.00,4.69,0.00,0.00,0.00,-0.15,0.74,-0.20,31.56,-3.69,-27.50
2025-12-15 21:06:47.442,0,1015.58,-19.36,256.81,-5.50,5.75,-1.35,-0.40,12.32,-0.00,0.40,0.00,36.06,-3.75,-25.50
2025-12-15 21:06:47.558,0,1015.58,-19.37,256.88,-4.25,3.62,-0.73,-0.28,6.96,0.55,-0.61,0.01,37.06,-2.06,-24.00
2025-12-15 21:06:47.672,0,1015.58,-19.37,256.69,0.38,0.12,0.16,-0.05,10.01,0.56,-0.69,0.05,34.88,-0.88,-25.25
2025-12-15 21:06:47.792,0,1015.58,-19.37,256.31,2.12,-2.12,0.25,-0.04,10.61,0.13,0.30,0.06,35.69,-1.38,-26.06
2025-12-15 21:06:47.912,0,1015.58,-19.38,255.94,-1.50,-2.00,-0.92,-0.05,11.65,-0.15,0.56,0.05,36.06,0.50,-25.75
2025-12-15 21:06:48.031,0,1015.58,-19.39,255.50,-2.81,0.75,-0.91,-0.03,7.83,-0.78,-0.24,0.05,35.19,1.38,-24.00
2025-12-15 21:06:48.146,0,1015.58,-19.38,255.00,0.25,4.00,-0.45,-0.61,8.21,0.04,-0.70,0.06,33.69,3.69,-24.00
2025-12-15 21:06:48.259,0,1015.58,-19.39,254.38,4.12,-0.06,0.21,0.09,8.73,0.79,-0.47,0.09,30.00,2.56,-27.00
2025-12-15 21:06:48.373,0,1015.58,-19.39,253.75,4.19,-0.62,0.28,-0.20,9.39,-0.10,0.42,0.10,29.25,1.75,-28.25
2025-12-15 21:06:48.488,0,1015.58,-19.39,254.62,-0.50,-1.12,-0.50,-0.06,9.39,0.04,0.86,0.10,28.19,1.38,-26.69
2025-12-15 21:06:48.604,0,1015.59,-19.43,256.75,-4.62,-0.75,-0.95,-0.10,10.75,-0.07,0.36,0.11,30.38,1.00,-25.38
2025-12-15 21:06:48.716,0,1015.59,-19.45,258.38,-5.00,-0.19,-0.50,-0.12,8.50,-0.10,-0.21,0.12,30.38,1.00,-24.38
2025-12-15 21:06:48.831,0,1015.59,-19.45,257.50,-3.62,1.19,0.00,-0.22,9.24,-0.32,-0.12,0.11,29.69,0.56,-25.56
2025-12-15 21:06:48.946,0,1015.59,-19.46,256.81,-4.50,1.19,-0.22,-0.37,10.93,0.40,0.41,0.12,29.00,-0.50,-26.00
2025-12-15 21:06:49.062,0,1015.59,-19.45,258.25,-7.44,-2.12,-0.55,-0.03,8.35,0.39,0.39,0.09,30.00,-2.00,-25.50
2025-12-15 21:06:49.174,0,1015.59,-19.46,259.06,-8.75,-3.31,-0.70,-0.15,9.58,0.11,0.00,0.10,30.75,-2.69,-22.06
2025-12-15 21:06:49.296,0,1015.59,-19.46,259.44,-6.88,-3.75,-0.54,-0.06,9.85,-0.02,-0.38,0.10,30.00,-4.56,-23.38
2025-12-15 21:06:49.410,0,1015.59,-19.47,259.56,-3.62,-2.06,-0.39,0.03,11.25,-0.41,-0.45,0.09,29.00,-4.25,-24.25
2025-12-15 21:06:49.523,0,1015.59,-19.47,259.75,-1.19,0.69,-0.25,-0.18,7.71,-0.39,-0.36,0.07,29.00,-3.06,-25.88
2025-12-15 21:06:49.637,0,1015.59,-19.44,259.75,0.38,2.50,-0.14,-0.47,9.36,0.07,-0.13,0.06,27.50,-3.06,-26.75
2025-12-15 21:06:49.754,0,1015.59,-19.43,259.69,0.31,-0.19,-0.38,0.02,8.88,0.48,0.10,0.05,27.06,-2.38,-27.56
2025-12-15 21:06:49.866,0,1015.59,-19.44,259.81,-0.38,-0.56,-0.45,-0.02,8.83,-0.25,0.09,0.04,28.56,-3.75,-26.25
2025-12-15 21:06:49.979,0,1015.59,-19.44,259.75,-1.00,1.19,-0.34,-0.04,9.46,-0.23,0.07,0.05,29.00,-3.75,-26.75
2025-12-15 21:06:50.093,0,1015.59,-19.45,260.19,-1.88,3.81,-0.21,-0.16,11.42,-0.52,0.22,0.04,28.19,-1.19,-27.19
2025-12-15 21:06:50.209,0,1015.59,-19.48,260.19,-4.12,6.44,-0.39,-0.19,9.91,-0.40,0.45,0.04,30.75,-1.19,-25.88
2025-12-15 21:06:50.321,0,1015.59,-19.47,260.19,-6.81,8.12,-0.53,-0.26,7.97,-0.13,0.36,0.04,30.75,-0.50,-25.50
2025-12-15 21:06:50.435,0,1015.59,-19.45,258.88,-8.31,7.75,-0.80,-0.59,9.76,0.16,0.04,0.48,33.00,-1.25,-25.06
2025-12-15 21:06:50.550,0,1015.59,-19.45,253.69,-7.44,5.31,-0.83,-0.14,9.73,0.27,-0.57,1.02,32.56,-1.25,-25.88
2025-12-15 21:06:50.665,0,1015.59,-19.46,246.88,-3.25,2.94,-0.13,-0.23,9.34,0.27,-0.71,1.02,29.25,-8.25,-27.56
2025-12-15 21:06:50.777,0,1015.59,-19.45,240.44,-0.75,0.62,0.05,-0.12,9.47,0.38,-0.17,1.01,25.56,-12.69,-28.88
2025-12-15 21:06:50.892,0,1015.59,-19.44,233.88,-1.12,-0.94,-0.43,0.00,9.80,0.08,0.19,1.00,22.69,-16.75,-28.88
2025-12-15 21:06:51.006,0,1015.59,-19.43,227.00,-1.75,-0.62,-0.63,-0.09,9.81,-0.17,-0.06,0.99,22.75,-19.75,-28.19
2025-12-15 21:06:51.120,0,1015.59,-19.44,220.62,-0.44,0.31,-0.53,-0.19,10.29,-0.16,-0.34,0.97,19.19,-22.38,-28.06
2025-12-15 21:06:51.232,0,1015.58,-19.42,214.00,1.56,0.94,0.01,-0.17,9.04,-0.01,-0.24,0.95,15.25,-22.88,-29.88
2025-12-15 21:06:51.347,0,1015.58,-19.40,207.19,1.12,1.44,0.11,-0.03,8.97,-0.17,0.35,0.94,12.69,-24.50,-29.88
2025-12-15 21:06:51.463,0,1015.58,-19.38,201.44,-2.50,2.94,-0.51,-0.15,9.66,-0.26,0.62,0.93,10.88,-25.88,-29.50
2025-12-15 21:06:51.576,0,1015.58,-19.37,195.12,-5.06,3.62,-1.13,-0.31,8.80,0.00,-0.08,0.92,9.38,-26.00,-28.69
2025-12-15 21:06:51.689,0,1015.58,-19.37,188.56,-2.31,2.19,-0.61,-0.20,9.17,0.23,-0.82,0.91,6.75,-26.69,-28.19
2025-12-15 21:06:51.806,0,1015.58,-19.37,182.88,2.31,0.94,0.41,-0.11,9.11,0.18,-0.50,0.90,3.50,-27.06,-29.06
2025-12-15 21:06:51.919,0,1015.58,-19.39,176.56,1.75,-0.19,0.64,-0.17,9.88,0.31,0.71,0.87,-2.00,-27.50,-28.56
2025-12-15 21:06:52.032,0,1015.58,-19.39,171.38,-5.44,-2.38,-0.54,-0.06,9.21,0.28,1.38,-34.94,-2.75,-28.56,-27.69
2025-12-15 21:06:52.150,0,1015.58,-19.40,165.94,-11.75,-4.50,-1.58,-0.10,9.95,0.07,0.44,0.78,-1.69,-28.19,-28.06
2025-12-15 21:06:52.266,0,1015.58,-19.41,161.12,-9.50,-5.44,-0.90,-0.22,8.86,0.06,-0.84,0.76,-4.00,-29.25,-26.75
2025-12-15 21:06:52.379,0,1015.58,-19.42,156.25,-2.94,-6.62,0.23,-0.09,9.20,0.12,-0.78,0.73,-8.00,-28.19,-26.25
2025-12-15 21:06:52.494,0,1015.58,-19.41,151.62,-0.75,-6.38,0.49,0.03,10.38,-0.27,0.29,0.71,-12.88,-27.06,-24.69
2025-12-15 21:06:52.610,0,1015.58,-19.41,146.44,-4.44,-3.62,-0.58,-0.04,9.35,-0.62,0.74,0.70,-12.06,-26.50,-25.88
2025-12-15 21:06:52.723,0,1015.58,-19.42,141.50,-6.75,-0.44,-1.28,-0.23,9.50,-0.49,0.00,0.69,-14.00,-21.19,-29.25
2025-12-15 21:06:52.837,0,1015.58,-19.42,137.00,-3.62,1.75,-0.54,-0.08,10.82,-0.37,-0.88,0.65,-14.75,-19.00,-31.00
2025-12-15 21:06:52.953,0,1015.58,-19.41,132.44,1.44,5.00,0.39,-0.24,9.15,-0.53,-0.55,0.60,-18.50,-16.06,-28.88
2025-12-15 21:06:53.071,0,1015.58,-19.41,128.56,0.75,6.81,0.22,-0.38,9.30,0.06,0.53,0.55,-21.88,-13.06,-28.88
2025-12-15 21:06:53.195,0,1015.58,-19.40,125.44,-4.62,5.31,-0.63,-0.13,8.91,0.17,0.74,0.50,-18.56,-12.69,-29.75
2025-12-15 21:06:53.312,0,1015.58,-19.39,122.38,-7.50,3.50,-1.02,-0.18,9.29,0.18,-0.01,0.47,-18.56,-12.56,-30.56
2025-12-15 21:06:53.426,0,1015.58,-19.39,120.00,-5.31,1.12,-0.43,-0.30,9.28,0.53,-0.50,0.45,-18.50,-12.50,-29.75
2025-12-15 21:06:53.543,0,1015.58,-19.40,117.31,-2.75,-3.00,0.16,-0.02,9.41,0.59,-0.09,0.43,-21.00,-13.69,-29.38
2025-12-15 21:06:53.660,0,1015.58,-19.39,115.25,-3.31,-4.25,-0.44,-0.09,10.12,0.13,0.45,0.39,-21.00,-14.75,-29.00
2025-12-15 21:06:53.781,0,1015.58,-19.39,113.19,-5.31,-5.56,-1.03,-0.21,9.32,0.20,0.01,0.36,-21.38,-14.38,-29.88
2025-12-15 21:06:53.894,0,1015.58,-19.38,111.12,-2.94,-6.12,-0.67,-0.14,8.96,0.34,-0.70,0.33,-22.06,-15.06,-31.19
2025-12-15 21:06:54.008,0,1015.58,-19.38,109.44,1.62,-6.56,0.14,-0.04,9.23,0.14,-0.61,0.31,-25.38,-15.50,-29.50
2025-12-15 21:06:54.123,0,1015.58,-19.40,108.56,3.12,-5.56,0.26,-0.14,9.49,0.08,0.21,0.29,-28.69,-14.75,-27.88
2025-12-15 21:06:54.238,0,1015.58,-19.38,107.69,0.00,-5.31,-0.54,0.02,8.87,-0.13,0.63,0.27,-27.06,-14.00,-27.56
2025-12-15 21:06:54.353,0,1015.58,-19.41,106.31,-2.00,-3.31,-0.99,0.15,9.53,-0.57,-0.06,0.58,-27.50,-13.69,-29.69
2025-12-15 21:06:54.467,0,1015.58,-19.41,100.81,0.25,1.44,-0.42,-0.18,10.82,-0.76,-0.49,1.05,-27.75,-9.56,-29.56
2025-12-15 21:06:54.580,0,1015.58,-19.42,94.69,1.56,5.44,0.31,-0.19,11.31,-0.48,0.02,1.03,-30.00,-3.00,-27.88
2025-12-15 21:06:54.696,0,1015.59,-19.43,88.94,-2.31,8.12,-0.10,-0.10,9.21,-0.40,0.76,1.01,-30.00,-0.75,-28.25
2025-12-15 21:06:54.811,0,1015.59,-19.43,83.75,-7.81,10.44,-0.82,-0.19,9.48,-0.46,0.55,0.99,-27.38,3.38,-28.69
2025-12-15 21:06:54.928,0,1015.59,-19.44,77.75,-10.44,12.00,-0.62,-0.36,9.32,-0.26,-0.10,0.95,-24.19,6.75,-29.38
2025-12-15 21:06:55.040,0,1015.58,-19.41,72.00,-9.88,9.44,-0.35,-0.23,8.83,0.51,-0.22,0.92,-23.25,8.69,-28.50
2025-12-15 21:06:55.155,0,1015.58,-19.36,66.75,-9.06,4.94,-0.36,-0.18,9.54,0.64,-0.12,0.88,-23.19,10.50,-28.50
2025-12-15 21:06:55.269,0,1015.58,-19.37,62.19,-7.94,0.62,-0.45,0.00,9.08,0.20,-0.07,0.84,-22.06,10.88,-28.00
2025-12-15 21:06:55.381,0,1015.58,-19.36,57.94,-6.31,-0.25,-0.53,-0.15,8.91,0.10,-0.21,0.81,-21.38,13.00,-29.69
2025-12-15 21:06:55.493,0,1015.58,-19.36,53.25,-4.00,-0.94,-0.58,-0.20,9.10,0.09,-0.48,0.76,-20.56,15.25,-29.69
2025-12-15 21:06:55.609,0,1015.58,-19.36,48.44,0.00,-1.38,-0.47,-0.03,10.04,-0.08,-0.68,0.71,-21.75,17.00,-29.56
2025-12-15 21:06:55.723,0,1015.58,-19.37,44.25,3.75,-0.06,-0.27,-0.16,9.27,-0.19,-0.64,0.67,-21.88,21.06,-27.50
2025-12-15 21:06:55.836,0,1015.58,-19.37,40.31,5.06,1.25,-0.05,-0.18,9.13,-0.09,-0.36,0.61,-23.00,22.88,-25.88
2025-12-15 21:06:55.949,0,1015.58,-19.38,36.31,4.56,2.44,0.01,-0.07,9.89,-0.28,0.10,0.57,-21.56,24.75,-25.38
2025-12-15 21:06:56.063,0,1015.58,-19.41,33.25,2.19,4.19,-0.29,-0.21,9.38,-0.22,0.45,0.52,-20.06,25.50,-25.38
2025-12-15 21:06:56.179,0,1015.58,-19.41,30.38,-1.19,4.25,-0.53,-0.21,9.46,0.09,0.39,0.48,-16.75,29.19,-25.88
2025-12-15 21:06:56.294,0,1015.59,-19.44,27.44,-3.38,2.75,-0.49,-0.21,9.48,0.24,0.18,0.43,-15.00,29.50,-25.88
2025-12-15 21:06:56.410,0,1015.59,-19.45,25.06,-4.44,0.75,-0.16,-0.13,10.23,0.29,0.27,0.38,-12.06,29.19,-26.69
2025-12-15 21:06:56.525,0,1015.59,-19.44,22.81,-6.81,-1.31,-0.38,-0.19,9.39,0.33,0.51,0.32,-10.19,28.50,-27.06
2025-12-15 21:06:56.637,0,1015.59,-19.47,21.00,-9.19,-3.94,-0.81,-0.19,10.07,0.50,0.30,0.27,-7.69,27.69,-30.56
2025-12-15 21:06:56.750,0,1015.59,-19.47,19.81,-8.94,-6.69,-0.44,0.00,10.22,0.25,-0.19,0.22,-5.88,25.50,-29.69
2025-12-15 21:06:56.866,0,1015.59,-19.47,18.50,-8.06,-7.56,-0.01,-0.09,8.54,-0.01,0.11,0.17,-6.56,25.19,-30.69
2025-12-15 21:06:56.982,0,1015.59,-19.47,17.38,-9.38,-7.75,-0.50,-0.20,9.79,0.02,0.33,0.12,-2.50,23.69,-32.38
2025-12-15 21:06:57.095,0,1015.59,-19.48,16.25,-10.31,-8.00,-0.83,0.02,9.36,-0.05,-0.05,0.08,-2.06,24.06,-32.75
2025-12-15 21:06:57.209,0,1015.59,-19.48,15.94,-7.88,-5.62,-0.72,-0.14,9.61,-0.49,-0.68,0.02,-2.50,25.25,-31.88
2025-12-15 21:06:57.324,0,1015.59,-19.47,16.12,-2.31,-2.56,-0.38,-0.21,9.91,-0.45,-0.92,-0.06,-4.69,26.25,-31.88
2025-12-15 21:06:57.437,0,1015.59,-19.48,16.69,2.19,-0.88,0.25,-0.14,9.95,-0.15,-0.47,-0.13,-9.19,29.25,-28.56
2025-12-15 21:06:57.551,0,1015.59,-19.48,17.62,2.31,0.50,0.24,-0.02,9.06,-0.41,0.42,-0.18,-10.19,29.50,-27.75
2025-12-15 21:06:57.666,0,1015.59,-19.44,18.94,-2.00,3.00,-0.57,-0.28,9.17,-0.27,0.74,-0.21,-10.06,31.00,-27.38
2025-12-15 21:06:57.781,0,1015.59,-19.44,20.38,-4.38,3.19,-1.25,-0.20,9.49,0.18,-0.03,-0.26,-9.38,31.75,-28.25
2025-12-15 21:06:57.894,0,1015.59,-19.45,22.62,-1.44,2.00,-0.44,0.09,9.54,0.06,-0.83,-0.44,-10.88,31.06,-27.00
2025-12-15 21:06:58.007,0,1015.59,-19.44,26.25,2.81,2.50,0.61,-0.14,9.53,-0.12,-0.27,-0.63,-13.38,30.75,-25.69
2025-12-15 21:06:58.122,0,1015.59,-19.42,30.25,1.44,1.50,0.56,-0.02,9.57,0.25,0.76,-0.62,-16.38,28.88,-24.75
2025-12-15 21:06:58.238,0,1015.59,-19.42,34.19,-4.25,0.81,-0.45,-0.07,9.31,-0.04,0.87,-0.42,-18.00,27.50,-27.38
2025-12-15 21:06:58.352,0,1015.58,-19.41,36.12,-7.25,0.75,-0.77,-0.18,9.01,0.14,0.05,-0.17,-16.38,27.06,-28.69
2025-12-15 21:06:58.469,0,1015.58,-19.41,36.75,-5.06,0.69,-0.53,-0.14,9.07,-0.06,-0.55,-0.05,-16.00,27.06,-29.06
2025-12-15 21:06:58.585,0,1015.58,-19.40,37.12,-1.88,0.94,0.55,-0.42,9.42,0.01,-0.27,0.13,-17.50,26.00,-27.38
2025-12-15 21:06:58.699,0,1015.58,-19.41,33.94,-2.19,0.94,0.09,-0.33,9.32,0.06,0.42,0.74,-18.25,27.06,-27.38
2025-12-15 21:06:58.815,0,1015.58,-19.41,28.88,-4.88,-0.19,-0.37,0.07,9.64,0.00,0.42,0.92,-15.69,28.19,-27.75
