Time,Phase,Pressure,Altitude,Heading,Roll,Pitch,AccelX,AccelY,AccelZ,GyroX,GyroY,GyroZ,MagX,MagY,MagZ
2025-12-15 20:22:17.371,0,1015.51,-18.78,133.19,-0.19,2.44,-0.14,-0.54,9.45,-0.06,-0.09,0.63,24.38,2.00,-59.88
2025-12-15 20:22:17.492,0,1015.51,-18.76,128.00,-0.19,2.38,-0.10,-0.47,9.30,0.05,0.01,0.89,27.06,1.69,-59.25
2025-12-15 20:22:17.608,0,1015.51,-18.78,121.50,-0.75,2.25,-0.27,-0.39,9.32,-0.02,0.03,1.04,24.88,-1.25,-58.69
2025-12-15 20:22:17.726,0,1015.51,-18.79,114.88,-1.12,2.00,-0.39,-0.33,9.32,0.09,-0.00,1.15,25.69,-3.38,-59.06
2025-12-15 20:22:17.843,0,1015.51,-18.79,106.88,-1.44,1.50,-0.38,-0.19,9.60,-0.02,0.02,1.27,24.75,-6.88,-57.38
2025-12-15 20:22:17.956,0,1015.51,-18.78,98.75,-1.88,1.75,-0.46,-0.36,9.38,-0.08,0.03,1.40,22.50,-8.06,-57.19
2025-12-15 20:22:18.072,0,1015.51,-18.79,89.12,-2.12,1.50,-0.49,-0.39,9.44,0.07,-0.07,1.46,21.56,-10.75,-59.06
2025-12-15 20:22:18.188,0,1015.51,-18.78,80.38,-1.50,0.81,-0.37,-0.26,9.51,0.00,-0.16,1.40,17.25,-14.88,-57.75
2025-12-15 20:22:18.301,0,1015.51,-18.79,72.12,-0.81,0.94,-0.26,-0.37,9.33,-0.03,-0.09,1.26,15.25,-16.75,-59.25
2025-12-15 20:22:18.413,0,1015.51,-18.78,64.62,-0.69,0.69,-0.26,-0.26,9.40,0.07,-0.00,1.00,11.88,-17.38,-58.56
2025-12-15 20:22:18.529,0,1015.51,-18.78,59.44,-1.06,0.81,-0.32,-0.25,9.15,-0.10,0.06,0.70,10.69,-19.25,-57.56
2025-12-15 20:22:18.644,0,1015.51,-18.78,55.56,-1.56,1.06,-0.28,-0.18,9.30,0.00,0.06,0.46,9.38,-19.69,-57.56
2025-12-15 20:22:18.758,0,1015.51,-18.80,53.31,-2.00,1.25,-0.35,-0.22,9.72,-0.05,0.07,0.28,7.88,-19.88,-58.50
2025-12-15 20:22:18.873,0,1015.51,-18.81,51.88,-2.38,1.31,-0.40,-0.27,9.60,-0.00,0.02,0.15,6.50,-19.25,-56.75
2025-12-15 20:22:18.987,0,1015.51,-18.82,51.25,-2.31,0.75,-0.36,-0.20,9.67,0.14,-0.03,0.07,7.50,-19.25,-57.19
2025-12-15 20:22:19.100,0,1015.51,-18.83,51.12,-2.19,0.38,-0.39,-0.22,9.37,-0.00,-0.01,-0.01,7.19,-19.25,-57.19
2025-12-15 20:22:19.217,0,1015.51,-18.80,51.31,-2.00,0.44,-0.36,-0.21,9.29,0.01,-0.05,-0.07,7.88,-20.00,-57.06
2025-12-15 20:22:19.332,0,1015.51,-18.80,51.88,-1.88,0.44,-0.32,-0.23,9.03,0.02,-0.01,-0.10,6.38,-18.88,-57.38
2025-12-15 20:22:19.448,0,1015.51,-18.82,52.62,-2.00,0.31,-0.36,-0.20,10.14,0.04,0.04,-0.11,8.19,-18.88,-56.88
2025-12-15 20:22:19.561,0,1015.51,-18.83,53.25,-2.31,0.12,-0.43,-0.20,9.76,0.02,0.04,-0.10,7.75,-18.50,-58.06
2025-12-15 20:22:19.675,0,1015.51,-18.82,53.94,-2.38,0.00,-0.35,-0.20,9.27,0.07,0.01,-0.09,7.38,-18.88,-55.38
2025-12-15 20:22:19.790,0,1015.51,-18.80,54.50,-2.56,-0.25,-0.34,-0.17,9.46,0.04,0.05,-0.08,8.88,-17.38,-55.75
2025-12-15 20:22:19.903,0,1015.51,-18.80,54.88,-2.94,-0.19,-0.36,-0.15,9.50,-0.05,0.07,-0.05,7.75,-18.50,-55.38
2025-12-15 20:22:20.016,0,1015.51,-18.81,55.12,-3.31,0.06,-0.39,-0.21,9.87,0.01,0.08,-0.03,10.06,-19.25,-55.06
2025-12-15 20:22:20.131,0,1015.51,-18.81,55.19,-3.62,0.12,-0.41,-0.13,9.74,-0.06,0.07,0.01,10.50,-19.25,-54.25
2025-12-15 20:22:20.246,0,1015.51,-18.81,55.00,-3.88,0.88,-0.44,-0.19,8.83,-0.17,-0.00,0.04,10.06,-20.38,-52.19
2025-12-15 20:22:20.359,0,1015.51,-18.82,54.56,-3.50,1.94,-0.44,-0.19,9.41,-0.16,-0.11,0.08,10.50,-20.69,-53.56
2025-12-15 20:22:20.476,0,1015.51,-18.78,53.94,-2.75,3.00,-0.35,-0.20,10.14,-0.17,-0.12,0.12,10.88,-20.00,-52.19
2025-12-15 20:22:20.590,0,1015.51,-18.81,53.00,-2.06,3.56,-0.35,-0.23,9.29,-0.04,-0.09,0.15,10.75,-21.06,-52.50
2025-12-15 20:22:20.703,0,1015.51,-18.81,51.94,-1.62,3.44,-0.38,-0.16,9.20,-0.04,-0.09,0.19,8.56,-22.19,-49.19
2025-12-15 20:22:20.819,0,1015.51,-18.80,50.50,-1.19,3.50,-0.33,-0.23,9.39,-0.08,-0.10,0.23,10.00,-23.00,-49.75
2025-12-15 20:22:20.932,0,1015.51,-18.80,49.00,-1.00,3.12,-0.29,-0.26,9.07,0.12,-0.03,0.26,8.19,-22.88,-49.25
2025-12-15 20:22:21.048,0,1015.51,-18.81,47.31,-1.12,1.75,-0.34,-0.16,9.77,0.22,0.05,0.29,7.19,-24.69,-49.00
2025-12-15 20:22:21.160,0,1015.51,-18.82,45.25,-1.62,1.00,-0.40,-0.12,9.37,-0.02,0.07,0.32,5.00,-23.56,-47.56
2025-12-15 20:22:21.274,0,1015.51,-18.83,43.25,-2.06,1.12,-0.37,-0.29,9.25,0.02,0.05,0.34,5.69,-24.38,-48.75
2025-12-15 20:22:21.389,0,1015.51,-18.82,41.06,-2.31,0.25,-0.41,-0.14,9.58,0.21,0.01,0.36,4.88,-24.00,-47.75
2025-12-15 20:22:21.504,0,1015.51,-18.82,38.56,-2.06,-0.12,-0.49,-0.06,9.73,-0.13,35.66,0.39,2.69,-24.00,-48.19
2025-12-15 20:22:21.618,0,1015.51,-18.82,36.12,-1.19,0.94,-0.40,-0.30,9.47,-0.13,-0.22,0.40,2.25,-23.00,-49.38
2025-12-15 20:22:21.732,0,1015.51,-18.82,33.44,0.00,0.69,-0.26,-0.24,9.57,0.18,-0.18,0.41,-0.25,-21.75,-49.50
2025-12-15 20:22:21.846,0,1015.51,-18.84,30.88,0.38,0.31,-0.24,0.00,9.44,-0.11,-0.03,0.42,-2.19,-22.19,-49.69
2025-12-15 20:22:21.959,0,1015.52,-18.84,28.50,0.06,2.12,-0.40,-0.24,8.85,-0.38,0.03,0.29,-4.75,-21.75,-50.25
2025-12-15 20:22:22.074,0,1015.52,-18.86,26.75,-0.44,3.62,-0.37,-0.33,8.79,-0.15,-0.01,0.25,-4.75,-18.56,-51.88
2025-12-15 20:22:22.189,0,1015.52,-18.86,25.25,-0.62,3.31,-0.21,-0.23,9.92,0.18,0.05,0.25,-4.38,-18.25,-54.56
2025-12-15 20:22:22.304,0,1015.52,-18.89,23.62,-1.69,2.31,-0.28,-0.13,10.49,0.07,0.23,0.25,-6.69,-16.75,-56.25
2025-12-15 20:22:22.419,0,1015.52,-18.89,22.12,-3.25,1.75,-0.48,-0.30,9.39,0.19,0.21,0.24,-5.00,-18.00,-58.75
2025-12-15 20:22:22.535,0,1015.52,-18.89,20.69,-4.06,-0.38,-0.48,-0.22,9.20,0.45,0.04,0.23,-5.69,-16.88,-60.00
2025-12-15 20:22:22.652,0,1015.52,-18.88,19.44,-3.75,-2.38,-0.33,-0.11,9.71,0.27,-0.02,0.21,-7.00,-18.38,-58.88
2025-12-15 20:22:22.767,0,1015.52,-18.87,18.12,-3.38,-3.00,-0.24,-0.25,9.78,0.23,0.09,0.20,-7.50,-20.56,-56.56
2025-12-15 20:22:22.883,0,1015.52,-18.88,16.94,-3.81,-3.75,-0.38,-0.19,9.55,0.36,0.17,0.18,-9.00,-22.38,-56.50
2025-12-15 20:22:22.998,0,1015.52,-18.88,16.00,-4.19,-4.44,-0.49,-0.08,9.36,0.21,0.08,0.15,-9.25,-23.88,-53.69
2025-12-15 20:22:23.114,0,1015.52,-18.88,15.19,-3.88,-3.62,-0.44,-0.14,9.45,-0.07,-0.07,0.14,-10.38,-25.38,-53.00
2025-12-15 20:22:23.229,0,1015.52,-18.88,14.38,-3.00,-2.31,-0.29,-0.16,9.54,-0.08,-0.08,0.11,-9.00,-25.38,-53.50
2025-12-15 20:22:23.346,0,1015.52,-18.87,13.69,-2.62,-1.06,-0.27,-0.05,9.47,-0.21,0.04,0.09,-11.19,-24.56,-54.00
2025-12-15 20:22:23.464,0,1015.52,-18.88,13.19,-3.12,0.88,-0.40,-0.22,9.55,-0.36,0.11,0.07,-10.75,-24.19,-54.38
2025-12-15 20:22:23.578,0,1015.52,-18.87,12.75,-3.50,2.81,-0.50,-0.16,9.40,-0.29,-0.00,0.05,-10.00,-22.88,-55.38
2025-12-15 20:22:23.697,0,1015.52,-18.88,12.38,-2.81,4.69,-0.47,-0.12,9.42,-0.46,-0.18,0.02,-10.75,-20.25,-55.69
2025-12-15 20:22:23.810,0,1015.52,-18.87,12.19,-1.62,6.44,-0.28,-0.29,9.70,-0.41,-0.19,-0.01,-11.50,-17.38,-56.06
2025-12-15 20:22:23.923,0,1015.52,-18.88,12.25,-1.00,6.69,-0.24,-0.16,9.78,-0.24,-0.02,-0.03,-10.00,-16.56,-55.56
2025-12-15 20:22:24.039,0,1015.52,-18.89,12.44,-1.38,6.56,-0.42,-0.18,9.38,-0.27,0.04,-0.05,-11.88,-15.50,-54.25
2025-12-15 20:22:24.155,0,1015.52,-18.90,12.75,-1.56,6.44,-0.49,-0.30,9.27,-0.07,-0.10,-0.07,-11.19,-14.69,-53.25
2025-12-15 20:22:24.268,0,1015.52,-18.91,13.12,-0.88,5.12,-0.40,-0.23,9.23,0.18,-0.23,-0.09,-12.69,-15.00,-52.00
2025-12-15 20:22:24.380,0,1015.52,-18.89,13.81,0.12,3.12,-0.24,-0.24,9.68,0.21,-0.15,-0.14,-13.69,-14.88,-50.50
2025-12-15 20:22:24.496,0,1015.52,-18.89,15.44,0.19,1.81,-0.30,-0.54,9.21,0.25,0.10,-0.56,-14.19,-17.19,-50.88
2025-12-15 20:22:24.610,0,1015.52,-18.89,22.62,-0.31,0.00,-0.25,-0.58,9.26,0.39,-0.04,-1.63,-12.75,-19.38,-51.50
2025-12-15 20:22:24.725,0,1015.52,-18.89,35.62,0.12,-1.88,0.18,-0.19,9.66,0.17,-0.06,-2.47,-9.69,-21.75,-51.00
2025-12-15 20:22:24.840,0,1015.52,-18.89,52.50,-1.69,-2.06,0.17,-0.16,9.76,0.00,0.49,-2.56,-3.69,-24.38,-49.75
2025-12-15 20:22:24.954,0,1015.52,-18.91,67.94,-6.25,-0.69,-0.50,-0.25,9.42,-0.08,0.72,-2.52,5.56,-25.25,-50.38
2025-12-15 20:22:25.067,0,1015.52,-18.92,83.19,-9.19,1.00,-0.86,-0.21,9.43,0.22,0.18,-2.48,16.00,-20.00,-49.88
2025-12-15 20:22:25.179,0,1015.52,-18.91,98.31,-7.50,2.69,-0.51,-0.07,9.43,-0.09,-0.48,-2.44,21.25,-16.06,-48.00
2025-12-15 20:22:25.294,0,1015.52,-18.91,114.19,-3.00,5.31,0.03,-0.18,9.33,-0.22,-0.43,-2.38,23.88,-11.06,-48.88
2025-12-15 20:22:25.411,0,1015.52,-18.91,129.81,-0.31,6.69,0.09,-0.31,9.50,-0.00,0.10,-2.33,24.06,-2.00,-50.56
2025-12-15 20:22:25.524,0,1015.52,-18.92,143.94,-0.38,6.06,-0.41,-0.24,9.73,0.17,0.34,-2.27,24.00,3.38,-51.06
2025-12-15 20:22:25.639,0,1015.52,-18.92,157.69,-0.31,5.06,-0.61,-0.22,9.40,0.20,-0.01,-2.21,22.50,7.38,-49.88
2025-12-15 20:22:25.754,0,1015.52,-18.92,172.12,2.06,3.31,-0.24,-0.14,9.49,0.23,-0.36,-2.13,19.56,12.69,-50.69
2025-12-15 20:22:25.893,0,1015.52,-18.91,188.38,4.56,1.25,0.17,-0.10,9.53,-0.02,-0.02,-2.06,15.06,16.75,-51.06
2025-12-15 20:22:26.011,0,1015.52,-18.92,200.81,3.12,0.88,-0.07,-0.26,9.39,-0.05,0.52,-2.00,11.69,18.88,-51.06
2025-12-15 20:22:26.124,0,1015.52,-18.92,213.94,-0.44,0.25,-0.56,-0.26,9.24,0.15,0.52,-1.94,8.69,22.50,-49.56
2025-12-15 20:22:26.238,0,1015.52,-18.89,225.69,-2.00,-0.44,-0.71,-0.11,9.62,0.10,-0.07,-1.90,5.06,22.19,-49.88
2025-12-15 20:22:26.353,0,1015.52,-18.90,237.12,-0.50,-0.06,-0.27,-0.18,9.65,-0.13,-0.38,-1.85,1.75,23.00,-50.56
2025-12-15 20:22:26.466,0,1015.52,-18.91,249.31,1.38,0.56,0.08,-0.22,9.30,-0.10,-0.10,-1.81,-4.38,23.38,-48.69
2025-12-15 20:22:26.579,0,1015.52,-18.92,260.25,0.56,0.44,-0.13,-0.22,9.27,0.03,0.32,-1.77,-8.50,21.50,-48.50
2025-12-15 20:22:26.695,0,1015.52,-18.90,271.94,-1.62,0.12,-0.64,-0.22,9.64,0.10,0.25,-1.74,-11.75,19.38,-49.69
2025-12-15 20:22:26.809,0,1015.52,-18.91,282.38,-1.44,-0.62,-0.66,-0.14,9.69,0.25,-0.31,-1.69,-15.50,17.50,-51.25
2025-12-15 20:22:26.922,0,1015.52,-18.92,292.62,1.25,-1.50,-0.19,-0.12,9.27,0.09,-0.56,-1.65,-21.38,11.25,-50.38
2025-12-15 20:22:27.034,0,1015.52,-18.92,302.56,3.19,-2.06,0.24,-0.23,9.43,0.06,-0.10,-1.60,-25.50,8.38,-49.38
2025-12-15 20:22:27.149,0,1015.52,-18.92,313.06,1.25,-3.00,-0.08,-0.23,9.58,0.16,0.45,-1.57,-24.56,3.38,-50.00
2025-12-15 20:22:27.263,0,1015.52,-18.92,322.38,-2.31,-3.69,-0.67,-0.20,9.63,0.19,0.35,-1.53,-21.75,-2.56,-51.00
2025-12-15 20:22:27.378,0,1015.53,-18.93,332.50,-3.56,-3.88,-0.64,-0.12,9.53,0.18,-0.22,-1.49,-20.56,-7.38,-52.19
2025-12-15 20:22:27.491,0,1015.53,-18.93,341.56,-1.75,-3.50,-0.21,-0.15,9.50,0.00,-0.43,-1.44,-19.19,-9.56,-50.06
2025-12-15 20:22:27.606,0,1015.52,-18.92,0.00,0.00,0.00,0.13,-0.14,9.39,-0.08,-0.02,-1.40,-18.75,-13.75,-51.19
2025-12-15 20:22:27.718,0,1015.52,-18.92,359.44,-2.19,-1.31,-0.21,-0.22,9.73,-0.15,0.42,-1.35,-14.00,-16.75,-51.06
2025-12-15 20:22:27.831,0,1015.52,-18.92,7.50,-4.69,-0.31,-0.66,-0.25,9.27,0.03,0.29,-1.31,-10.25,-18.38,-49.88
2025-12-15 20:22:27.947,0,1015.53,-18.93,15.38,-4.62,-0.19,-0.61,-0.12,9.38,0.04,-0.30,-1.26,-8.50,-18.69,-49.06
2025-12-15 20:22:28.063,0,1015.52,-18.91,23.62,-1.81,0.44,-0.16,-0.20,8.90,-0.06,-0.47,-1.21,-6.69,-20.19,-49.50
2025-12-15 20:22:28.175,0,1015.52,-18.91,30.81,0.06,0.88,0.11,-0.18,9.75,-0.07,-0.04,-1.16,-5.19,-19.88,-49.69
2025-12-15 20:22:28.290,0,1015.52,-18.92,38.44,-0.94,1.56,-0.33,-0.17,9.72,-0.12,0.33,-1.12,-2.25,-20.56,-50.06
2025-12-15 20:22:28.406,0,1015.53,-18.93,45.12,-2.31,2.19,-0.74,-0.25,9.32,0.06,0.03,-1.07,1.38,-20.69,-50.38
2025-12-15 20:22:28.522,0,1015.53,-18.93,52.00,-0.56,1.62,-0.53,-0.13,9.44,0.05,-0.52,-1.02,3.56,-20.56,-50.25
2025-12-15 20:22:28.635,0,1015.53,-18.93,58.00,2.50,1.69,0.04,-0.19,9.56,-0.09,-0.41,-0.97,3.56,-20.88,-48.75
2025-12-15 20:22:28.753,0,1015.53,-18.95,64.25,3.25,1.38,0.20,-0.26,9.44,0.10,0.20,-0.92,3.06,-22.00,-50.25
2025-12-15 20:22:28.877,0,1015.53,-18.93,70.19,0.06,0.06,-0.34,-0.15,9.46,0.15,0.58,-0.87,8.19,-22.75,-48.88
2025-12-15 20:22:28.992,0,1015.53,-18.94,75.81,-3.12,-0.19,-0.74,-0.18,9.79,0.05,0.25,-0.82,13.00,-23.19,-48.06
2025-12-15 20:22:29.108,0,1015.53,-18.94,80.69,-3.00,-0.50,-0.47,-0.15,9.18,0.14,-0.22,-0.77,14.69,-23.50,-47.19
2025-12-15 20:22:29.227,0,1015.53,-18.95,85.69,-1.75,-0.50,0.00,-0.07,9.06,-0.08,-0.04,-0.71,17.56,-22.00,-47.25
2025-12-15 20:22:29.342,0,1015.52,-18.92,90.25,-2.75,0.81,-0.11,-0.22,9.63,-0.22,0.36,-0.66,19.50,-20.88,-47.69
2025-12-15 20:22:29.456,0,1015.53,-18.93,94.12,-5.12,1.88,-0.55,-0.25,9.26,-0.03,0.37,-0.61,21.19,-17.56,-48.06
2025-12-15 20:22:29.571,0,1015.53,-18.94,97.75,-5.75,2.12,-0.71,-0.12,9.80,-0.05,-0.12,-0.56,23.50,-15.75,-48.25
2025-12-15 20:22:29.684,0,1015.53,-18.94,101.25,-3.38,3.00,-0.38,-0.22,9.59,-0.15,-0.42,-0.52,22.69,-13.56,-48.56
2025-12-15 20:22:29.797,0,1015.53,-18.94,104.12,-1.06,3.19,0.00,-0.25,9.82,0.05,-0.15,-0.46,24.06,-12.06,-49.75
2025-12-15 20:22:29.914,0,1015.53,-18.95,107.06,-1.12,2.69,-0.19,-0.15,8.76,0.07,0.18,-0.41,21.56,-9.88,-49.75
2025-12-15 20:22:30.029,0,1015.52,-18.92,109.44,-2.25,2.56,-0.56,-0.17,9.27,-0.01,0.13,-0.36,20.88,-9.06,-50.00
2025-12-15 20:22:30.142,0,1015.53,-18.93,111.50,-1.81,2.06,-0.61,-0.21,9.70,0.17,-0.33,-0.31,21.69,-7.19,-48.75
2025-12-15 20:22:30.256,0,1015.53,-18.93,113.38,0.75,0.81,-0.24,-0.14,9.52,0.15,-0.49,-0.12,20.19,-7.56,-49.56
2025-12-15 20:22:30.370,0,1015.53,-18.93,114.25,1.81,0.56,-0.06,-0.44,9.66,-0.16,0.58,0.32,17.38,-8.25,-50.19
2025-12-15 20:22:30.485,0,1015.52,-18.92,111.06,-3.38,1.19,-0.83,-0.30,8.80,0.18,0.60,0.51,18.75,-8.00,-49.50
2025-12-15 20:22:30.600,0,1015.53,-18.93,107.94,-4.19,-0.50,-1.01,0.05,9.25,-0.13,-0.37,0.54,20.00,-10.19,-46.56
2025-12-15 20:22:30.715,0,1015.53,-18.93,103.62,-2.31,0.31,-0.56,-0.34,9.04,0.10,0.23,0.85,18.06,-10.19,-46.25
2025-12-15 20:22:30.828,0,1015.52,-18.92,98.38,-2.31,-1.06,-0.66,-0.03,9.84,0.08,-0.21,0.88,17.38,-13.50,-45.38
2025-12-15 20:22:30.941,0,1015.52,-18.92,92.94,0.00,-0.62,-0.23,-0.19,9.73,-0.16,-0.41,0.92,14.75,-14.56,-45.00
2025-12-15 20:22:31.056,0,1015.53,-18.93,86.62,1.62,0.00,0.15,-0.33,9.68,0.05,-0.02,0.96,11.75,-15.69,-45.38
2025-12-15 20:22:31.173,0,1015.52,-18.91,80.62,0.19,-0.38,-0.26,-0.09,8.78,-0.06,0.38,1.00,11.69,-16.06,-44.69
2025-12-15 20:22:31.288,0,1015.52,-18.92,73.88,-2.06,0.00,-0.60,-0.14,9.77,-0.10,0.23,1.04,9.19,-16.69,-43.88
2025-12-15 20:22:31.404,0,1015.52,-18.90,67.38,-2.44,0.75,-0.45,-0.29,8.82,-0.18,-0.07,1.08,9.88,-18.25,-43.38
2025-12-15 20:22:31.519,0,1015.52,-18.89,60.06,-1.88,-0.12,-0.12,-0.26,8.21,0.42,-0.05,1.11,7.38,-18.50,-43.38
2025-12-15 20:22:31.632,0,1015.52,-18.89,53.19,-2.25,-1.75,-0.19,-0.17,8.45,0.16,0.18,1.13,4.75,-18.50,-43.06
2025-12-15 20:22:31.744,0,1015.52,-18.90,46.12,-3.56,-2.31,-0.50,0.00,10.35,-0.21,0.27,1.17,2.50,-18.25,-44.00
2025-12-15 20:22:31.860,0,1015.53,-18.94,38.12,-4.31,-0.88,-0.53,-0.25,10.25,-0.25,0.02,1.21,2.25,-17.19,-43.25
2025-12-15 20:22:31.975,0,1015.53,-18.93,30.62,-3.62,-0.81,-0.41,-0.18,9.44,0.05,-0.17,1.23,0.00,-16.06,-42.19
2025-12-15 20:22:32.088,0,1015.52,-18.90,23.06,-2.69,-0.94,0.02,-0.07,9.25,-0.13,0.02,1.26,-2.19,-15.19,-42.69
2025-12-15 20:22:32.202,0,1015.52,-18.89,14.56,-3.88,-0.31,-0.21,-0.29,10.04,-0.11,0.40,1.29,-4.75,-16.25,-40.19
2025-12-15 20:22:32.317,0,1015.52,-18.89,6.62,-6.00,-1.62,-0.69,-0.11,8.69,0.22,0.19,1.31,-5.19,-14.75,-40.50
2025-12-15 20:22:32.433,0,1015.52,-18.84,357.88,-5.06,-2.31,-0.76,0.02,9.34,-0.35,-0.38,1.33,-8.69,-15.19,-38.38
2025-12-15 20:22:32.548,0,1015.52,-18.85,349.69,-1.25,-1.06,-0.19,-0.40,9.79,-0.12,-0.61,1.35,-10.50,-13.38,-37.06
2025-12-15 20:22:32.663,0,1015.52,-18.86,340.62,1.81,-2.75,0.20,-0.12,11.09,0.54,-0.17,1.37,-13.06,-12.25,-37.06
2025-12-15 20:22:32.778,0,1015.52,-18.85,332.19,1.12,-2.75,0.05,0.00,9.17,-0.37,0.50,1.40,-16.38,-8.88,-34.75
2025-12-15 20:22:32.891,0,1015.51,-18.84,322.62,-2.12,-0.50,-0.72,-0.19,9.80,-0.16,0.42,1.45,-17.75,-7.75,-33.19
2025-12-15 20:22:33.006,0,1015.52,-18.85,313.75,-2.62,0.12,-0.56,-0.01,9.52,-0.27,-0.21,1.45,-17.00,-5.88,-33.75
2025-12-15 20:22:33.121,0,1015.52,-18.88,306.06,-1.12,1.12,0.84,0.05,9.91,-0.09,-0.08,0.97,-19.50,-4.56,-32.00
2025-12-15 20:22:33.236,0,1015.52,-18.89,300.00,-2.56,1.19,0.34,-0.09,8.71,-0.01,0.38,0.89,-21.06,-1.25,-31.19
2025-12-15 20:22:33.349,0,1015.52,-18.88,294.44,-5.38,1.06,-0.70,-0.18,9.70,0.03,0.47,0.92,-20.56,-0.19,-32.56
2025-12-15 20:22:33.463,0,1015.52,-18.88,288.25,-6.69,-0.12,-1.28,-0.08,9.76,0.00,-0.19,0.99,-18.69,2.25,-33.06
2025-12-15 20:22:33.577,0,1015.52,-18.87,282.00,-2.69,0.25,-0.47,-0.23,9.10,-0.25,-0.95,1.02,-18.38,3.69,-31.06
2025-12-15 20:22:33.689,0,1015.52,-18.86,275.69,2.56,0.50,0.47,-0.39,9.43,0.20,-0.64,1.03,-18.00,5.56,-29.19
2025-12-15 20:22:33.802,0,1015.52,-18.87,269.25,3.00,-1.19,0.40,-0.11,10.12,0.34,0.51,1.04,-16.50,7.19,-25.75
2025-12-15 20:22:33.921,0,1015.51,-18.83,262.19,-2.19,-2.81,-0.69,-0.07,9.50,0.16,0.92,1.05,-13.00,8.00,-28.25
2025-12-15 20:22:34.037,0,1015.51,-18.83,255.06,-5.12,-4.25,-1.28,0.00,9.20,0.16,-0.06,1.07,-11.00,9.19,-29.56
2025-12-15 20:22:34.150,0,1015.51,-18.81,248.62,-0.75,-3.88,-0.55,-0.10,9.70,-0.32,-1.04,1.08,-9.88,10.69,-29.25
2025-12-15 20:22:34.267,0,1015.51,-18.82,241.62,6.00,-2.00,0.45,-0.31,9.02,-0.04,-0.71,1.09,-9.88,12.56,-30.75
2025-12-15 20:22:34.383,0,1015.51,-18.82,234.94,7.06,-1.06,0.40,-1.47,8.77,-0.02,0.36,1.10,-8.38,13.06,-29.38
2025-12-15 20:22:34.499,0,1015.51,-18.84,227.56,2.50,-0.25,-0.50,-0.11,9.92,-0.11,0.84,1.12,-5.50,12.38,-29.75
2025-12-15 20:22:34.614,0,1015.51,-18.83,220.62,-0.88,0.00,-1.10,-0.06,9.86,0.02,0.10,1.15,-1.69,13.56,-32.56
2025-12-15 20:22:34.732,0,1015.51,-18.82,212.94,0.75,0.81,-0.34,-0.15,9.74,-0.29,-0.52,1.16,2.00,14.69,-34.00
2025-12-15 20:22:34.847,0,1015.51,-18.83,205.12,2.62,1.38,0.34,-0.43,9.38,0.36,0.04,1.18,1.19,15.88,-36.50
2025-12-15 20:22:34.969,0,1015.51,-18.81,197.19,-0.69,-1.31,-0.14,-0.05,9.36,0.21,0.83,1.18,4.75,15.88,-36.50
2025-12-15 20:22:35.087,0,1015.51,-18.81,189.94,-5.44,-2.06,-0.94,-0.08,8.87,-0.18,0.61,1.20,13.50,13.75,-37.50
2025-12-15 20:22:35.200,0,1015.51,-18.78,181.75,-5.88,-2.12,-0.84,-0.19,10.10,-0.13,-0.44,1.23,18.56,14.56,-38.25
2025-12-15 20:22:35.316,0,1015.51,-18.80,174.25,-1.81,-1.81,0.10,-0.31,8.82,-0.07,-0.54,1.24,18.69,12.88,-40.38
2025-12-15 20:22:35.431,0,1015.51,-18.80,166.06,-0.19,-2.12,0.48,-0.10,9.56,0.07,0.26,1.24,19.38,11.19,-39.19
2025-12-15 20:22:35.544,0,1015.51,-18.77,158.38,-12.12,-1.94,-0.40,0.02,10.05,-0.22,0.93,1.25,23.00,8.38,-39.56
2025-12-15 20:22:35.658,0,1015.51,-18.78,149.75,-8.12,-1.06,-1.17,-0.16,9.02,-0.13,0.17,1.27,25.19,8.06,-35.06
2025-12-15 20:22:35.773,0,1015.50,-18.73,142.00,-5.50,-1.06,-0.56,-0.14,9.09,-0.24,-0.78,1.25,25.19,5.50,-35.56
2025-12-15 20:22:35.888,0,1015.50,-18.73,134.38,-0.44,-0.19,-0.01,-0.14,7.87,-0.10,-0.76,1.24,22.88,2.06,-36.25
2025-12-15 20:22:36.001,0,1015.50,-18.70,126.25,3.25,1.31,0.09,-0.17,10.54,-0.23,-0.34,1.22,20.50,0.56,-37.19
2025-12-15 20:22:36.117,0,1015.50,-18.72,118.94,3.44,3.19,0.00,-0.24,10.03,-0.20,0.14,1.20,19.75,-0.19,-37.88
2025-12-15 20:22:36.231,0,1015.50,-18.70,111.12,0.81,3.81,-0.26,-0.43,10.55,0.18,0.44,1.17,19.06,-2.00,-38.56
2025-12-15 20:22:36.346,0,1015.50,-18.70,104.19,-2.25,0.81,-0.57,0.01,9.94,0.43,0.39,1.12,19.00,-6.00,-35.75
2025-12-15 20:22:36.458,0,1015.50,-18.69,97.50,-3.50,0.62,-0.59,-0.17,9.16,-0.40,-0.02,1.09,19.69,-8.69,-35.06
2025-12-15 20:22:36.573,0,1015.49,-18.64,90.25,-2.50,1.31,-0.39,-0.23,9.51,0.05,-0.28,1.07,19.00,-11.25,-34.19
2025-12-15 20:22:36.691,0,1015.49,-18.64,83.88,-1.12,0.44,-0.10,-0.14,9.61,0.21,-0.11,1.03,16.06,-13.50,-34.19
2025-12-15 20:22:36.804,0,1015.49,-18.62,77.12,-1.25,-0.38,-0.22,0.05,9.05,-0.04,0.12,1.00,14.88,-16.75,-35.00
2025-12-15 20:22:36.917,0,1015.49,-18.62,71.12,-2.06,1.75,-0.47,-0.13,8.72,-0.59,0.06,0.97,12.69,-17.19,-33.25
2025-12-15 20:22:37.034,0,1015.49,-18.60,64.69,-2.00,3.69,-0.53,-0.46,8.86,0.17,-0.19,0.94,10.88,-16.38,-36.69
2025-12-15 20:22:37.147,0,1015.49,-18.60,59.12,-0.50,1.25,-0.29,0.01,9.20,0.13,-0.31,0.90,8.38,-19.69,-35.38
2025-12-15 20:22:37.259,0,1015.48,-18.59,53.75,0.44,1.44,-0.01,-0.17,9.45,0.05,0.00,0.87,4.75,-20.06,-35.38
2025-12-15 20:22:37.374,0,1015.48,-18.57,48.12,-0.75,1.06,-0.26,-0.19,8.60,0.09,0.29,0.83,2.50,-21.56,-35.25
2025-12-15 20:22:37.491,0,1015.48,-18.56,43.19,-2.50,0.12,-0.55,-0.19,8.49,0.15,0.17,0.79,0.75,-22.69,-35.50
2025-12-15 20:22:37.603,0,1015.49,-18.61,38.44,-2.62,-0.44,-0.56,-0.12,10.29,0.01,-0.16,0.76,-0.69,-23.38,-35.00
2025-12-15 20:22:37.719,0,1015.49,-18.61,33.50,-1.06,-0.38,-0.15,-0.26,9.85,0.02,-0.19,0.73,-3.19,-23.00,-35.00
2025-12-15 20:22:37.835,0,1015.49,-18.62,28.75,-0.94,-0.94,0.00,-0.12,9.69,0.08,0.21,0.70,-5.38,-22.06,-35.00
2025-12-15 20:22:37.948,0,1015.49,-18.62,24.56,-3.00,-0.94,-0.34,-0.02,9.95,-0.15,0.40,0.67,-6.88,-22.75,-35.50
2025-12-15 20:22:38.060,0,1015.49,-18.63,20.50,-5.31,0.19,-0.52,-0.30,8.62,-0.17,0.29,0.64,-8.56,-22.38,-35.00
2025-12-15 20:22:38.175,0,1015.49,-18.64,16.31,-6.12,0.25,-0.56,-0.14,9.10,-0.02,-0.05,0.60,-9.75,-21.69,-35.69
2025-12-15 20:22:38.290,0,1015.49,-18.62,12.75,-5.31,0.50,-0.21,-0.09,10.64,-0.25,-0.15,0.56,-10.50,-20.25,-33.75
2025-12-15 20:22:38.404,0,1015.49,-18.63,9.44,-4.88,1.88,-0.18,-0.44,10.41,-0.14,0.15,0.52,-12.00,-18.88,-35.75
2025-12-15 20:22:38.517,0,1015.49,-18.62,6.19,-6.00,0.62,-0.64,-0.23,8.61,0.36,0.08,0.47,-13.69,-18.06,-37.06
2025-12-15 20:22:38.632,0,1015.49,-18.61,3.56,-4.62,-0.81,-0.81,0.09,9.41,-0.20,-0.55,0.42,-14.00,-17.38,-34.88
2025-12-15 20:22:38.748,0,1015.48,-18.54,0.81,0.12,1.69,-0.08,-0.22,9.69,-0.31,-0.76,0.37,-17.38,-16.56,-34.88
2025-12-15 20:22:38.860,0,1015.48,-18.55,358.69,2.69,2.56,0.20,-0.29,8.42,-0.08,-0.12,0.32,-19.88,-15.88,-34.38
2025-12-15 20:22:38.975,0,1015.48,-18.54,356.88,1.50,2.00,-0.08,-0.12,9.35,0.19,0.42,0.28,-19.19,-15.19,-34.06
2025-12-15 20:22:39.092,0,1015.48,-18.55,355.19,-1.62,1.00,-0.57,-0.05,8.88,0.06,0.39,0.23,-18.50,-15.19,-33.50
2025-12-15 20:22:39.204,0,1015.48,-18.55,353.94,-2.75,1.19,-0.59,-0.20,8.79,-0.02,-0.02,0.20,-17.69,-15.50,-33.88
2025-12-15 20:22:39.317,0,1015.48,-18.55,352.88,-1.94,0.81,-0.18,-0.25,10.92,0.20,-0.15,0.15,-18.50,-14.75,-35.19
2025-12-15 20:22:39.432,0,1015.48,-18.57,352.00,-2.00,-1.06,-0.11,-0.08,9.09,0.27,0.18,0.11,-19.50,-14.75,-33.50
2025-12-15 20:22:39.548,0,1015.48,-18.57,351.38,-3.50,-1.94,-0.56,-0.19,10.63,0.07,0.20,0.08,-18.88,-15.50,-33.88
2025-12-15 20:22:39.662,0,1015.48,-18.58,351.00,-3.81,-3.12,-0.60,-0.17,8.88,0.30,-0.12,0.05,-18.88,-16.25,-33.50
2025-12-15 20:22:39.780,0,1015.48,-18.55,350.94,-1.38,-3.81,-0.68,0.04,9.68,-0.13,-0.61,0.01,-19.19,-17.00,-33.38
2025-12-15 20:22:39.899,0,1015.48,-18.55,351.12,2.62,-1.69,-0.10,-0.16,10.12,-0.27,-0.77,-0.03,-19.88,-17.38,-31.69
2025-12-15 20:22:40.012,0,1015.48,-18.53,351.62,6.12,-0.12,0.22,-0.22,9.18,-0.17,-0.22,-0.08,-20.69,-17.69,-31.00
2025-12-15 20:22:40.129,0,1015.48,-18.53,352.19,5.31,0.38,-0.18,-0.18,8.48,-0.07,0.35,-0.11,-21.00,-18.06,-30.88
2025-12-15 20:22:40.244,0,1015.48,-18.53,353.06,1.94,0.88,-0.65,-0.22,9.33,-0.02,0.27,-0.14,-19.88,-18.88,-32.19
2025-12-15 20:22:40.358,0,1015.48,-18.53,354.06,1.94,0.50,-0.70,0.00,10.11,-0.07,-0.33,-0.19,-18.88,-19.19,-32.06
2025-12-15 20:22:40.475,0,1015.48,-18.56,355.50,4.38,2.25,-0.09,-0.29,9.70,-0.35,-0.42,-0.23,-19.56,-21.00,-30.75
2025-12-15 20:22:40.592,0,1015.48,-18.56,357.06,5.56,2.19,0.16,-0.29,8.80,0.26,0.10,-0.27,-20.00,-19.88,-31.06
2025-12-15 20:22:40.708,0,1015.52,-18.92,358.81,3.06,0.69,-0.15,-0.10,8.58,0.09,0.57,-0.31,-16.69,-21.75,-30.06
2025-12-15 20:22:40.824,0,1015.56,-19.23,1.00,-1.00,0.38,-0.61,-0.16,8.54,-0.03,0.47,-0.34,-16.00,-21.75,-31.56
2025-12-15 20:22:40.940,0,1015.56,-19.23,3.12,-2.31,0.06,-0.80,-0.21,9.59,0.19,-0.14,-0.37,-16.00,-21.00,-32.50
2025-12-15 20:22:41.055,0,1015.54,-19.05,5.75,0.00,-1.50,-0.36,-0.11,10.38,0.30,-0.52,-0.40,-15.25,-21.00,-29.69
2025-12-15 20:22:41.167,0,1015.54,-19.04,8.25,2.12,-2.56,0.22,-0.04,9.50,0.03,-0.14,-0.42,-15.50,-22.19,-27.50
2025-12-15 20:22:41.283,0,1015.53,-18.96,10.88,0.50,-1.75,0.22,-0.05,10.33,-0.30,0.64,-0.44,-14.75,-22.50,-27.00
2025-12-15 20:22:41.397,0,1015.53,-18.96,13.69,-5.25,0.75,-0.52,-0.21,8.92,-0.36,0.97,-0.43,-12.56,-22.19,-28.69
2025-12-15 20:22:41.510,0,1015.51,-18.80,16.31,-9.50,2.69,-1.02,-0.09,10.33,-0.15,0.38,-0.44,-10.69,-21.69,-30.19
2025-12-15 20:22:41.625,0,1015.51,-18.81,19.06,-8.81,13.12,-0.35,-0.08,9.64,-0.48,-0.18,-0.45,-8.19,-20.88,-30.69
2025-12-15 20:22:41.739,0,1015.52,-18.86,21.75,-7.75,8.06,0.36,0.00,9.86,-0.34,0.05,-0.48,-8.06,-19.50,-33.56
2025-12-15 20:22:41.854,0,1015.52,-18.88,33.44,-5.81,9.94,-0.01,-0.18,9.37,-0.91,0.04,-2.83,-4.00,-20.06,-31.69
2025-12-15 20:22:41.967,0,1015.52,-18.89,51.25,-2.56,11.06,-0.46,-0.51,9.45,1.64,-0.05,-2.55,1.38,-19.06,-32.56
2025-12-15 20:22:42.085,0,1015.52,-18.85,65.69,0.75,4.81,-0.08,0.03,9.81,-0.13,-0.26,-2.26,5.75,-20.88,-30.00
2025-12-15 20:22:42.200,0,1015.52,-18.86,80.44,2.50,4.31,0.03,-0.30,9.61,0.45,0.13,-2.20,11.06,-19.75,-29.38
2025-12-15 20:22:42.313,0,1015.51,-18.84,93.94,1.25,1.62,-0.17,-0.09,8.95,0.18,0.43,-2.21,17.38,-14.75,-27.56
2025-12-15 20:22:42.425,0,1015.52,-18.84,107.31,-1.00,1.31,-0.54,-0.21,9.13,-0.00,0.33,-2.18,22.56,-11.56,-26.69
2025-12-15 20:22:42.541,0,1015.52,-18.87,121.88,-1.88,1.19,-0.50,-0.26,9.71,0.16,0.04,-2.17,26.25,-5.75,-25.50
2025-12-15 20:22:42.658,0,1015.52,-18.87,135.81,-1.69,0.50,-0.28,-0.12,9.63,0.08,0.05,-2.37,27.75,0.69,-26.88
2025-12-15 20:22:42.770,0,1015.51,-18.82,151.50,-1.81,1.19,-0.31,-0.11,8.86,-0.15,0.03,-2.35,27.00,6.06,-26.06
2025-12-15 20:22:42.885,0,1015.51,-18.82,165.69,-1.31,2.88,-0.43,-0.22,8.84,-0.23,-0.08,-2.30,25.50,12.75,-26.56
2025-12-15 20:22:43.001,0,1015.52,-18.86,180.88,1.06,3.75,-0.76,-0.42,10.48,0.10,-0.44,-2.29,22.50,17.75,-26.56
2025-12-15 20:22:43.116,0,1015.52,-18.90,195.56,6.06,0.38,-0.38,-0.61,10.42,0.60,-0.84,-2.80,12.38,22.56,-28.06
2025-12-15 20:22:43.229,0,1015.52,-18.89,221.88,3.38,-5.38,-1.40,-1.40,7.35,-0.01,1.50,-6.54,5.06,23.06,-29.06
2025-12-15 20:22:43.343,0,1015.51,-18.82,268.06,-9.12,-8.00,-1.47,0.15,9.99,1.39,0.14,-7.18,-7.06,22.25,-30.56
2025-12-15 20:22:43.459,0,1015.51,-18.83,312.06,-8.88,-2.06,0.34,-0.08,9.39,-0.55,-1.11,-7.12,-24.25,1.69,-31.06
2025-12-15 20:22:43.571,0,1015.51,-18.83,359.12,-2.31,6.56,1.34,-0.21,10.83,-0.63,-0.02,-7.08,-20.06,-13.00,-29.38
2025-12-15 20:22:43.686,0,1015.51,-18.82,42.31,-0.25,11.50,0.21,-0.96,8.95,-0.39,1.28,-6.95,-6.50,-21.00,-29.75
2025-12-15 20:22:43.803,0,1015.51,-18.80,89.06,1.94,4.81,-0.48,-0.05,9.15,1.83,0.13,-6.99,13.69,-17.06,-29.69
2025-12-15 20:22:43.915,0,1015.51,-18.80,131.50,4.62,-0.31,0.91,-0.11,11.42,-0.86,-0.26,-6.95,26.38,0.88,-29.25
2025-12-15 20:22:44.028,0,1015.51,-18.77,173.75,1.81,1.44,0.65,-0.35,10.59,-0.59,1.23,-6.83,20.19,18.25,-30.00
2025-12-15 20:22:44.142,0,1015.50,-18.73,209.25,-6.50,1.62,-2.20,-0.36,9.41,2.11,2.68,1.03,7.25,29.56,-29.00
2025-12-15 20:22:44.257,0,1015.50,-18.75,197.94,-16.00,-1.31,-3.57,0.13,9.43,-2.15,-0.16,1.79,12.50,28.19,-32.38
2025-12-15 20:22:44.370,0,1015.49,-18.63,186.19,-3.69,0.94,-0.53,-0.55,10.31,1.27,-3.04,1.89,15.38,29.56,-30.38
2025-12-15 20:22:44.485,0,1015.49,-18.63,172.88,12.69,-4.44,2.45,-0.16,8.91,0.25,-1.27,2.09,13.19,25.19,-38.75
2025-12-15 20:22:44.778,0,1015.46,-18.40,137.31,-0.94,-5.06,-1.84,-0.30,8.80,-0.15,0.30,2.13,32.50,8.25,-32.75
2025-12-15 20:22:44.893,0,1015.46,-18.40,0.00,0.00,0.00,-0.86,0.05,7.84,-0.85,-1.42,2.13,33.88,2.50,-32.19
2025-12-15 20:22:45.006,0,1015.45,-18.33,110.69,13.44,2.44,1.04,-0.68,8.90,0.26,-1.14,2.10,30.25,-2.19,-34.75
2025-12-15 20:22:45.118,0,1015.45,-18.33,242.25,16.31,1.00,2.33,1.53,6.90,0.95,-0.60,1.50,23.56,-12.06,-37.50
2025-12-15 20:22:45.230,0,1015.44,-18.25,238.94,22.50,2.44,4.80,0.50,8.41,-0.35,-0.09,0.07,18.06,-16.88,-38.25
2025-12-15 20:22:45.347,0,1015.44,-18.25,241.38,17.56,3.75,1.70,0.39,9.66,0.16,1.69,-0.62,17.75,-15.75,-39.06
2025-12-15 20:22:45.464,0,1015.44,-18.25,246.62,1.62,2.12,-0.73,-0.55,8.92,-0.33,3.01,-0.84,28.50,-13.88,-33.50
2025-12-15 20:22:45.578,0,1015.44,-18.24,252.81,-11.94,0.75,-2.91,-0.22,9.23,0.89,0.79,-0.87,36.06,-11.25,-25.00
2025-12-15 20:22:45.696,0,1015.45,-18.28,259.06,-5.12,-1.38,-0.66,0.42,8.08,-0.68,-2.05,-0.92,37.25,-9.50,-21.56
2025-12-15 20:22:45.813,0,1015.45,-18.28,264.75,5.12,2.19,1.63,-0.61,8.97,0.21,-0.97,-0.95,33.19,-4.75,-29.50
2025-12-15 20:22:45.926,0,1015.45,-18.28,270.62,3.88,0.75,0.42,0.08,10.21,-0.52,1.01,-0.92,32.06,-1.75,-32.69
2025-12-15 20:22:46.048,0,1015.45,-18.31,276.44,-0.44,0.81,-2.12,0.09,9.44,0.84,-0.15,-0.80,35.75,2.19,-28.88
2025-12-15 20:22:46.165,0,1015.45,-18.32,281.38,6.81,3.12,-0.41,-0.29,10.15,-1.20,-1.70,-0.86,33.06,5.56,-31.06
2025-12-15 20:22:46.279,0,1015.46,-18.35,286.94,14.44,5.19,1.87,-0.10,8.82,-0.38,-0.10,-0.83,29.06,11.06,-33.19
2025-12-15 20:22:46.397,0,1015.46,-18.35,292.31,8.06,7.81,0.92,-0.54,8.78,-0.50,2.13,-0.68,28.00,14.00,-33.00
2025-12-15 20:22:46.516,0,1015.46,-18.35,297.62,-5.69,8.31,-2.11,-0.19,8.38,0.53,1.49,-0.59,33.88,19.19,-22.56
2025-12-15 20:22:46.636,0,1015.46,-18.38,301.50,-5.94,8.44,-1.70,-0.15,9.28,-0.65,-1.44,-0.53,33.06,21.69,-19.56
2025-12-15 20:22:46.751,0,1015.46,-18.37,303.56,6.25,9.06,1.20,-0.41,10.14,0.71,-1.58,-0.39,28.69,22.88,-22.69
2025-12-15 20:22:46.867,0,1015.46,-18.38,305.06,9.44,5.25,1.24,-0.34,9.54,0.34,0.61,-0.29,21.69,23.88,-28.25
2025-12-15 20:22:46.979,0,1015.46,-18.39,306.69,3.38,0.69,-0.56,-0.06,7.98,0.97,1.07,-0.28,23.50,23.19,-28.38
2025-12-15 20:22:47.095,0,1015.46,-18.42,308.88,-2.50,2.25,-0.69,-0.83,7.66,-0.37,0.57,-0.19,26.25,22.06,-26.69
2025-12-15 20:22:47.212,0,1015.46,-18.42,310.62,-2.75,-5.38,-0.81,0.58,9.30,1.29,-0.47,-0.15,27.25,23.56,-23.19
2025-12-15 20:22:47.325,0,1015.47,-18.48,312.88,1.50,-2.94,0.03,-0.54,9.20,-1.00,-0.75,-0.18,23.56,21.69,-27.69
2025-12-15 20:22:47.437,0,1015.47,-18.49,314.00,4.06,-3.12,0.70,-0.33,9.86,0.67,0.05,-0.13,23.56,23.19,-27.25
2025-12-15 20:22:47.552,0,1015.49,-18.60,314.81,0.69,-4.06,-0.08,-0.28,10.54,-0.23,0.83,-0.11,22.19,22.88,-27.25
2025-12-15 20:22:47.670,0,1015.50,-18.70,315.19,-3.50,-3.38,-1.06,-0.26,9.41,-0.13,0.31,-0.07,24.38,24.25,-24.38
2025-12-15 20:22:47.783,0,1015.50,-18.70,316.06,-2.56,-1.44,-0.75,-0.22,9.92,-0.40,-0.67,-0.07,25.06,23.88,-23.88
2025-12-15 20:22:47.898,0,1015.50,-18.75,316.50,2.62,0.88,0.21,-0.37,9.94,-0.33,-0.78,-0.06,24.00,25.06,-23.88
2025-12-15 20:22:48.013,0,1015.50,-18.75,316.94,5.06,2.75,0.65,-0.22,10.62,-0.29,0.15,-0.04,21.75,26.88,-25.56
2025-12-15 20:22:48.128,0,1015.51,-18.79,317.00,1.56,4.75,-0.28,-0.32,10.14,-0.31,0.77,0.00,22.19,26.88,-23.75
2025-12-15 20:22:48.241,0,1015.51,-18.78,316.69,-1.31,6.00,-1.17,-0.22,11.16,0.07,-0.07,0.14,24.38,26.50,-22.06
2025-12-15 20:22:48.355,0,1015.50,-18.75,315.25,1.69,7.31,-0.23,-0.17,9.57,-0.71,-0.82,0.14,25.50,25.75,-22.50
2025-12-15 20:22:48.470,0,1015.50,-18.76,314.06,5.38,7.88,0.64,-0.84,8.82,0.85,-0.31,0.17,22.19,27.56,-23.19
2025-12-15 20:22:48.584,0,1015.50,-18.70,312.69,4.12,0.25,0.05,0.50,8.64,0.48,0.57,0.17,20.00,23.88,-26.69
2025-12-15 20:22:48.697,0,1015.50,-18.72,311.56,1.50,-0.69,-1.56,-0.40,7.74,0.91,-0.08,0.20,23.56,22.50,-26.25
2025-12-15 20:22:48.812,0,1015.49,-18.67,310.56,7.19,-2.12,0.52,-0.03,10.53,-0.79,-1.24,0.17,23.25,21.00,-30.06
2025-12-15 20:22:48.926,0,1015.49,-18.65,309.88,10.94,2.62,1.39,-0.59,9.23,-0.10,0.31,0.18,20.69,22.50,-31.25
2025-12-15 20:22:49.039,0,1015.49,-18.66,308.56,3.69,1.38,0.16,-0.46,9.05,0.33,1.67,0.20,22.56,21.69,-29.19
2025-12-15 20:22:49.154,0,1015.49,-18.64,307.69,-5.88,-3.94,-1.24,0.08,7.69,1.25,1.11,0.07,26.25,21.38,-26.69
2025-12-15 20:22:49.270,0,1015.49,-18.64,307.19,-8.38,-5.44,-1.68,-0.07,8.64,-0.63,-0.44,0.04,30.25,16.88,-27.00
2025-12-15 20:22:49.382,0,1015.49,-18.65,307.00,-0.69,-2.62,-0.29,-0.09,9.54,-0.48,-1.70,0.06,28.00,18.06,-27.88
2025-12-15 20:22:49.495,0,1015.49,-18.64,306.94,8.31,1.62,1.18,-0.45,10.94,-0.74,-0.88,0.05,24.69,19.56,-31.69
2025-12-15 20:22:49.610,0,1015.50,-18.68,306.38,8.56,2.31,1.00,-0.74,10.07,0.80,0.75,0.08,23.00,21.69,-31.56
2025-12-15 20:22:49.725,0,1015.50,-18.69,305.19,0.56,-1.38,-0.45,0.35,7.90,-0.62,1.48,0.00,27.69,17.25,-31.69
2025-12-15 20:22:49.838,0,1015.49,-18.67,304.75,-5.44,2.38,-1.78,-0.44,9.08,0.39,0.06,0.12,31.00,18.75,-26.38
2025-12-15 20:22:49.954,0,1015.50,-18.68,303.69,0.00,0.81,-0.62,-0.12,9.92,-0.41,-1.62,0.11,30.56,17.25,-28.88
2025-12-15 20:22:50.069,0,1015.50,-18.68,302.44,10.31,2.62,1.18,-0.46,9.79,0.15,-1.13,0.13,26.88,17.25,-32.19
2025-12-15 20:22:50.181,0,1015.50,-18.69,299.88,11.00,1.62,1.28,-0.19,9.91,0.01,0.79,0.17,23.25,14.69,-36.25
2025-12-15 20:22:50.294,0,1015.50,-18.69,297.81,1.56,1.88,-0.58,-0.28,8.20,-0.02,1.78,0.21,26.25,13.25,-30.69
2025-12-15 20:22:50.409,0,1015.50,-18.70,296.56,-6.44,0.12,-1.75,-0.06,8.21,0.44,0.41,0.22,32.50,13.25,-26.06
2025-12-15 20:22:50.523,0,1015.50,-18.70,295.25,-2.81,-0.50,-0.99,-0.11,9.05,-0.29,-1.27,0.21,32.50,10.69,-24.88
2025-12-15 20:22:50.639,0,1015.50,-18.70,292.62,5.81,0.06,0.71,-0.20,8.01,0.29,-1.13,0.25,28.06,9.19,-29.50
2025-12-15 20:22:50.751,0,1015.50,-18.71,289.38,7.75,-0.81,1.24,-0.03,10.77,-0.02,0.69,0.26,27.00,7.19,-30.69
2025-12-15 20:22:50.866,0,1015.50,-18.74,286.12,-0.94,0.69,-0.76,-0.19,10.50,-0.26,1.66,0.31,28.50,4.88,-29.06
2025-12-15 20:22:50.981,0,1015.50,-18.74,283.94,-7.31,0.38,-1.88,0.03,8.21,0.29,0.05,0.36,32.19,4.19,-21.56
2025-12-15 20:22:51.094,0,1015.50,-18.75,281.75,-1.00,1.25,-0.45,-0.37,9.17,-0.44,-1.71,0.33,31.50,2.25,-21.38
2025-12-15 20:22:51.210,0,1015.50,-18.72,279.50,7.81,1.56,1.67,-0.20,10.24,0.12,-0.69,0.37,27.38,1.88,-25.06
2025-12-15 20:22:51.329,0,1015.50,-18.72,276.94,5.12,1.94,0.76,-0.31,9.14,-0.15,1.45,0.42,26.38,1.50,-25.56
2025-12-15 20:22:51.443,0,1015.50,-18.74,273.69,-5.31,2.06,-1.51,-0.45,8.36,0.28,1.24,0.47,28.19,0.38,-21.00
2025-12-15 20:22:51.559,0,1015.50,-18.75,270.94,-6.38,0.00,-1.75,0.15,9.36,-0.38,-1.01,0.47,30.38,-0.69,-17.88
2025-12-15 20:22:51.675,0,1015.50,-18.76,267.62,4.38,2.88,0.54,-0.93,11.55,0.06,-1.88,0.46,26.38,-1.75,-24.56
2025-12-15 20:22:51.794,0,1015.50,-18.76,262.56,11.25,0.00,1.29,-0.01,7.75,-0.16,-0.16,0.55,23.06,-4.38,-27.50
2025-12-15 20:22:51.912,0,1015.50,-18.74,258.62,5.38,1.94,0.72,-0.36,10.66,0.20,1.71,0.60,21.75,-4.38,-28.00
2025-12-15 20:22:52.030,0,1015.51,-18.76,254.88,-6.06,0.62,-1.82,-0.23,10.95,0.32,1.32,0.59,27.00,-6.56,-21.69
2025-12-15 20:22:52.144,0,1015.51,-18.77,250.50,-6.88,-0.31,-1.63,0.28,10.33,-0.69,-1.05,0.59,28.06,-9.19,-18.69
2025-12-15 20:22:52.262,0,1015.50,-18.73,246.25,2.56,3.75,0.44,-0.45,5.55,0.02,-1.49,0.58,23.56,-10.38,-21.88
2025-12-15 20:22:52.380,0,1015.50,-18.72,242.12,9.00,3.94,0.88,-0.22,5.72,-0.23,-0.43,0.59,17.50,-11.50,-26.06
2025-12-15 20:22:52.494,0,1015.49,-18.66,238.44,6.81,2.94,0.67,0.33,8.87,0.91,1.06,0.60,15.25,-13.38,-25.88
2025-12-15 20:22:52.609,0,1015.49,-18.66,234.62,-2.31,4.19,-1.14,-0.45,10.17,-0.75,1.31,0.63,17.50,-15.25,-22.25
2025-12-15 20:22:52.724,0,1015.50,-18.72,229.31,-5.19,3.56,-1.83,0.29,13.40,0.10,-0.56,0.70,19.00,-16.06,-21.69
2025-12-15 20:22:52.840,0,1015.50,-18.73,222.19,2.06,3.88,0.13,-0.20,6.68,-0.03,-1.26,0.72,14.88,-19.00,-23.69
2025-12-15 20:22:52.952,0,1015.50,-18.72,216.44,6.44,4.00,0.95,-0.30,9.68,0.26,-0.04,0.75,10.69,-19.00,-24.88
2025-12-15 20:22:53.072,0,1015.50,-18.71,210.75,2.31,2.50,0.09,0.04,8.58,0.06,1.07,0.75,10.69,-20.75,-24.69
2025-12-15 20:22:53.189,0,1015.50,-18.72,205.00,-4.69,3.56,-1.03,-0.49,9.68,0.04,0.80,0.80,11.69,-22.25,-24.69
2025-12-15 20:22:53.301,0,1015.50,-18.74,199.88,-5.94,-1.19,-0.98,0.50,9.66,0.37,-0.30,0.82,12.50,-24.06,-22.50
2025-12-15 20:22:53.416,0,1015.50,-18.74,194.69,-2.25,1.38,-0.14,-0.71,9.47,0.10,-0.71,0.83,9.50,-25.19,-23.88
2025-12-15 20:22:53.531,0,1015.50,-18.71,188.94,0.75,-0.62,0.39,-0.23,9.62,0.01,-0.13,0.87,6.56,-25.19,-25.06
2025-12-15 20:22:53.643,0,1015.50,-18.72,183.50,-1.06,-0.06,-0.08,-0.12,8.81,-0.26,0.60,0.91,4.00,-26.19,-27.56
2025-12-15 20:22:53.756,0,1015.50,-18.72,177.75,-4.44,0.50,-0.90,-0.22,9.35,-0.15,0.31,0.95,2.88,-26.88,-27.56
2025-12-15 20:22:53.872,0,1015.50,-18.72,171.31,-3.75,0.94,-0.72,-0.05,10.52,-0.30,-0.50,0.97,1.50,-26.75,-28.75
2025-12-15 20:22:53.987,0,1015.51,-18.76,165.25,-0.31,2.44,0.38,-0.42,12.11,-0.08,-0.42,0.98,-3.25,-25.00,-30.50
2025-12-15 20:22:54.100,0,1015.50,-18.73,158.94,-0.62,1.62,0.16,-0.12,8.36,0.15,0.39,0.99,-6.69,-24.56,-29.25
2025-12-15 20:22:54.214,0,1015.50,-18.74,153.38,-4.38,2.00,-0.45,-0.14,8.62,-0.23,0.62,0.99,-8.06,-25.00,-31.00
2025-12-15 20:22:54.329,0,1015.50,-18.70,147.50,-7.25,2.31,-0.93,-0.23,8.19,-0.11,0.09,1.02,-8.50,-22.69,-31.38
2025-12-15 20:22:54.442,0,1015.50,-18.69,140.94,-5.31,1.94,-0.62,-0.10,8.78,-0.09,-0.75,1.01,-11.38,-20.75,-31.75
2025-12-15 20:22:54.556,0,1015.50,-18.71,135.12,-1.06,2.31,0.23,-0.34,10.10,-0.00,-0.50,1.01,-14.25,-20.06,-31.38
2025-12-15 20:22:54.671,0,1015.50,-18.71,128.50,-1.06,1.12,0.23,-0.14,9.10,0.15,0.40,1.01,-18.00,-17.50,-31.00
2025-12-15 20:22:54.786,0,1015.50,-18.71,122.56,-5.00,1.06,-0.38,-0.11,8.06,-0.26,0.68,1.00,-19.75,-17.06,-30.50
2025-12-15 20:22:54.898,0,1015.50,-18.71,116.56,-8.06,0.44,-0.89,-0.16,7.74,0.05,0.11,1.01,-19.75,-13.50,-33.50
2025-12-15 20:22:55.011,0,1015.50,-18.68,110.94,-6.06,-0.31,-0.69,-0.12,8.58,-0.12,-0.83,0.98,-20.06,-11.56,-32.69
2025-12-15 20:22:55.128,0,1015.50,-18.69,104.69,0.00,0.00,0.21,-0.24,9.43,-0.07,-0.76,0.95,-23.06,-10.19,-29.69
2025-12-15 20:22:55.244,0,1015.50,-18.69,98.81,1.94,-1.12,0.23,-0.31,9.22,0.61,0.18,0.93,-26.69,-6.06,-28.00
2025-12-15 20:22:55.357,0,1015.50,-18.67,93.38,-0.44,-2.88,-0.34,0.06,7.66,-0.17,0.53,0.87,-26.38,-5.00,-29.25
2025-12-15 20:22:55.472,0,1015.50,-18.68,88.25,-2.50,-0.94,-0.90,-0.35,11.25,-0.07,0.07,0.86,-23.75,-1.56,-29.69
2025-12-15 20:22:55.587,0,1015.50,-18.72,82.69,-1.06,-1.12,-0.38,-0.13,9.28,-0.15,-0.37,0.81,-24.69,0.56,-28.75
2025-12-15 20:22:55.700,0,1015.50,-18.72,77.88,0.81,-0.56,0.12,-0.17,9.34,0.10,-0.16,0.78,-24.25,3.88,-28.50
2025-12-15 20:22:55.814,0,1015.50,-18.74,72.94,-0.06,-0.94,-0.12,-0.20,12.55,0.14,0.38,0.72,-25.38,5.50,-28.50
2025-12-15 20:22:55.928,0,1015.50,-18.73,68.56,-2.31,-1.19,-0.53,-0.23,6.43,0.08,0.24,0.67,-22.75,7.38,-28.50
2025-12-15 20:22:56.044,0,1015.50,-18.70,64.62,-2.81,-2.19,-0.67,-0.20,11.11,0.25,-0.08,0.63,-20.56,9.50,-30.56
2025-12-15 20:22:56.156,0,1015.50,-18.69,60.25,-0.62,-4.06,-0.34,-0.15,6.12,0.17,-0.45,0.59,-18.75,10.69,-31.00
2025-12-15 20:22:56.270,0,1015.50,-18.72,56.31,1.75,-3.94,0.21,-0.54,12.51,0.10,-0.09,0.56,-21.38,12.19,-31.00
2025-12-15 20:22:56.385,0,1015.50,-18.72,51.94,0.94,-8.19,-0.23,0.04,10.92,0.70,0.38,0.50,-19.56,14.00,-30.50
2025-12-15 20:22:56.500,0,1015.50,-18.73,48.19,-0.81,-8.44,-0.54,-0.22,9.96,-0.25,0.29,0.44,-16.69,12.56,-32.19
2025-12-15 20:22:56.612,0,1015.49,-18.65,44.88,-1.25,-7.75,-0.50,-0.06,8.56,-0.02,-0.05,0.42,-17.06,15.06,-32.56
2025-12-15 20:22:56.727,0,1015.49,-18.65,41.88,-0.19,-6.06,-0.18,-0.14,7.92,-0.38,-0.11,0.39,-16.38,14.75,-33.25
2025-12-15 20:22:56.842,0,1015.49,-18.61,39.50,-0.06,-3.69,0.06,-0.11,7.92,-0.43,0.14,0.35,-18.56,17.56,-34.06
2025-12-15 20:22:56.955,0,1015.49,-18.61,37.44,-2.12,-1.12,-0.34,-0.45,9.80,-0.12,0.48,0.34,-15.69,19.50,-33.38
2025-12-15 20:22:57.069,0,1015.49,-18.63,35.50,-4.69,-1.19,-0.64,0.02,9.35,-0.19,0.23,0.28,-15.25,19.88,-33.25
2025-12-15 20:22:57.187,0,1015.49,-18.63,33.62,-4.00,2.44,-0.57,-0.44,10.82,-0.59,-0.40,0.23,-13.50,21.56,-33.56
2025-12-15 20:22:57.303,0,1015.49,-18.62,32.12,-1.31,1.88,0.14,-0.24,9.03,0.52,-0.36,0.22,-16.75,23.38,-35.38
2025-12-15 20:22:57.417,0,1015.49,-18.62,30.81,-1.38,1.25,0.20,-0.12,9.25,-0.37,0.33,0.17,-15.69,23.00,-34.38
2025-12-15 20:22:57.539,0,1015.49,-18.62,30.19,-5.00,1.44,-0.58,-0.33,9.69,0.37,0.57,0.15,-15.25,24.38,-33.06
2025-12-15 20:22:57.653,0,1015.49,-18.63,30.75,-6.62,-0.50,-0.96,-0.06,10.02,0.15,-0.07,0.10,-11.56,21.75,-35.25
2025-12-15 20:22:57.767,0,1015.49,-18.63,30.94,-3.75,-1.44,-0.42,-0.19,9.89,0.23,-0.74,0.08,-12.38,23.00,-37.38
2025-12-15 20:22:57.886,0,1015.48,-18.58,31.31,0.81,-2.44,0.33,-0.08,8.93,-0.05,-0.45,0.05,-15.25,21.06,-33.88
2025-12-15 20:22:58.002,0,1015.48,-18.58,31.38,1.25,-1.75,0.21,-0.23,8.30,-0.07,0.30,0.04,-16.00,22.19,-34.00
2025-12-15 20:22:58.117,0,1015.48,-18.56,31.19,-1.94,-2.19,-0.65,-0.36,9.64,0.27,0.58,0.00,-14.19,23.25,-35.56
2025-12-15 20:22:58.231,0,1015.48,-18.56,31.50,-3.31,-3.69,-1.13,0.24,11.47,-0.25,-0.28,-0.07,-13.75,22.19,-36.88
2025-12-15 20:22:58.348,0,1015.49,-18.61,32.06,0.50,-1.81,-0.10,-0.33,9.36,0.18,-0.76,-0.08,-15.25,24.38,-34.25
2025-12-15 20:22:58.463,0,1015.48,-18.57,32.69,3.88,-3.38,0.53,-0.05,9.73,0.11,-0.14,-0.11,-17.06,24.00,-34.38
2025-12-15 20:22:58.579,0,1015.48,-18.57,33.06,1.88,-2.69,-0.08,-0.11,8.90,-0.27,0.65,-0.14,-17.50,23.25,-34.25
2025-12-15 20:22:58.693,0,1015.48,-18.55,33.69,-2.50,-0.62,-0.78,-0.26,8.77,-0.21,0.51,-0.15,-16.00,25.50,-32.19
2025-12-15 20:22:58.805,0,1015.48,-18.55,34.50,-3.12,-0.31,-0.78,-0.22,8.86,0.06,-0.28,-0.17,-16.75,26.56,-32.69
2025-12-15 20:22:58.917,0,1015.48,-18.57,35.81,0.19,-0.50,-0.06,-0.07,10.07,-0.12,-0.61,-0.23,-18.50,26.56,-30.50
2025-12-15 20:22:59.034,0,1015.48,-18.57,37.44,2.50,1.06,0.36,-0.12,8.83,-0.34,-0.02,-0.26,-20.69,25.19,-28.25
2025-12-15 20:22:59.149,0,1015.48,-18.59,39.19,0.12,3.50,0.04,-0.33,9.90,-0.41,0.71,-0.28,-22.56,25.50,-27.56
2025-12-15 20:22:59.263,0,1015.48,-18.59,42.19,-4.69,3.50,-1.00,-0.38,9.72,0.58,0.55,-0.30,-21.75,24.88,-28.50
2025-12-15 20:22:59.377,0,1015.49,-18.59,45.38,-4.56,1.50,-0.88,0.05,8.88,-0.26,-0.44,-0.39,-20.25,21.88,-31.00
2025-12-15 20:22:59.492,0,1015.49,-18.61,48.69,-0.06,3.81,0.00,-0.40,9.66,0.05,-0.77,-0.42,-23.00,20.06,-28.00
2025-12-15 20:22:59.606,0,1015.49,-18.60,51.38,3.06,2.00,0.49,-0.22,10.63,0.32,-0.03,-0.44,-25.19,17.19,-27.06
2025-12-15 20:22:59.721,0,1015.49,-18.60,54.19,0.62,0.06,-0.11,-0.21,8.59,0.31,0.70,-0.49,-25.25,14.88,-27.06
2025-12-15 20:22:59.838,0,1015.49,-18.61,57.56,-4.06,-1.38,-0.79,-0.15,9.20,0.13,0.57,-0.54,-24.19,12.75,-29.19
2025-12-15 20:22:59.953,0,1015.49,-18.60,62.06,-5.31,-2.50,-0.84,-0.13,9.51,0.27,-0.24,-0.57,-23.56,9.75,-30.50
2025-12-15 20:23:00.065,0,1015.49,-18.61,67.19,-2.69,-3.69,-0.15,-0.23,9.96,-35.53,-0.58,-0.59,-23.56,7.25,-29.69
2025-12-15 20:23:00.179,0,1015.49,-18.62,72.12,-0.62,-5.06,0.54,-0.12,11.19,0.17,0.03,-0.61,-26.19,5.25,-29.19
2025-12-15 20:23:00.295,0,1015.49,-18.63,76.62,-4.19,-5.56,-0.36,-0.23,9.50,0.11,0.81,-0.64,-24.25,2.00,-30.56
2025-12-15 20:23:00.410,0,1015.48,-18.59,82.19,-8.88,-5.81,-1.10,0.07,8.57,0.03,0.31,-0.67,-22.19,-1.69,-34.38
2025-12-15 20:23:00.522,0,1015.49,-18.59,86.81,-7.69,-2.50,-0.80,-0.18,9.16,-0.74,-0.74,-0.72,-20.25,-1.69,-33.06
2025-12-15 20:23:00.637,0,1015.48,-18.58,92.19,-2.00,0.00,0.16,-0.37,7.30,0.10,-0.82,-0.74,-21.56,-2.00,-34.06
2025-12-15 20:23:00.751,0,1015.49,-18.60,97.62,0.69,-1.62,0.38,0.00,9.64,0.11,-0.07,-0.77,-24.50,-4.38,-31.38
2025-12-15 20:23:00.863,0,1015.49,-18.60,103.25,-1.12,-0.19,-0.53,-0.35,12.26,-0.20,0.45,-0.81,-21.88,-5.88,-33.00
2025-12-15 20:23:00.976,0,1015.49,-18.63,108.62,-2.31,-0.94,-0.80,-0.08,8.82,0.40,-0.20,-0.83,-19.75,-7.06,-33.75
2025-12-15 20:23:01.092,0,1015.49,-18.63,114.44,0.56,-1.81,-0.20,-0.14,7.97,-0.00,-0.58,-0.87,-19.00,-8.00,-34.19
2025-12-15 20:23:01.208,0,1015.49,-18.62,119.81,2.88,-1.75,0.29,-0.12,7.60,-0.12,-0.10,-0.88,-20.25,-9.88,-32.69
2025-12-15 20:23:01.320,0,1015.49,-18.61,125.75,1.06,-0.94,0.09,-0.23,10.29,-0.14,0.60,-0.90,-18.06,-10.00,-32.69
2025-12-15 20:23:01.436,0,1015.49,-18.62,131.25,-3.12,-0.75,-0.80,-0.22,11.41,0.09,0.53,-0.92,-16.50,-11.06,-33.50
2025-12-15 20:23:01.550,0,1015.49,-18.61,137.44,-4.50,-0.75,-0.89,-0.08,11.33,-0.03,-0.17,-0.94,-14.19,-10.75,-33.50
2025-12-15 20:23:01.665,0,1015.49,-18.63,142.56,-1.81,0.69,-0.32,-0.17,6.58,-0.27,-0.56,-0.96,-14.69,-13.25,-34.75
2025-12-15 20:23:01.779,0,1015.49,-18.63,147.81,1.56,2.69,0.00,-0.23,9.23,-0.38,-0.46,-0.98,-16.56,-14.00,-33.38
2025-12-15 20:23:01.893,0,1015.49,-18.63,154.44,3.44,4.31,0.12,-0.33,8.86,-0.14,0.06,-1.00,-16.19,-14.56,-32.69
2025-12-15 20:23:02.009,0,1015.49,-18.63,159.38,2.06,3.25,-0.29,-0.26,9.72,0.28,0.41,-1.03,-14.25,-17.06,-33.50
2025-12-15 20:23:02.121,0,1015.49,-18.63,164.19,0.19,1.19,-0.65,-0.11,10.70,0.27,0.17,-1.06,-11.75,-18.38,-34.06
2025-12-15 20:23:02.234,0,1015.49,-18.64,169.75,0.38,0.38,-0.24,-0.06,9.02,0.01,-0.14,-1.07,-8.50,-20.50,-33.25
2025-12-15 20:23:02.349,0,1015.49,-18.64,175.38,0.44,2.25,0.04,-0.16,8.21,-0.64,0.25,-1.07,-6.69,-22.38,-33.25
2025-12-15 20:23:02.465,0,1015.49,-18.62,181.19,-1.81,4.50,-0.34,-0.38,8.83,0.12,0.50,-1.04,-2.69,-20.50,-34.06
2025-12-15 20:23:02.577,0,1015.49,-18.62,187.19,-3.62,3.12,-0.67,-0.17,9.02,0.17,0.12,-1.07,0.56,-22.00,-32.75
2025-12-15 20:23:02.692,0,1015.49,-18.61,194.00,-2.38,2.81,-0.41,-0.08,9.66,-0.03,-0.33,-1.09,4.19,-22.38,-31.56
2025-12-15 20:23:02.809,0,1015.49,-18.61,200.12,-0.50,3.06,0.11,-0.23,11.85,0.14,-0.03,-1.06,7.06,-22.00,-32.00
2025-12-15 20:23:02.923,0,1015.48,-18.59,206.88,-1.81,4.38,-0.06,-0.36,8.61,-0.35,0.51,-1.06,9.19,-22.00,-32.00
2025-12-15 20:23:03.038,0,1015.48,-18.56,213.38,-4.56,3.00,-0.48,-0.25,6.13,0.66,0.42,-1.07,14.38,-19.75,-32.75
2025-12-15 20:23:03.156,0,1015.48,-18.57,220.38,-5.12,5.81,-0.85,-0.54,9.40,-1.12,-0.19,-1.10,17.69,-20.19,-29.88
2025-12-15 20:23:03.270,0,1015.48,-18.56,226.38,-1.44,4.75,-0.31,-0.36,10.00,1.18,-0.64,-1.04,20.50,-17.69,-30.69
2025-12-15 20:23:03.390,0,1015.48,-18.56,233.19,1.38,2.12,0.44,-0.26,10.57,-0.38,0.09,-1.04,21.75,-19.19,-30.69
2025-12-15 20:23:03.507,0,1015.48,-18.55,240.00,-1.56,0.56,-0.25,-0.22,8.44,0.62,0.74,-1.01,23.50,-17.38,-31.06
2025-12-15 20:23:03.621,0,1015.48,-18.55,246.31,-5.12,-1.69,-1.02,-0.16,9.12,0.40,0.21,-1.03,29.56,-16.50,-26.19
2025-12-15 20:23:03.738,0,1015.48,-18.56,253.25,-3.81,-3.06,-0.59,-0.12,8.80,0.25,-0.70,-1.00,33.50,-15.06,-25.06
2025-12-15 20:23:03.862,0,1015.48,-18.55,260.00,0.69,-3.62,0.18,-0.10,10.09,-0.06,-0.65,-0.97,34.88,-11.00,-28.50
2025-12-15 20:23:03.975,0,1015.48,-18.55,265.88,1.94,-2.69,0.19,-0.19,9.62,-0.19,0.14,-0.94,34.19,-7.00,-31.25
2025-12-15 20:23:04.091,0,1015.48,-18.56,271.94,-1.00,-2.81,-0.36,-0.08,9.37,0.26,0.62,-0.91,37.50,-3.00,-30.38
2025-12-15 20:23:04.208,0,1015.48,-18.56,277.88,-4.31,-2.69,-0.85,-0.23,8.84,0.02,0.18,-0.89,37.50,0.38,-27.88
2025-12-15 20:23:04.320,0,1015.48,-18.56,283.44,-3.00,-2.56,-0.60,-0.03,9.15,-0.05,-0.59,-0.87,38.00,7.00,-27.50
2025-12-15 20:23:04.433,0,1015.48,-18.55,289.25,1.06,-0.69,0.02,-0.25,8.99,-0.37,-0.62,-0.87,32.88,10.69,-32.00
2025-12-15 20:23:04.548,0,1015.48,-18.53,295.00,3.06,0.38,0.36,-0.21,10.35,-0.11,0.08,-0.85,29.69,14.88,-33.06
2025-12-15 20:23:04.662,0,1015.48,-18.54,300.19,0.69,1.31,-0.53,-0.13,11.80,-0.29,0.52,-0.83,26.50,17.75,-32.19
2025-12-15 20:23:04.775,0,1015.48,-18.53,305.19,-0.69,2.69,-0.93,-0.30,8.97,0.01,-0.14,-0.79,24.56,19.06,-29.75
2025-12-15 20:23:04.889,0,1015.48,-18.54,310.31,2.25,2.19,-0.49,-0.17,8.09,0.02,-0.76,-0.78,21.19,20.69,-31.25
2025-12-15 20:23:05.004,0,1015.47,-18.50,314.94,7.12,1.88,0.20,-0.17,8.54,-0.02,-0.59,-0.74,17.50,21.88,-34.25
2025-12-15 20:23:05.119,0,1015.47,-18.44,319.62,8.50,0.62,0.37,-0.30,9.94,0.21,0.27,-0.70,12.25,21.56,-34.75
2025-12-15 20:23:05.232,0,1015.47,-18.44,323.75,4.44,-1.00,-0.28,-0.05,10.03,0.03,0.75,-0.68,12.69,21.56,-36.06
2025-12-15 20:23:05.347,0,1015.47,-18.43,327.69,0.12,-0.69,-0.57,-0.22,8.15,-0.04,0.54,-0.62,13.00,20.19,-34.38
2025-12-15 20:23:05.461,0,1015.47,-18.43,331.69,-2.12,-0.25,-0.55,-0.32,8.17,-0.01,0.12,-0.60,15.06,22.50,-35.69
2025-12-15 20:23:05.575,0,1015.46,-18.42,335.12,-2.06,-0.69,-0.32,-0.18,8.56,0.18,-0.09,-0.58,15.00,23.38,-35.38
2025-12-15 20:23:05.688,0,1015.46,-18.42,338.19,-1.81,-0.06,-0.06,-0.09,10.55,-0.42,0.07,-0.55,14.56,24.19,-36.69
2025-12-15 20:23:05.802,0,1015.47,-18.48,341.62,-2.81,0.62,-0.41,-0.39,11.22,0.38,0.17,-0.50,13.00,25.25,-36.25
2025-12-15 20:23:05.918,0,1015.47,-18.48,344.38,-3.38,-0.44,-0.51,-0.21,9.67,-0.28,0.00,-0.51,9.69,24.75,-36.25
2025-12-15 20:23:06.030,0,1015.47,-18.51,347.31,-2.81,-0.56,-0.37,-0.23,9.53,0.42,-0.18,-0.45,8.56,26.00,-35.06
2025-12-15 20:23:06.143,0,1015.47,-18.50,350.06,-1.69,-2.88,-0.07,-0.11,8.25,0.30,-0.12,-0.42,7.88,24.56,-35.88
2025-12-15 20:23:06.259,0,1015.47,-18.50,352.75,-2.06,-4.19,0.20,-0.42,8.38,0.50,0.31,-0.38,3.88,23.75,-37.06
2025-12-15 20:23:06.374,0,1015.47,-18.49,355.19,-6.06,-9.19,-0.45,0.25,10.51,0.66,0.72,-0.39,4.50,20.50,-38.00
2025-12-15 20:23:06.486,0,1015.47,-18.49,357.12,-8.75,-6.38,-1.29,-0.20,8.61,-0.97,-0.11,-0.35,6.38,20.50,-38.50
2025-12-15 20:23:06.601,0,1015.48,-18.55,359.25,-4.00,-2.12,-0.50,-0.11,8.47,-0.69,-1.29,-0.33,4.50,23.38,-37.56
2025-12-15 20:23:06.716,0,1015.48,-18.56,1.69,4.00,2.06,0.74,-0.32,11.42,-0.49,-0.89,-0.32,-0.50,26.69,-35.50
2025-12-15 20:23:06.828,0,1015.49,-18.60,3.56,5.25,4.62,0.46,-0.24,10.38,-0.44,0.33,-0.28,-3.38,28.19,-35.88
2025-12-15 20:23:06.942,0,1015.49,-18.60,5.31,1.56,6.62,-1.23,-0.20,10.30,-0.25,0.53,-0.22,-4.19,30.38,-34.00
2025-12-15 20:23:07.061,0,1015.49,-18.63,6.31,3.69,8.62,-1.32,-0.11,10.94,-0.49,-1.36,-0.18,-3.38,30.69,-33.00
2025-12-15 20:23:07.176,0,1015.48,-18.58,6.69,14.81,11.25,0.90,-0.75,9.88,0.11,-1.56,-0.17,-7.88,30.06,-28.56
2025-12-15 20:23:07.288,0,1015.48,-18.58,11.00,15.69,4.94,1.23,-0.30,8.82,0.45,1.62,-1.62,-11.56,27.88,-27.50
2025-12-15 20:23:07.403,0,1015.47,-18.47,21.69,2.75,4.38,-0.33,-0.83,9.21,-0.30,2.65,-1.61,-11.00,24.19,-31.25
2025-12-15 20:23:07.518,0,1015.47,-18.47,33.44,-10.50,0.56,-1.87,0.21,11.46,1.25,1.20,-1.72,-7.69,24.56,-30.25
2025-12-15 20:23:07.632,0,1015.47,-18.43,44.06,-10.81,2.38,-0.79,-0.40,12.61,-0.27,-0.69,-1.74,-8.25,19.56,-32.69
2025-12-15 20:23:07.745,0,1015.47,-18.43,54.25,-5.25,3.62,0.80,0.08,9.02,-0.22,-0.52,-1.64,-15.50,18.19,-31.19
2025-12-15 20:23:07.860,0,1015.45,-18.32,64.88,-4.56,8.75,0.58,-0.45,7.48,-0.76,0.64,-1.57,-20.88,17.25,-30.38
2025-12-15 20:23:07.975,0,1015.44,-18.24,74.62,-8.50,11.50,-0.51,-0.62,7.95,0.25,0.97,-1.51,-25.25,14.50,-31.69
2025-12-15 20:23:08.088,0,1015.44,-18.25,85.38,-10.38,9.06,-1.02,-0.25,7.63,0.76,0.05,-1.52,-24.06,8.88,-34.00
2025-12-15 20:23:08.204,0,1015.44,-18.23,94.62,-5.44,5.12,-0.43,-0.30,9.23,0.96,-1.22,-1.45,-24.50,3.56,-33.50
2025-12-15 20:23:08.318,0,1015.44,-18.21,103.75,2.69,-0.50,1.03,0.08,9.99,0.69,-0.86,-1.32,-27.06,-3.69,-30.06
2025-12-15 20:23:08.432,0,1015.44,-18.21,112.62,2.44,-1.25,0.89,-0.49,9.65,-0.19,0.79,-1.24,-26.06,-11.38,-28.19
2025-12-15 20:23:08.546,0,1015.44,-18.23,122.00,-7.00,-2.62,-2.46,-0.88,10.93,0.63,2.25,-2.18,-21.25,-14.06,-29.75
2025-12-15 20:23:08.662,0,1015.44,-18.22,132.62,-15.31,-6.44,-2.40,0.56,10.99,0.01,-0.01,-0.74,-12.19,-20.19,-30.19
2025-12-15 20:23:08.778,0,1015.44,-18.19,133.12,-11.31,-6.06,-1.77,0.05,7.72,-0.03,-1.06,0.81,-9.56,-20.69,-29.50
2025-12-15 20:23:08.893,0,1015.44,-18.20,121.88,-1.31,-6.94,-0.58,-0.13,9.12,-0.28,-1.27,2.69,-13.25,-18.25,-27.00
2025-12-15 20:23:09.010,0,1015.43,-18.12,102.25,4.81,-5.00,0.49,-0.31,8.09,0.36,-0.15,3.40,-18.38,-14.56,-25.19
2025-12-15 20:23:09.125,0,1015.43,-18.11,78.38,5.88,-5.94,0.38,0.22,9.17,-0.10,0.74,4.06,-21.00,-5.19,-25.69
2025-12-15 20:23:09.243,0,1015.43,-18.12,51.19,1.75,-1.56,-0.45,-0.40,10.66,-0.22,0.89,4.11,-18.50,3.19,-26.19
2025-12-15 20:23:09.364,0,1015.43,-18.12,23.69,-0.69,-1.00,-0.64,-0.22,10.31,-0.11,0.06,4.14,-12.06,11.19,-27.50
2025-12-15 20:23:09.483,0,1015.43,-18.12,356.31,0.00,-1.44,-0.17,-0.44,8.26,0.68,0.10,4.01,-1.06,16.38,-26.88
2025-12-15 20:23:09.598,0,1015.43,-18.10,333.25,0.19,-2.81,0.12,-0.15,9.36,-0.45,0.10,3.33,5.50,15.50,-27.69
2025-12-15 20:23:09.713,0,1015.43,-18.10,310.88,-0.94,-1.88,-0.12,-0.61,9.11,0.45,0.44,3.35,9.88,14.50,-27.38
2025-12-15 20:23:09.829,0,1015.43,-18.12,291.69,-1.31,-4.12,-0.57,3.24,9.52,-0.21,-0.64,2.16,18.38,7.50,-28.25
2025-12-15 20:23:09.941,0,1015.43,-18.11,284.56,5.94,-0.12,1.10,-1.09,9.23,-0.07,-0.86,1.13,16.56,6.00,-29.06
2025-12-15 20:23:10.055,0,1015.43,-18.09,276.44,6.50,-2.44,1.00,0.01,8.84,0.45,0.77,1.17,15.69,3.75,-30.19
2025-12-15 20:23:10.172,0,1015.43,-18.10,269.81,-0.44,-1.06,0.99,0.47,8.30,-0.88,0.88,0.51,18.25,-0.06,-28.50
2025-12-15 20:23:10.285,0,1015.43,-18.12,266.88,-3.50,2.75,-0.90,-0.72,10.02,-0.30,0.08,0.44,20.69,0.19,-26.00
2025-12-15 20:23:10.398,0,1015.44,-18.19,265.50,-2.00,3.81,-0.95,-1.11,11.04,0.48,-0.65,0.15,20.00,2.06,-26.38
2025-12-15 20:23:10.513,0,1015.44,-18.20,264.75,2.25,-1.50,0.23,0.56,9.10,-0.30,-0.54,0.15,19.25,0.56,-26.38
2025-12-15 20:23:10.627,0,1015.44,-18.18,264.38,3.38,4.81,0.44,-0.90,9.31,-0.54,0.25,0.15,19.56,-0.75,-28.19
2025-12-15 20:23:10.740,0,1015.43,-18.17,264.44,0.25,1.88,0.05,-0.48,7.80,0.24,0.40,0.10,20.69,1.69,-26.88
2025-12-15 20:23:10.854,0,1015.43,-18.17,263.69,0.25,6.56,0.03,-0.56,9.59,0.19,-0.34,0.22,20.69,3.19,-26.50
2025-12-15 20:23:10.968,0,1015.44,-18.18,266.81,2.88,3.56,0.67,-0.59,11.70,0.71,-0.09,-0.65,19.56,4.25,-26.88
2025-12-15 20:23:11.084,0,1015.44,-18.20,271.25,2.31,1.75,0.61,-0.05,9.31,-0.28,0.05,-0.47,18.19,4.25,-26.50
2025-12-15 20:23:11.196,0,1015.44,-18.21,276.25,1.94,0.50,0.40,-0.36,8.45,0.54,0.26,-0.65,17.38,5.00,-27.69
2025-12-15 20:23:11.311,0,1015.44,-18.18,280.69,-1.62,-4.31,0.43,0.67,7.77,-0.51,0.57,-0.20,16.69,6.06,-28.19
2025-12-15 20:23:11.426,0,1015.43,-18.17,281.06,-5.25,-0.38,-1.06,-0.73,9.72,0.05,0.33,0.08,18.19,5.00,-26.75
2025-12-15 20:23:11.541,0,1015.44,-18.22,283.38,-2.19,-0.94,-0.14,0.30,12.25,-0.93,-1.07,-0.42,18.88,5.00,-26.19
2025-12-15 20:23:11.653,0,1015.44,-18.20,287.06,2.75,1.94,0.30,-0.54,8.34,0.47,-0.53,-0.58,14.88,6.50,-27.50
2025-12-15 20:23:11.768,0,1015.44,-18.20,291.38,3.81,-0.19,0.26,-0.02,7.91,-0.28,0.24,-0.60,13.69,6.50,-29.19
2025-12-15 20:23:11.882,0,1015.44,-18.20,295.00,0.62,1.31,-0.36,-0.36,9.14,0.01,0.65,-0.58,15.56,6.06,-30.00
2025-12-15 20:23:11.994,0,1015.44,-18.20,298.50,-2.06,0.38,-0.92,-0.20,10.27,0.27,0.17,-0.60,17.75,8.38,-28.75
2025-12-15 20:23:12.107,0,1015.44,-18.25,302.25,-0.44,0.12,-0.50,-0.05,11.14,-0.17,-0.61,-0.61,18.06,8.00,-28.00
2025-12-15 20:23:12.223,0,1015.44,-18.25,306.25,3.44,1.69,0.25,-0.23,7.69,-0.28,-0.37,-0.61,16.56,10.19,-30.50
2025-12-15 20:23:12.339,0,1015.44,-18.21,309.50,3.06,2.31,0.36,-0.32,8.73,0.03,0.57,-0.61,13.56,11.88,-30.00
2025-12-15 20:23:12.452,0,1015.44,-18.22,312.94,-1.81,1.81,-0.53,-0.13,8.97,-0.00,0.88,-0.61,14.75,13.00,-28.69
2025-12-15 20:23:12.566,0,1015.44,-18.25,316.44,-4.81,2.38,-1.21,-0.18,9.98,0.04,-0.05,-0.60,17.25,14.06,-28.19
2025-12-15 20:23:12.681,0,1015.45,-18.30,320.12,-1.06,2.56,-0.33,-0.07,11.43,-0.05,-0.87,-0.60,14.75,14.50,-27.06
2025-12-15 20:23:12.793,0,1015.45,-18.30,322.81,3.19,3.62,0.38,-0.25,8.30,-0.21,-0.40,-0.60,12.56,14.50,-27.88
2025-12-15 20:23:12.905,0,1015.44,-18.26,325.75,3.19,4.12,0.27,-0.38,8.04,0.06,0.45,-0.58,10.69,15.19,-29.56
2025-12-15 20:23:13.020,0,1015.44,-18.26,329.00,-0.38,2.56,-0.53,-0.20,9.18,0.32,0.61,-0.59,11.75,15.88,-30.38
2025-12-15 20:23:13.136,0,1015.45,-18.30,331.62,-2.25,1.44,-0.90,-0.07,9.85,0.08,-0.02,-0.58,12.75,14.88,-28.19
2025-12-15 20:23:13.249,0,1015.45,-18.31,333.62,0.12,1.81,-0.31,-0.28,10.66,-0.11,-0.58,-0.56,11.69,16.25,-29.56
2025-12-15 20:23:13.361,0,1015.45,-18.32,336.25,3.19,1.75,0.51,-1.55,9.95,0.03,-0.15,-0.55,10.19,17.00,-28.19
2025-12-15 20:23:13.476,0,1015.45,-18.32,338.69,1.25,1.00,0.07,-0.27,7.99,0.14,0.65,-0.53,9.50,17.25,-28.25
2025-12-15 20:23:13.591,0,1015.45,-18.31,341.25,-3.31,0.12,-0.66,-0.14,9.15,0.10,0.69,-0.52,10.06,18.06,-27.88
2025-12-15 20:23:13.704,0,1015.45,-18.30,343.75,-5.44,0.06,-1.17,-0.03,10.98,0.01,-0.14,-0.50,9.88,18.75,-27.88
2025-12-15 20:23:13.820,0,1015.46,-18.36,346.25,-1.69,0.75,-0.22,-0.30,11.36,-0.06,-0.86,-0.47,8.75,18.75,-27.38
2025-12-15 20:23:13.938,0,1015.46,-18.36,349.12,3.00,-0.19,0.34,-0.17,7.89,0.22,-0.46,-0.44,4.69,18.38,-27.38
2025-12-15 20:23:14.051,0,1015.46,-18.36,351.00,3.00,-1.12,0.21,-0.12,7.89,0.07,0.41,-0.40,2.88,18.06,-28.69
2025-12-15 20:23:14.164,0,1015.46,-18.36,353.12,-0.94,-1.12,-0.51,-0.13,9.13,-0.10,0.65,-0.37,2.88,17.69,-28.69
2025-12-15 20:23:14.280,0,1015.46,-18.36,354.75,-3.25,-0.31,-1.06,-0.21,11.10,-0.15,-0.06,-0.33,4.69,18.38,-28.19
2025-12-15 20:23:14.396,0,1015.46,-18.40,356.62,-0.31,0.81,-0.40,-0.24,8.43,-0.17,-0.74,-0.30,2.88,19.88,-27.00
2025-12-15 20:23:14.511,0,1015.46,-18.40,358.31,3.56,1.94,0.43,-0.24,9.46,-0.24,-0.32,-0.27,1.00,19.19,-26.56
2025-12-15 20:23:14.634,0,1015.46,-18.39,359.94,2.81,2.50,0.15,-0.28,8.27,0.09,0.48,-0.23,-0.38,20.25,-28.19
2025-12-15 20:23:14.749,0,1015.46,-18.40,0.62,-0.94,1.19,-0.57,-0.21,9.30,0.27,0.62,-0.21,1.38,19.50,-26.19
2025-12-15 20:23:14.865,0,1015.47,-18.44,1.12,-2.81,-0.12,-1.00,-0.11,11.40,0.01,-0.12,-0.17,2.50,19.50,-25.69
2025-12-15 20:23:14.983,0,1015.47,-18.44,1.56,0.00,0.62,-0.16,-0.25,9.30,-0.26,-0.63,-0.11,1.75,19.38,-24.56
2025-12-15 20:23:15.099,0,1015.47,-18.44,1.06,3.31,1.62,0.27,-0.29,8.17,-0.10,-0.28,-0.08,0.69,19.38,-26.25
2025-12-15 20:23:15.216,0,1015.47,-18.44,0.75,2.56,1.44,0.17,-0.22,8.58,0.14,0.44,-0.03,0.00,22.00,-25.25
2025-12-15 20:23:15.333,0,1015.47,-18.44,0.19,-1.25,0.81,-0.58,-0.17,10.26,-0.00,0.64,0.01,1.00,22.38,-26.19
2025-12-15 20:23:15.448,0,1015.47,-18.49,359.69,-3.44,0.88,-1.09,-0.13,11.04,0.08,-0.10,0.06,1.38,26.06,-24.88
2025-12-15 20:23:15.561,0,1015.47,-18.49,359.19,-0.25,0.31,-0.23,-0.23,8.53,0.19,-0.71,0.10,0.69,26.75,-23.19
2025-12-15 20:23:15.677,0,1015.47,-18.48,358.31,2.81,-0.50,0.56,-0.10,9.54,0.00,-0.08,0.16,0.69,27.56,-25.25
2025-12-15 20:23:15.793,0,1015.47,-18.48,357.12,0.56,0.12,0.03,-0.18,8.07,-0.17,0.67,0.21,-2.25,29.56,-26.06
2025-12-15 20:23:15.906,0,1015.47,-18.49,355.69,-4.00,0.94,-0.74,-0.29,9.26,-0.08,0.63,0.26,-0.38,31.06,-24.00
2025-12-15 20:23:16.019,0,1015.48,-18.53,353.81,-5.44,0.75,-1.04,-0.11,11.52,-0.02,-0.27,0.30,-0.38,31.50,-24.25
2025-12-15 20:23:16.134,0,1015.48,-18.54,351.81,-1.69,1.25,-0.01,-0.39,10.82,-0.09,-0.70,0.34,-1.88,32.19,-24.19
2025-12-15 20:23:16.250,0,1015.48,-18.51,349.31,1.00,0.00,0.33,-0.27,7.83,0.37,-0.07,0.39,-4.06,31.00,-25.00
2025-12-15 20:23:16.362,0,1015.48,-18.51,346.88,-0.81,-2.25,0.00,-0.06,8.64,0.34,0.61,0.41,-2.25,29.88,-26.38
2025-12-15 20:23:16.478,0,1015.47,-18.49,345.50,-4.69,-3.12,-0.85,-0.09,8.66,-0.01,0.50,0.46,0.00,29.38,-28.00
2025-12-15 20:23:16.593,0,1015.47,-18.50,344.81,-5.06,-2.88,-1.04,-0.15,9.87,-0.11,-0.41,0.50,1.38,29.06,-26.69
2025-12-15 20:23:16.706,0,1015.48,-18.51,345.12,-0.06,-2.31,-0.08,-0.23,11.80,-0.07,-0.95,0.52,2.19,29.38,-29.25
2025-12-15 20:23:16.819,0,1015.47,-18.50,343.50,4.00,-2.25,0.40,-0.30,8.01,0.14,-0.23,0.56,1.75,29.38,-28.38
2025-12-15 20:23:16.933,0,1015.47,-18.50,341.19,2.94,-3.19,0.12,-0.07,10.21,0.13,0.58,0.60,2.19,28.19,-28.38
2025-12-15 20:23:17.050,0,1015.47,-18.50,338.56,-1.06,-3.19,-0.83,-0.17,8.43,-0.05,0.51,0.64,7.69,27.50,-27.06
2025-12-15 20:23:17.163,0,1015.47,-18.49,335.81,-1.81,-2.94,-1.02,-0.03,8.94,-0.08,-0.36,0.67,8.75,27.50,-28.38
2025-12-15 20:23:17.275,0,1015.48,-18.52,332.69,2.38,-0.94,-0.17,-0.18,9.28,-0.36,-0.91,0.69,9.88,26.38,-28.00
2025-12-15 20:23:17.390,0,1015.48,-18.53,329.81,6.06,1.31,0.30,-0.14,11.35,-0.17,0.00,0.69,7.38,26.75,-28.00
2025-12-15 20:23:17.505,0,1015.48,-18.54,319.44,6.94,1.12,1.19,-0.11,9.14,0.33,-0.66,3.16,10.69,24.75,-28.50
2025-12-15 20:23:17.617,0,1015.48,-18.54,299.88,4.81,2.12,1.00,-0.25,7.51,0.41,1.06,3.22,17.75,19.25,-28.88
2025-12-15 20:23:17.734,0,1015.48,-18.52,278.75,-5.94,-1.06,-0.66,-0.14,9.55,0.47,1.71,3.16,25.50,13.06,-28.50
2025-12-15 20:23:17.850,0,1015.48,-18.53,259.56,-10.69,-6.44,-1.99,0.28,9.89,0.06,0.12,3.14,31.75,-3.19,-22.88
2025-12-15 20:23:17.963,0,1015.48,-18.56,240.69,-2.56,-5.75,-0.45,-0.58,9.44,-0.50,-1.68,3.10,27.38,-10.50,-24.56
2025-12-15 20:23:18.075,0,1015.48,-18.57,220.38,8.69,-5.69,1.28,-0.54,10.29,0.82,-0.79,3.10,19.25,-18.50,-27.50
2025-12-15 20:23:18.190,0,1015.48,-18.59,201.06,8.62,-6.06,0.74,-0.03,11.25,0.01,1.34,3.07,9.06,-25.06,-28.00
2025-12-15 20:23:18.305,0,1015.48,-18.56,180.19,0.94,-4.56,-1.09,-0.08,8.08,0.11,1.17,3.05,0.38,-28.50,-27.69
2025-12-15 20:23:18.419,0,1015.48,-18.56,161.50,0.44,-3.88,-1.54,0.13,9.25,-0.58,-0.64,3.02,-6.50,-28.38,-26.69
2025-12-15 20:23:18.535,0,1015.48,-18.55,143.31,7.50,0.56,0.25,-0.65,8.62,-0.03,-1.22,2.97,-15.19,-24.75,-27.50
2025-12-15 20:23:18.650,0,1015.48,-18.56,130.25,7.31,0.00,0.61,-1.19,10.01,0.40,1.71,-0.30,-26.25,-18.19,-25.00
2025-12-15 20:23:18.762,0,1015.48,-18.58,137.12,-4.31,-1.62,-1.08,-1.02,9.25,0.33,1.78,-1.80,-21.75,-20.06,-28.88
2025-12-15 20:23:18.874,0,1015.48,-18.58,149.12,-8.81,-1.94,-1.93,-0.08,11.06,-0.18,-0.63,-1.89,-13.00,-22.25,-28.69
2025-12-15 20:23:18.989,0,1015.48,-18.58,161.31,-3.00,-0.06,-0.52,-0.75,7.54,0.03,-0.86,-1.84,-11.38,-23.75,-28.69
2025-12-15 20:23:19.106,0,1015.48,-18.58,169.19,1.69,1.81,0.74,-0.61,10.16,0.22,-0.32,-1.07,-8.75,-26.75,-27.69
