Time,Phase,Pressure,Altitude,Heading,Roll,Pitch,AccelX,AccelY,AccelZ,GyroX,GyroY,GyroZ,MagX,MagY,MagZ
1765366729.47,0,1019.26,-49.90,247.06,4.38,-2.31,0.82,0.19,9.38,0.06,0.15,0.50,3.69,1.69,-25.19
1765366729.58,0,1019.26,-49.89,243.81,1.62,-0.94,0.16,-0.17,9.36,-0.23,0.62,0.48,4.38,1.38,-25.19
1765366729.70,0,1019.26,-49.89,240.88,-1.25,-0.94,-0.44,-0.08,9.48,0.24,0.18,0.46,7.25,1.38,-23.50
1765366729.85,0,1019.26,-49.89,237.19,0.94,-1.50,0.14,0.00,9.62,-0.20,-0.61,0.44,7.25,0.38,-22.69
1765366729.98,0,1019.26,-49.90,234.19,4.38,-0.56,0.81,-0.17,9.60,0.12,-0.21,0.40,4.38,1.06,-24.00
1765366730.09,0,1019.26,-49.90,231.81,2.88,-2.06,0.49,0.06,9.14,0.23,0.59,0.35,5.50,-0.38,-24.38
1765366730.21,0,1019.26,-49.89,229.44,-1.12,-1.75,-0.18,-0.03,8.89,-0.21,0.56,0.34,7.00,-1.06,-23.06
1765366730.32,0,1019.26,-49.90,227.38,-2.56,-0.56,-0.37,-0.17,9.14,-0.04,-0.13,0.32,8.75,-1.06,-22.25
1765366730.44,0,1019.26,-49.90,225.38,0.06,-0.56,0.13,0.00,9.98,-0.04,-0.59,0.28,7.38,-1.75,-23.50
1765366730.55,0,1019.26,-49.89,223.62,3.00,-0.06,0.75,-0.13,9.18,-0.01,-0.18,0.25,7.06,-1.50,-23.19
1765366730.67,0,1019.26,-49.90,222.25,1.94,-0.38,0.54,0.00,9.53,0.05,0.52,0.20,7.06,-2.56,-23.06
1765366730.79,0,1019.26,-49.90,221.00,-1.62,0.00,-0.24,-0.08,9.73,-0.13,0.39,0.17,8.50,-3.56,-23.50
1765366730.91,0,1019.26,-49.88,219.94,-1.94,0.12,-0.31,-0.15,9.15,0.09,-0.30,0.15,10.38,-2.75,-21.88
1765366731.02,0,1019.26,-49.88,219.12,1.19,-0.50,0.41,0.05,9.81,0.03,-0.58,0.11,10.38,-3.56,-21.88
1765366731.14,0,1019.26,-49.88,218.50,3.62,-0.12,0.73,-0.08,9.43,-0.06,-0.07,0.08,8.88,-4.25,-20.56
1765366731.26,0,1019.26,-49.88,218.12,1.81,-0.31,0.23,-0.05,8.71,0.08,0.47,0.04,8.50,-4.00,-20.56
1765366731.37,0,1019.26,-49.90,218.00,-0.62,-0.31,-0.22,0.00,9.96,-0.09,0.25,0.01,7.38,-5.38,-19.75
1765366731.48,0,1019.26,-49.89,218.00,-0.19,0.06,-0.04,-0.16,9.87,0.03,-0.31,-0.02,8.06,-2.75,-17.56
1765366731.60,0,1019.26,-49.90,0.00,0.00,0.00,0.51,0.06,10.35,0.11,-0.35,-0.05,6.00,-5.00,-19.69
1765366731.71,0,1019.26,-49.89,218.69,2.88,-0.44,0.67,-0.04,10.00,-0.16,0.17,-0.08,7.75,-4.00,-19.69
1765366731.82,0,1019.26,-49.89,219.25,0.50,-0.19,0.15,-0.15,8.91,0.10,0.49,-0.10,7.06,-4.69,-21.00
1765366731.94,0,1019.26,-49.89,219.94,-1.81,-1.12,-0.28,0.05,8.31,0.07,0.18,-0.13,8.50,-5.38,-21.38
1765366732.05,0,1019.26,-49.89,220.81,-1.19,-0.44,-0.12,-0.10,8.56,-0.20,-0.35,-0.13,8.88,-6.19,-22.69
1765366732.17,0,1019.26,-49.89,221.75,1.56,0.06,0.41,-0.13,9.80,0.05,-0.45,-0.16,9.25,-5.38,-20.56
1765366732.28,0,1019.26,-49.90,222.81,2.94,-0.50,0.64,0.07,10.28,-0.00,0.05,-0.19,7.38,-5.00,-21.38
1765366732.39,0,1019.26,-49.91,224.12,1.50,0.19,0.15,-0.12,9.12,-0.15,0.31,-0.20,10.00,-5.38,-20.56
1765366732.51,0,1019.26,-49.92,225.44,0.19,0.25,-0.17,-0.07,9.24,0.11,0.00,-0.22,7.38,-5.38,-21.38
1765366732.63,0,1019.26,-49.92,227.00,1.44,-0.06,0.08,0.00,9.55,-0.05,-0.39,-0.24,8.06,-5.38,-21.00
1765366732.74,0,1019.26,-49.92,228.50,3.69,0.31,0.57,-0.13,9.63,-0.00,-0.22,-0.26,8.50,-4.88,-21.00
1765366732.85,0,1019.26,-49.92,230.31,3.44,-0.38,0.52,0.01,9.43,0.14,0.28,-0.29,6.69,-4.25,-21.88
1765366732.97,0,1019.26,-49.92,232.06,0.88,-0.50,0.08,-0.01,9.27,-0.10,0.46,-0.30,8.06,-4.00,-21.38
1765366733.08,0,1019.26,-49.91,233.94,-0.94,0.00,-0.19,-0.14,9.55,0.02,0.07,-0.31,8.50,-3.19,-21.00
1765366733.19,0,1019.26,-49.91,236.06,-0.06,-0.56,0.11,0.01,9.61,0.13,-0.30,-0.32,8.88,-2.50,-21.00
1765366733.31,0,1019.26,-49.92,238.06,1.69,-0.50,0.50,0.00,9.34,-0.13,-0.19,-0.33,7.75,-2.38,-20.56
1765366733.42,0,1019.26,-49.90,240.12,1.56,0.19,0.43,-0.12,8.94,-0.05,0.25,-0.34,7.50,-0.56,-22.19
1765366733.54,0,1019.26,-49.90,242.44,-0.56,0.12,0.04,0.00,9.50,0.00,0.35,-0.35,-2040.12,-8.88,-22.56
1765366733.65,0,1019.26,-49.91,244.62,-1.56,0.75,-0.18,-0.07,9.55,-0.16,-0.02,-0.36,8.56,-0.19,-21.75
1765366733.76,0,1019.26,-49.91,246.81,0.00,1.25,0.12,-0.10,9.49,0.05,-0.41,-0.36,8.56,1.25,-21.38
1765366733.88,0,1019.26,-49.91,249.25,2.50,0.50,0.54,0.00,10.07,0.10,-0.27,-0.37,7.88,0.88,-23.06
1765366733.99,0,1019.26,-49.91,251.50,2.62,0.50,0.54,-0.03,10.65,-0.11,0.20,-0.37,7.56,1.25,-22.56
1765366734.11,0,1019.26,-49.88,254.00,0.50,0.56,0.05,-0.11,9.90,0.12,0.34,-0.38,9.00,1.25,-22.56
1765366734.22,0,1019.26,-49.88,256.31,-0.44,-0.31,-0.17,0.00,8.00,0.09,-0.02,-0.38,9.38,1.69,-24.25
1765366734.34,0,1019.25,-49.87,258.62,0.69,-0.12,0.03,-0.10,7.31,-0.11,-0.31,-0.37,10.06,1.69,-24.25
1765366734.45,0,1019.26,-49.88,261.12,2.69,0.31,0.38,-0.10,8.46,-0.03,-0.23,-0.38,9.00,2.00,-24.25
1765366734.56,0,1019.26,-49.90,263.38,3.12,-0.19,0.53,0.03,10.58,0.14,0.11,-0.38,7.19,1.88,-24.25
1765366734.68,0,1019.26,-49.90,265.88,1.56,0.06,0.17,-0.01,11.01,-0.27,0.30,-0.37,5.56,1.25,-21.00
1765366734.79,0,1019.26,-49.91,268.19,0.38,1.12,-0.05,-0.23,9.85,0.05,0.04,-0.37,7.06,3.50,-21.00
1765366734.91,0,1019.26,-49.92,270.62,1.12,0.00,0.09,0.07,9.00,0.13,-0.23,-0.36,6.75,3.06,-21.00
1765366735.02,0,1019.26,-49.93,272.81,2.62,0.81,0.39,-0.02,9.25,-0.33,-0.19,-0.35,6.75,3.56,-21.88
1765366735.13,0,1019.26,-49.93,275.06,2.81,2.06,0.43,-0.22,9.55,-0.03,0.13,-0.36,6.06,4.69,-21.88
1765366735.25,0,1019.26,-49.93,277.25,1.38,0.94,0.09,0.10,9.54,0.13,0.26,-0.37,4.56,5.00,-21.88
1765366735.36,0,1019.26,-49.94,279.69,0.50,1.38,-0.07,-0.09,9.48,-0.25,-0.02,-0.35,7.19,4.69,-21.88
1765366735.48,0,1019.26,-49.94,281.88,1.56,1.81,0.14,-0.21,9.24,0.19,-0.28,-0.36,5.25,5.75,-23.50
1765366735.59,0,1019.26,-49.94,284.19,3.12,0.06,0.45,0.14,9.64,0.11,-0.15,-0.35,4.19,5.00,-20.56
1765366735.70,0,1019.26,-49.94,286.38,3.00,0.88,0.38,-0.11,9.40,-0.27,0.17,-0.34,3.06,4.69,-22.69
1765366735.82,0,1019.26,-49.92,288.50,1.38,1.00,0.10,-0.11,9.81,0.25,0.29,-0.35,3.88,6.88,-22.25
1765366735.93,0,1019.26,-49.93,290.81,0.06,-0.44,-0.04,0.09,9.59,0.04,0.06,-0.34,3.88,6.50,-21.88
1765366736.05,0,1019.26,-49.93,292.88,0.69,0.31,0.15,-0.19,9.52,-0.09,-0.22,-0.33,2.00,6.19,-22.69
1765366736.17,0,1019.26,-49.92,295.00,2.06,-0.38,0.34,-0.02,9.16,0.23,-0.13,-0.31,3.06,6.25,-22.69
1765366736.28,0,1019.26,-49.92,296.94,2.19,-0.81,0.29,0.04,9.53,-0.17,0.07,-0.29,2.69,6.56,-24.00
1765366736.41,0,1019.26,-49.90,298.81,1.50,0.56,0.06,-0.24,9.83,-0.09,0.07,-0.26,3.06,6.56,-24.38
1765366736.52,0,1019.26,-49.90,300.50,1.81,-0.44,0.10,0.10,10.57,0.21,-0.18,-0.24,3.88,5.38,-24.38
1765366736.64,0,1019.25,-49.87,301.88,3.12,-0.12,0.39,-0.01,10.24,-0.27,-0.18,-0.21,3.50,6.19,-25.06
1765366736.75,0,1019.25,-49.87,303.19,3.19,0.69,0.51,-0.15,9.43,0.06,0.19,-0.18,1.25,6.88,-27.25
1765366736.87,0,1019.25,-49.83,304.12,1.06,0.00,0.21,0.04,9.25,0.01,0.44,-0.14,3.06,7.69,-28.50
1765366736.99,0,1019.25,-49.83,304.94,-1.25,0.50,-0.19,-0.20,9.22,-0.07,0.20,-0.10,3.88,8.00,-27.69
1765366737.10,0,1019.24,-49.76,305.44,-0.88,-0.56,-0.12,-0.14,9.67,0.46,-0.31,-0.05,2.38,9.50,-28.50
1765366737.22,0,1019.23,-49.68,305.56,2.00,-2.62,0.28,0.27,10.42,-0.03,-0.50,0.02,2.00,7.25,-30.06
1765366737.33,0,1019.23,-49.68,305.38,4.25,-0.25,0.59,-0.14,9.75,-0.47,-0.18,0.07,0.56,8.00,-31.25
1765366737.44,0,1019.22,-49.61,304.94,3.50,1.06,0.51,-0.10,10.04,-0.02,0.37,0.11,-1.19,11.25,-31.00
1765366737.56,0,1019.22,-49.61,0.00,0.00,0.00,-0.02,0.01,8.75,-0.22,0.45,0.17,0.69,10.56,-33.06
1765366737.67,0,1019.21,-49.49,302.81,-1.06,3.38,-0.16,-0.25,8.54,-0.22,0.05,0.22,1.00,11.69,-32.25
1765366737.79,0,1019.21,-49.49,301.31,-0.25,3.00,0.13,0.03,9.06,0.14,-0.28,0.27,1.69,12.00,-31.25
1765366737.90,0,1019.20,-49.41,299.00,1.38,3.56,0.48,-0.20,8.81,-0.24,-0.04,0.32,-0.75,12.69,-31.75
1765366738.04,0,1019.19,-49.32,296.81,0.25,2.94,0.37,-0.22,9.78,0.45,0.36,0.33,1.00,13.38,-32.19
1765366738.15,0,1019.19,-49.33,294.81,-2.00,0.00,-0.14,0.15,9.65,0.21,0.24,0.35,1.69,13.06,-32.69
1765366738.27,0,1019.18,-49.27,292.38,-1.81,0.50,-0.25,-0.11,8.35,-0.27,-0.29,0.38,3.06,11.19,-33.75
1765366738.38,0,1019.18,-49.27,290.00,0.88,1.06,0.21,-0.25,8.77,0.16,-0.51,0.38,2.00,13.38,-33.00
1765366738.49,0,1019.18,-49.23,287.56,3.19,-0.81,0.60,0.09,9.42,0.31,-0.19,0.53,1.50,13.06,-33.00
1765366738.61,0,1019.18,-49.22,285.12,2.75,-0.50,0.33,-0.12,9.43,-0.23,0.27,0.41,1.50,12.25,-33.88
1765366738.72,0,1019.18,-49.22,282.44,0.94,-0.25,-0.16,-0.17,9.40,0.27,0.15,0.40,3.38,12.69,-33.38
1765366738.84,0,1019.18,-49.22,280.00,1.44,-1.62,-0.14,0.18,9.13,-0.05,-0.38,0.41,4.75,11.19,-33.75
1765366738.95,0,1019.17,-49.19,277.38,4.38,0.69,0.47,-0.15,9.22,-0.43,-0.44,0.40,4.06,12.25,-34.19
1765366739.07,0,1019.17,-49.19,275.00,5.06,1.44,0.70,-0.22,8.57,0.28,0.25,0.38,3.25,11.88,-33.38
1765366739.18,0,1019.17,-49.19,272.44,1.50,-0.19,0.28,0.14,9.28,0.08,0.74,0.37,3.69,13.38,-33.38
1765366739.30,0,1019.17,-49.19,270.19,-2.31,0.62,-0.47,-0.23,9.95,-0.15,0.40,0.38,8.38,11.88,-32.56
1765366739.41,0,1019.17,-49.19,267.94,-1.94,-0.19,-0.27,-0.03,9.52,0.31,-0.50,0.37,8.00,11.88,-32.88
1765366739.52,0,1019.17,-49.17,265.50,2.25,-0.75,0.66,0.10,9.71,-0.22,-0.60,0.37,8.38,10.50,-33.75
1765366739.64,0,1019.17,-49.17,263.38,3.62,0.88,0.76,-0.30,9.05,-0.08,0.17,0.35,7.38,10.88,-33.75
1765366739.75,0,1019.17,-49.17,261.38,0.88,-0.19,0.26,-0.17,8.71,0.33,0.56,0.29,7.38,10.06,-32.50
1765366739.86,0,1019.17,-49.17,259.62,-1.56,-1.06,-0.09,-0.05,9.71,-0.11,0.15,0.25,9.25,8.56,-32.50
1765366739.98,0,1019.17,-49.17,258.25,-0.75,-0.31,0.11,-0.14,9.76,0.01,-0.31,0.18,10.69,8.56,-33.25
1765366740.09,0,1019.17,-49.17,257.25,1.38,-0.31,0.49,-0.07,9.00,-0.03,-0.30,0.15,8.88,9.06,-33.69
1765366740.21,0,1019.17,-49.16,256.31,2.19,0.00,0.52,-0.11,9.33,0.02,0.11,0.12,9.56,8.38,-33.69
1765366740.32,0,1019.17,-49.17,255.56,0.75,-0.38,0.10,-0.19,8.76,0.20,0.28,0.14,10.38,7.69,-34.06
1765366740.43,0,1019.17,-49.17,254.56,-0.62,-2.56,-0.16,0.18,9.84,0.30,0.09,0.16,11.75,7.25,-32.50
1765366740.55,0,1019.17,-49.17,253.56,0.06,-1.81,0.12,0.05,10.91,-0.41,-0.27,0.15,10.69,6.50,-31.56
1765366740.66,0,1019.17,-49.18,252.75,1.81,0.00,0.42,-0.22,9.76,0.01,-0.18,0.12,10.38,7.69,-33.69
1765366740.78,0,1019.18,-49.22,252.06,2.12,-0.56,0.30,0.09,8.55,0.00,0.08,0.09,8.88,7.25,-32.75
1765366740.89,0,1019.18,-49.22,251.62,1.25,0.81,0.11,-0.12,8.74,-0.32,0.15,0.07,10.69,7.25,-34.50
1765366741.01,0,1019.17,-49.20,251.25,0.56,1.25,0.17,-0.14,9.81,0.22,-35.67,0.04,10.00,7.25,-32.75
1765366741.12,0,1019.17,-49.19,251.12,0.31,0.00,0.21,0.17,9.78,-0.01,0.03,0.02,10.38,7.69,-33.25
1765366741.23,0,1019.17,-49.20,251.06,0.12,1.38,0.18,-0.22,9.29,-0.22,0.05,-0.01,11.75,7.69,-33.25
1765366741.35,0,1019.17,-49.20,251.25,0.00,0.81,0.08,-0.11,9.28,0.36,0.02,-0.04,10.69,6.88,-32.50
1765366741.46,0,1019.17,-49.20,251.56,0.31,-0.94,0.07,0.06,8.74,0.07,-0.15,-0.06,11.75,7.25,-33.25
1765366741.58,0,1019.18,-49.21,252.00,1.56,-0.69,0.31,-0.17,9.50,-0.02,-0.18,-0.08,11.75,6.88,-33.69
1765366741.69,0,1019.18,-49.22,252.62,1.94,-1.69,0.49,0.02,9.99,0.26,0.08,-0.11,10.69,8.00,-33.69
1765366741.81,0,1019.17,-49.21,253.31,0.62,-1.81,0.13,0.07,9.84,-0.30,0.28,-0.11,11.06,6.19,-33.69
1765366741.92,0,1019.17,-49.20,254.00,-0.44,0.69,-0.17,-0.24,8.73,-0.26,-0.04,-0.11,10.69,8.00,-33.69
1765366742.04,0,1019.17,-49.20,254.81,0.94,0.62,0.05,-1.41,8.83,0.26,-0.35,-0.14,10.69,8.69,-33.25
1765366742.16,0,1019.17,-49.20,255.75,3.19,-1.12,0.61,0.09,10.04,0.15,-0.22,-0.15,9.56,7.69,-34.06
1765366742.28,0,1019.17,-49.20,256.75,2.62,-1.06,0.51,-0.04,9.99,-0.11,0.39,-0.17,10.69,6.50,-34.56
1765366742.39,0,1019.17,-49.21,257.88,-0.50,-0.56,-0.12,-0.04,9.08,-0.03,0.45,-0.18,11.50,6.38,-33.69
1765366742.51,0,1019.17,-49.20,259.00,-1.50,-0.19,-0.34,-0.08,9.12,-0.09,-0.20,-0.19,11.75,7.19,-32.50
1765366742.63,0,1019.17,-49.20,260.31,1.31,0.00,0.34,-0.09,8.88,0.06,-0.55,-0.20,12.56,7.19,-33.25
1765366742.75,0,1019.17,-49.19,261.69,3.56,-0.38,0.84,0.03,9.77,-0.04,-0.01,-0.21,11.00,8.25,-33.69
1765366742.86,0,1019.17,-49.20,263.06,1.31,0.31,0.38,-0.08,9.38,-0.15,0.63,-0.22,7.50,9.06,-32.00
1765366742.97,0,1019.17,-49.20,264.44,-2.38,0.62,-0.43,-0.09,9.07,0.05,0.39,-0.23,9.56,9.50,-32.50
1765366743.09,0,1019.17,-49.20,266.06,-2.19,0.56,-0.40,-0.07,8.68,-0.04,-0.44,-0.24,10.00,9.50,-30.25
1765366743.20,0,1019.18,-49.22,267.50,1.94,0.75,0.63,-0.11,9.94,0.05,-0.71,-0.25,8.88,10.56,-31.56
1765366743.32,0,1019.18,-49.22,269.19,4.19,0.00,1.09,0.13,10.10,0.00,0.27,-0.26,6.00,10.19,-33.19
1765366743.43,0,1019.18,-49.24,270.88,0.31,1.56,0.00,-0.12,9.29,-0.50,0.90,-0.25,6.00,10.56,-31.00
1765366743.55,0,1019.18,-49.26,272.56,-3.44,3.31,-0.75,-0.38,8.82,0.16,0.06,-0.25,8.88,12.75,-30.75
1765366743.66,0,1019.18,-49.26,274.06,-0.12,0.50,-0.37,0.07,9.39,0.50,-1.03,-0.23,8.50,11.69,-31.56
1765366743.77,0,1019.18,-49.27,275.44,6.44,-0.06,1.24,0.04,9.95,-0.25,-0.74,-0.23,5.19,9.88,-31.19
1765366743.89,0,1019.18,-49.28,277.12,6.50,0.38,1.25,-0.24,9.45,0.23,0.85,-0.27,2.25,9.06,-32.00
1765366744.00,0,1019.18,-49.29,278.75,-0.69,-1.31,-0.37,0.11,9.38,0.06,1.23,-0.29,5.06,11.00,-30.75
1765366744.12,0,1019.18,-49.29,280.56,-4.88,0.00,-1.11,-0.26,9.41,-0.21,-0.12,-0.28,9.25,12.00,-30.75
1765366744.23,0,1019.18,-49.29,282.31,0.19,-0.94,-0.11,-0.18,9.35,0.53,-1.33,-0.27,8.88,12.00,-29.88
1765366744.35,0,1019.18,-49.29,284.06,7.44,-3.12,1.42,0.33,9.59,-0.11,-0.59,-0.24,3.38,12.38,-31.06
1765366744.46,0,1019.18,-49.28,285.69,5.88,-0.62,1.06,-0.23,9.03,-0.43,0.89,-0.24,0.06,11.25,-30.25
1765366744.58,0,1019.18,-49.28,287.19,-1.44,-0.62,-0.52,-0.14,9.35,0.32,1.11,-0.25,3.38,12.38,-31.06
1765366744.69,0,1019.18,-49.29,288.81,-4.56,-1.38,-1.00,0.14,9.32,-0.22,-0.28,-0.25,-2040.94,12.00,-30.75
1765366744.81,0,1019.19,-49.30,290.31,0.94,1.19,0.20,-0.26,9.54,-0.28,-1.24,-0.27,4.50,12.75,-27.75
1765366744.92,0,1019.18,-49.29,291.94,6.75,0.88,1.34,0.03,9.39,0.23,-0.35,-0.28,1.19,13.19,-32.50
1765366745.03,0,1019.19,-49.30,293.81,4.50,0.75,0.90,0.16,9.36,-0.39,0.96,-0.27,0.75,11.69,-31.56
1765366745.15,0,1019.19,-49.30,295.56,-2.12,3.44,-0.61,-0.42,9.38,-0.14,0.89,-0.24,0.75,12.75,-31.56
1765366745.26,0,1019.19,-49.30,297.31,-3.75,1.81,-0.90,-0.01,9.47,0.45,-0.48,-0.24,4.06,13.50,-30.25
1765366745.37,0,1019.18,-49.29,298.69,2.50,1.06,0.37,0.11,9.50,-0.27,-1.26,-0.23,1.88,12.88,-31.50
1765366745.49,0,1019.18,-49.30,300.25,8.19,2.56,1.39,-0.27,9.31,-0.02,-0.23,-0.25,-1.75,13.56,-30.69
1765366745.60,0,1019.18,-49.29,301.81,5.00,0.62,0.75,0.10,9.44,0.35,1.05,-0.28,-1.38,13.25,-29.75
1765366745.72,0,1019.19,-49.30,303.56,-1.88,0.44,-0.57,-0.01,9.30,-0.26,0.94,-0.28,0.50,13.19,-30.56
1765366745.83,0,1019.18,-49.29,305.19,-3.50,1.56,-0.74,-0.37,9.37,0.18,-0.50,-0.27,2.56,13.56,-31.75
1765366745.94,0,1019.19,-49.30,306.88,2.56,-0.94,0.46,0.16,9.63,0.36,-1.14,-0.23,1.19,14.38,-29.25
1765366746.06,0,1019.18,-49.29,308.38,7.12,-0.75,1.33,0.04,9.43,-0.38,-0.11,-0.23,-2.88,12.00,-30.56
1765366746.17,0,1019.18,-49.28,310.00,3.56,0.44,0.59,-0.27,9.42,0.10,1.07,-0.23,-4.69,13.19,-30.88
1765366746.29,0,1019.18,-49.29,311.50,-3.00,-1.06,-0.60,0.10,9.28,0.10,0.75,-0.25,-1.00,12.75,-29.25
1765366746.40,0,1019.18,-49.29,313.00,-3.62,0.31,-0.62,-0.16,9.35,-0.36,-0.57,-0.23,0.56,12.75,-30.00
1765366746.52,0,1019.18,-49.28,314.38,2.19,0.81,0.53,-0.20,9.50,0.22,-1.07,-0.23,-2.00,13.19,-29.19
1765366746.63,0,1019.18,-49.28,315.69,6.19,-0.62,1.28,0.23,9.48,-0.06,-0.03,-0.21,-6.06,12.75,-30.50
1765366746.74,0,1019.18,-49.28,317.12,2.69,1.31,0.46,-0.21,9.47,-0.41,0.97,-0.19,-5.25,12.88,-30.56
1765366746.86,0,1019.18,-49.28,318.31,-2.81,1.62,-0.63,-0.22,9.45,0.27,0.64,-0.17,-3.88,13.56,-29.25
1765366746.97,0,1019.18,-49.29,319.38,-2.69,0.31,-0.57,0.11,9.33,-0.01,-0.62,-0.16,-1.25,13.56,-30.75
1765366747.08,0,1019.18,-49.29,320.25,3.31,1.75,0.66,-0.21,9.52,-0.22,-1.05,-0.16,-4.25,13.25,-30.50
1765366747.20,0,1019.18,-49.29,321.19,7.31,1.12,1.24,-0.06,9.33,0.32,-0.01,-0.16,-6.06,15.06,2018.81
1765366747.32,0,1019.19,-49.31,322.19,3.12,0.12,0.33,0.11,9.35,-0.15,0.99,-0.15,-6.38,12.88,-30.50
1765366747.43,0,1019.19,-49.30,323.00,-2.06,1.69,-0.64,-0.32,9.44,-0.08,0.44,-0.11,-4.88,13.25,-30.50
1765366747.55,0,1019.19,-49.30,323.75,-1.19,0.38,-0.45,-0.03,9.52,0.37,-0.70,-0.09,-3.88,14.00,-30.00
1765366747.66,0,1019.19,-49.30,324.19,4.50,-0.38,0.69,0.11,9.31,-0.12,-0.92,-0.06,-7.19,12.50,-30.38
1765366747.78,0,1019.18,-49.29,324.62,6.94,0.62,1.18,-0.19,9.49,0.03,0.34,-0.06,-6.75,12.88,-29.56
1765366747.90,0,1019.18,-49.29,325.00,1.62,-0.62,0.18,0.07,9.32,0.20,1.06,-0.06,-5.69,11.75,-30.69
1765366748.02,0,1019.19,-49.30,325.31,-3.38,0.06,-0.72,-0.11,9.39,-0.32,0.31,-0.03,-2.38,11.06,-31.19
1765366748.14,0,1019.19,-49.31,325.38,-1.50,1.00,-0.13,-0.20,9.46,0.15,-0.81,-0.02,-1.69,11.75,-29.50
1765366748.25,0,1019.19,-49.31,325.38,4.06,-0.38,0.96,0.14,9.37,0.05,-0.60,0.01,-3.88,11.38,-29.50
1765366748.37,0,1019.19,-49.31,325.31,4.62,0.81,0.92,-0.14,9.39,-0.31,0.47,0.03,-6.06,11.38,-29.06
1765366748.49,0,1019.19,-49.31,325.19,-0.81,1.12,-0.17,-0.13,9.42,0.19,0.91,0.04,-4.88,12.50,-28.69
1765366748.60,0,1019.19,-49.31,325.00,-3.81,0.31,-0.69,0.04,9.32,-0.06,0.01,0.04,-3.06,12.50,-29.88
1765366748.72,0,1019.19,-49.30,324.56,0.00,1.75,0.04,-0.24,9.43,-0.16,-0.95,0.05,-3.88,12.88,-29.38
1765366748.83,0,1019.19,-49.31,324.12,5.19,1.00,1.03,-0.06,9.58,0.29,-0.47,0.06,-5.25,12.50,2018.25
1765366748.95,0,1019.19,-49.32,323.62,5.12,0.25,0.77,0.11,9.33,-0.16,0.57,0.08,-7.88,11.38,-29.38
1765366749.06,0,1019.19,-49.32,323.19,-0.06,1.75,-0.22,-0.26,9.49,-0.12,0.80,0.09,-6.38,11.75,-29.38
1765366749.18,0,1019.19,-49.32,322.62,-2.44,0.81,-0.62,-0.04,9.33,0.27,-0.06,0.10,-2.75,12.06,-29.38
1765366749.29,0,1019.19,-49.32,321.94,0.88,0.19,0.16,0.00,9.53,-0.15,-0.89,0.12,-4.56,12.06,-30.25
1765366749.40,0,1019.19,-49.32,321.19,5.75,1.12,1.05,-0.19,9.45,0.03,-0.41,0.12,-5.69,13.25,-31.06
1765366749.52,0,1019.19,-49.31,320.38,4.81,-0.19,0.77,0.07,9.46,0.24,0.67,0.11,-6.75,12.50,-30.25
1765366749.63,0,1019.19,-49.31,319.62,-0.19,-0.25,-0.29,-0.04,9.34,-0.22,0.78,0.13,-3.50,12.50,-31.06
1765366749.74,0,1019.19,-49.31,318.75,-2.69,0.69,-0.57,-0.26,9.36,0.06,-0.11,0.14,-1.25,13.25,-30.25
1765366749.86,0,1019.19,-49.33,317.88,0.69,-0.81,0.21,0.08,9.47,0.23,-0.83,0.16,-2.75,12.50,-30.25
1765366749.98,0,1019.19,-49.32,316.81,5.12,-0.62,1.04,-0.06,9.52,-0.21,-0.33,0.17,-5.25,12.50,-30.25
1765366750.09,0,1019.19,-49.33,315.81,3.75,0.12,0.72,-0.17,9.52,0.06,0.67,0.16,-4.25,12.50,-29.75
1765366750.20,0,1019.19,-49.33,314.81,-1.38,-0.62,-0.44,0.09,9.46,0.00,0.76,0.16,-3.50,12.88,-30.25
1765366750.32,0,1019.19,-49.33,313.62,-3.44,0.69,-0.55,-0.20,9.30,-0.32,-0.19,0.17,0.56,10.25,-31.06
1765366750.43,0,1019.19,-49.32,312.56,0.19,1.12,0.22,-0.17,9.43,0.18,-0.82,0.17,-2.38,12.50,-29.75
1765366750.54,0,1019.19,-49.33,311.50,4.19,-0.19,0.99,0.14,9.36,0.06,-0.29,0.17,-4.25,11.38,-29.75
1765366750.66,0,1019.19,-49.33,310.31,2.94,0.88,0.64,-0.13,9.58,-0.22,0.66,0.18,-3.88,11.75,-30.25
1765366750.77,0,1019.19,-49.33,309.31,-1.44,0.81,-0.33,-0.12,9.48,0.21,0.55,0.17,-0.88,13.25,-29.38
1765366750.88,0,1019.19,-49.33,308.31,-2.31,0.00,-0.49,0.02,9.42,-0.10,-0.38,0.17,0.88,13.25,-29.75
1765366751.00,0,1019.19,-49.33,307.12,2.06,1.19,0.35,-0.19,9.59,-0.09,-0.80,0.16,-0.19,11.38,-30.56
1765366751.11,0,1019.19,-49.30,306.06,5.12,0.31,0.97,-0.02,8.99,0.27,-0.05,0.16,-1.25,12.88,-29.38
1765366751.23,0,1019.19,-49.32,305.00,2.62,-0.25,0.49,0.07,9.54,-0.09,0.73,0.16,-2.38,12.06,-31.50
1765366751.34,0,1019.19,-49.33,304.00,-1.56,0.50,-0.49,-0.24,9.56,0.01,0.42,0.16,-0.56,11.75,-31.06
1765366751.46,0,1019.19,-49.34,303.00,-1.31,-0.50,-0.41,-0.01,9.40,0.19,-0.50,0.16,2.00,12.50,-30.19
1765366751.57,0,1019.19,-49.35,302.00,3.06,-0.44,0.50,0.00,9.43,-0.15,-0.74,0.17,2.38,11.06,-29.69
1765366751.68,0,1019.19,-49.33,301.00,5.38,0.31,1.02,-0.16,9.63,0.00,0.04,0.16,-1.69,12.88,-31.38
1765366751.80,0,1019.19,-49.32,300.00,1.69,-0.50,0.33,0.02,9.52,0.14,0.83,0.14,0.56,12.50,-31.00
1765366751.91,0,1019.19,-49.34,299.06,-2.50,-0.12,-0.52,-0.10,9.27,-0.22,0.35,0.15,2.00,12.06,-31.00
1765366752.03,0,1019.19,-49.34,298.12,-2.00,0.56,-0.31,-0.24,9.46,0.08,-0.54,0.15,3.19,11.06,-29.25
1765366752.14,0,1019.19,-49.34,297.06,2.38,-0.62,0.62,0.05,9.45,0.18,-0.65,0.16,2.06,11.38,-31.38
1765366752.26,0,1019.19,-49.33,296.12,4.12,-0.44,0.88,-0.01,9.41,-0.17,0.18,0.16,-0.06,10.69,-31.25
1765366752.37,0,1019.19,-49.33,295.06,0.88,0.19,0.21,-0.16,9.43,0.07,0.70,0.16,1.38,11.38,-30.06
1765366752.48,0,1019.19,-49.34,294.12,-2.25,-0.56,-0.49,0.00,9.47,0.06,0.24,0.15,3.56,10.69,-30.88
1765366752.60,0,1019.19,-49.33,293.19,-0.88,0.00,-0.16,-0.15,9.33,-0.16,-0.61,0.15,4.00,11.06,-30.88
1765366752.71,0,1019.19,-49.33,292.19,3.44,0.12,0.72,-0.12,9.47,0.15,-0.55,0.14,2.75,11.38,-30.38
1765366752.83,0,1019.19,-49.33,291.25,4.25,-0.69,0.87,0.07,9.60,0.06,0.27,0.14,1.38,11.19,-30.38
1765366752.94,0,1019.19,-49.34,290.44,0.62,0.00,0.04,-0.14,9.35,-0.17,0.74,0.14,1.69,11.06,-30.38
1765366753.05,0,1019.19,-49.35,289.50,-2.69,0.19,-0.52,-0.13,9.43,0.11,0.15,0.13,4.69,10.75,-30.88
1765366753.17,0,1019.19,-49.33,288.69,-0.50,-0.31,0.00,0.00,9.26,-0.01,-0.64,0.13,5.00,10.00,-30.50
1765366753.29,0,1019.19,-49.34,-1760.06,3.31,0.19,0.78,-0.13,9.55,-0.09,-0.47,0.12,3.19,10.69,-30.88
1765366753.40,0,1019.19,-49.34,287.25,3.56,0.06,0.74,-0.07,9.40,0.14,0.42,0.10,1.38,10.69,-30.38
1765366753.52,0,1019.19,-49.34,286.62,-0.44,-0.25,-0.03,-0.01,9.27,-0.06,0.67,0.09,4.25,10.25,-30.88
1765366753.63,0,1019.19,-49.35,286.00,-2.69,0.44,-0.48,-0.17,9.48,-0.06,-0.05,0.08,6.19,10.06,-30.50
1765366753.75,0,1019.19,-49.37,285.50,0.00,-0.06,0.09,-0.03,9.39,0.17,-0.71,0.08,6.19,10.06,-31.88
1765366753.87,0,1019.19,-49.37,285.00,4.00,-8.44,0.80,0.01,9.31,-0.09,-0.29,0.08,5.38,9.69,-30.56
1765366753.99,0,1019.19,-49.35,284.56,3.25,0.12,0.60,-0.15,9.50,-0.00,0.50,0.06,4.25,9.25,-31.38
1765366754.10,0,1019.19,-49.35,284.25,-0.44,-0.44,-0.24,0.01,9.54,0.11,0.52,0.04,4.69,9.69,-30.88
1765366754.23,0,1019.19,-49.37,283.94,-1.38,-0.12,-0.39,-0.08,9.42,-0.15,-0.30,0.04,6.50,9.25,-31.25
1765366754.34,0,1019.19,-49.37,283.69,2.00,0.12,0.33,-0.17,9.40,0.09,-0.66,0.03,4.00,10.38,-30.06
1765366754.45,0,1019.19,-49.36,283.50,4.62,-0.75,0.88,0.08,9.47,0.08,-0.05,0.02,2.06,10.38,-31.25
1765366754.57,0,1019.19,-49.36,283.44,2.50,-0.25,0.43,-0.07,9.56,-0.18,0.62,0.01,2.19,9.25,-30.50
1765366754.68,0,1019.19,-49.36,283.44,-1.19,0.12,-0.36,-0.17,9.46,0.07,0.46,0.00,6.19,10.38,-30.50
1765366754.80,0,1019.19,-49.35,283.44,-1.56,-0.44,-0.31,0.00,9.38,0.03,-0.37,-0.00,6.19,10.75,-30.88
1765366754.91,0,1019.19,-49.35,283.50,2.06,0.06,0.50,-0.13,9.49,-0.13,-0.62,-0.02,4.25,10.38,-30.88
1765366755.03,0,1019.19,-49.37,283.62,4.12,0.12,0.82,-0.08,9.48,0.13,0.08,-0.04,3.56,9.69,-31.75
1765366755.14,0,1019.19,-49.37,283.94,1.44,-0.44,0.32,0.03,9.58,-0.03,0.66,-0.06,4.25,9.25,-30.88
1765366755.25,0,1019.19,-49.37,284.25,-2.00,0.44,-0.41,-0.15,9.43,-0.15,0.31,-0.06,4.69,10.75,-31.25
1765366755.37,0,1019.19,-49.36,284.69,-1.50,0.44,-0.23,-0.12,9.36,0.14,-0.44,-0.07,7.69,10.38,-30.00
1765366755.48,0,1019.19,-49.36,285.12,2.06,-0.12,0.56,0.04,9.47,-0.01,-0.57,-0.07,5.75,10.38,-31.75
1765366755.59,0,1019.19,-49.36,285.56,3.56,0.50,0.84,-0.11,9.45,-0.13,0.09,-0.09,2.50,9.25,-31.25
1765366755.71,0,1019.19,-49.36,286.19,0.94,0.38,0.13,-0.08,9.48,0.14,0.65,-0.10,4.25,10.38,-30.88
1765366755.82,0,1019.19,-49.37,286.94,-2.31,-0.12,-0.46,0.00,9.51,-0.03,0.22,-0.11,5.75,9.69,-30.88
1765366755.94,0,1019.19,-49.36,287.62,-0.75,0.44,-0.11,-0.18,9.53,-0.04,-0.57,-0.12,4.69,10.38,-30.88
1765366756.05,0,1019.19,-49.35,288.38,3.06,-0.12,0.66,-0.01,9.40,0.16,-0.54,-0.13,4.00,10.06,-30.50
1765366756.17,0,1019.19,-49.35,289.19,4.12,-0.38,0.75,0.00,9.31,-0.12,0.25,-0.13,3.19,10.75,-30.88
1765366756.28,0,1019.19,-49.35,290.06,0.81,0.31,0.04,-0.19,9.39,-0.03,0.63,-0.13,1.69,10.38,-30.50
1765366756.40,0,1019.19,-49.34,290.94,-1.81,-0.19,-0.46,-0.03,9.47,0.14,0.15,-0.14,4.25,10.38,-30.06
1765366756.51,0,1019.19,-49.35,291.81,-0.19,-0.25,0.01,-0.05,9.48,-0.12,-0.61,-0.14,4.69,11.19,-30.88
1765366756.62,0,1019.19,-49.35,292.75,3.88,0.25,0.73,-0.12,9.40,0.00,-0.48,-0.15,2.06,11.50,-30.06
1765366756.74,0,1019.19,-49.36,293.62,4.38,-0.25,0.79,0.01,9.46,0.05,0.36,-0.16,1.00,10.06,-32.50
1765366756.85,0,1019.19,-49.35,294.56,0.88,0.06,-0.02,-0.08,9.39,-0.15,0.66,-0.15,1.75,10.75,-30.38
1765366756.96,0,1019.19,-49.35,295.62,-1.94,0.62,-0.48,-0.15,9.44,0.03,0.09,-0.15,3.25,11.88,-29.69
1765366757.08,0,1019.19,-49.34,296.50,0.00,0.06,0.11,0.00,9.36,0.06,-0.62,-0.14,2.88,11.50,-31.38
1765366757.20,0,1019.19,-49.35,297.44,3.75,0.38,0.77,-0.06,9.46,-0.14,-0.39,-0.15,0.75,10.75,-31.19
1765366757.31,0,1019.19,-49.35,298.38,3.62,0.75,0.70,-0.11,9.39,0.02,0.38,-0.15,0.38,11.50,-30.06
1765366757.42,0,1019.19,-49.35,299.38,0.00,0.31,-0.14,-0.01,9.44,0.03,0.62,-0.16,0.75,11.50,-30.50
1765366757.54,0,1019.19,-49.36,300.38,-2.19,0.69,-0.46,-0.11,9.40,-0.11,-0.03,-0.15,2.19,12.19,-30.88
1765366757.65,0,1019.19,-49.37,301.25,0.19,0.75,0.07,-0.11,9.46,0.10,-0.62,-0.15,1.75,11.19,-30.06
1765366757.76,0,1019.19,-49.36,302.19,3.56,0.06,0.81,0.06,9.39,0.03,-0.32,-0.15,1.50,11.50,-30.00
1765366757.88,0,1019.19,-49.36,303.12,3.06,0.50,0.63,-0.11,9.36,-0.11,0.47,-0.14,-1.50,11.19,-30.38
1765366757.99,0,1019.19,-49.37,304.06,-0.50,0.44,-0.11,-0.14,9.60,0.12,0.53,-0.15,0.75,11.50,-29.56
1765366758.11,0,1019.20,-49.38,305.00,-1.94,0.00,-0.44,0.00,9.43,-0.02,-0.18,-0.14,1.75,10.75,-30.06
1765366758.22,0,1019.20,-49.38,305.94,1.12,0.50,0.23,-0.13,9.32,-0.08,-0.64,-0.14,1.69,11.50,-30.06
1765366758.34,0,1019.20,-49.38,306.81,4.00,0.25,0.81,-0.04,9.40,0.10,-0.14,-0.15,-1.06,11.19,-30.06
1765366758.45,0,1019.19,-49.38,307.81,2.56,0.00,0.50,0.00,9.45,-0.07,0.54,-0.15,-2.19,11.50,-30.00
1765366758.56,0,1019.19,-49.38,308.75,-1.00,0.69,-0.23,-0.14,9.58,-0.07,0.50,-0.14,0.38,11.19,-29.25
1765366758.68,0,1019.20,-49.39,309.62,-1.81,0.44,-0.39,-0.07,9.41,0.11,-0.29,-0.14,1.50,10.75,-29.25
1765366758.79,0,1019.20,-49.38,310.50,1.81,0.19,0.32,-0.02,9.50,-0.05,-0.68,-0.13,1.00,11.50,-30.50
1765366758.91,0,1019.20,-49.38,311.38,4.69,0.62,0.83,-0.09,9.44,-0.02,-0.12,-0.14,-3.00,12.56,-28.75
1765366759.02,0,1019.20,-49.39,312.31,3.06,0.25,0.48,0.00,9.44,0.06,0.55,-0.14,-3.75,11.19,-30.06
1765366759.14,0,1019.20,-49.39,313.19,-0.38,0.44,-0.30,-0.05,9.39,-0.11,0.42,-0.14,-1.75,11.19,-29.56
1765366759.25,0,1019.20,-49.39,314.06,-0.94,0.88,-0.32,-0.16,9.31,0.04,-0.29,-0.13,-0.38,12.19,-30.50
1765366759.37,0,1019.20,-49.39,314.88,2.12,0.25,0.41,0.01,9.31,0.06,-0.57,-0.13,-0.69,11.19,-30.50
1765366759.49,0,1019.20,-49.40,315.69,4.31,0.56,0.80,-0.04,9.23,-0.14,0.07,-0.13,-3.75,10.75,-29.69
1765366759.61,0,1019.20,-49.40,316.69,1.38,0.88,0.26,-0.15,8.53,0.06,0.64,-0.13,-2.69,10.38,-30.50
1765366759.73,0,1019.20,-49.41,317.50,-2.06,0.19,-0.42,-0.01,9.00,0.06,0.29,-0.12,-0.50,10.38,-30.06
1765366759.85,0,1019.20,-49.41,318.25,-1.12,8.44,-0.19,-0.13,8.84,-0.07,-0.47,-0.10,-0.75,10.25,-30.06
1765366759.97,0,1019.20,-49.45,318.81,2.50,0.25,0.50,-0.07,9.03,0.11,-0.56,-0.09,-1.88,8.75,-29.69
1765366760.08,0,1019.20,-49.44,319.31,4.25,0.00,0.88,0.04,9.48,-0.09,0.11,-0.07,-4.19,9.69,-30.88
1765366760.20,0,1019.21,-49.50,319.69,1.19,1.00,0.25,-0.13,10.29,-0.13,0.72,-0.04,-3.75,10.38,-31.50
1765366760.31,0,1019.21,-49.51,319.94,-2.06,0.88,-0.55,-0.08,10.38,0.11,0.10,-0.01,-1.19,10.75,-31.00
1765366760.43,0,1019.22,-49.55,319.88,0.12,0.88,-0.15,-0.04,9.17,-0.16,-0.69,0.02,-1.88,9.69,-30.56
1765366760.54,0,1019.22,-49.55,319.62,5.00,1.31,0.57,-0.38,9.80,0.30,-0.74,0.04,-4.50,10.06,-29.75
1765366760.66,0,1019.22,-49.59,318.88,7.56,-2.94,0.68,0.03,9.65,0.94,-0.14,0.09,-6.69,8.88,-30.19
1765366760.77,0,1019.22,-49.60,317.94,6.81,-5.88,0.24,0.41,7.75,-0.04,0.25,0.13,-6.69,6.69,-29.38
1765366760.88,0,1019.22,-49.60,317.12,5.31,-0.69,0.06,-0.22,10.38,-1.25,0.18,0.21,-6.69,6.38,-30.19
1765366761.00,0,1019.23,-49.66,315.75,4.56,2.62,0.21,-0.53,10.99,0.45,-0.00,0.25,-1.88,9.25,-29.50
1765366761.11,0,1019.23,-49.66,313.94,4.19,-1.31,0.50,0.42,9.79,0.39,0.13,0.29,-4.75,8.56,-28.88
1765366761.22,0,1019.23,-49.66,311.94,2.25,0.50,0.43,-0.19,9.34,-0.63,0.52,0.37,-4.19,6.38,-31.88
1765366761.34,0,1019.23,-49.66,309.44,-1.81,1.88,0.03,-0.28,8.19,0.25,0.64,0.40,-2.56,8.56,-30.69
1765366761.45,0,1019.23,-49.71,306.94,-4.75,0.00,-0.31,0.24,10.77,-0.04,0.18,0.45,-0.75,7.06,-33.19
1765366761.57,0,1019.24,-49.72,303.69,-3.88,1.56,0.05,-0.41,9.39,-0.19,-0.33,0.50,1.38,8.06,-32.56
1765366761.68,0,1019.24,-49.71,300.56,-1.75,-0.88,0.20,-0.15,8.20,0.79,-0.33,0.53,-0.75,7.38,-32.19
1765366761.80,0,1019.24,-49.74,296.88,0.50,-4.12,0.16,0.37,8.90,-0.02,-0.29,0.59,-0.06,5.50,-35.50
1765366761.91,0,1019.24,-49.74,293.25,2.75,-0.62,0.26,-0.29,9.76,-0.69,-0.36,0.62,-1.50,6.50,-37.25
1765366762.02,0,1019.24,-49.78,289.50,4.19,0.31,0.73,-0.28,10.28,0.47,0.02,0.62,-2.75,7.06,-36.75
1765366762.14,0,1019.24,-49.78,285.12,1.75,-1.44,0.58,0.34,10.01,-0.16,0.68,0.65,-1.69,6.00,-37.69
1765366762.25,0,1019.25,-49.81,281.00,-3.06,1.69,0.00,-0.37,9.50,-0.49,0.79,0.70,0.56,6.69,-38.06
1765366762.37,0,1019.25,-49.80,276.75,-6.06,0.88,-0.33,-0.17,9.19,0.58,0.27,0.72,5.19,9.06,-38.00
1765366762.48,0,1019.24,-49.79,272.50,-5.81,-2.06,0.01,0.21,9.86,-0.04,-0.29,0.74,5.38,6.88,-39.69
1765366762.60,0,1019.24,-49.79,267.50,-2.44,-0.75,0.67,-0.40,10.70,0.07,-0.18,0.74,4.88,7.38,-39.69
1765366762.71,0,1019.24,-49.79,263.00,-2.88,-4.25,0.45,0.10,8.88,0.81,0.41,0.74,5.25,4.56,-42.56
1765366762.82,0,1019.24,-49.79,258.00,-5.25,-6.81,-0.11,0.25,8.03,-0.22,0.46,0.74,8.06,1.75,-40.88
1765366762.94,0,1019.24,-49.78,253.25,-5.88,-4.50,-0.42,-0.37,9.11,-0.21,-0.18,0.74,8.50,2.06,-40.88
1765366763.05,0,1019.25,-49.80,248.56,-2.00,-5.56,-0.04,0.04,9.95,0.33,-0.80,0.74,8.00,2.88,-41.25
1765366763.17,0,1019.25,-49.80,244.31,3.75,-4.94,0.65,0.15,10.14,-0.49,-0.83,0.74,3.69,1.38,-42.06
1765366763.28,0,1019.25,-49.81,240.12,6.94,-0.75,0.75,-0.30,10.01,-0.34,-0.11,0.71,1.06,3.06,-42.06
1765366763.39,0,1019.25,-49.81,235.50,5.75,0.31,0.13,0.17,9.29,-0.05,0.29,0.69,0.56,4.00,-39.19
1765366763.51,0,1019.25,-49.82,231.44,3.75,2.94,-0.09,-0.05,9.45,-0.74,0.00,0.69,2.38,4.75,-38.56
1765366763.62,0,1019.25,-49.83,227.00,3.62,5.75,0.32,-0.36,9.70,-0.07,-0.21,0.66,3.69,5.88,-39.50
1765366763.74,0,1019.25,-49.84,223.06,3.31,3.56,0.77,0.09,9.38,0.31,0.22,0.63,4.06,6.00,-40.69
1765366763.85,0,1019.25,-49.85,219.38,0.00,2.75,0.46,-0.10,9.24,-0.13,0.91,0.61,4.75,3.88,-39.38
1765366763.97,0,1019.25,-49.83,215.56,-6.19,2.19,-0.40,-0.21,9.23,0.27,0.82,0.58,11.19,3.25,-37.69
1765366764.08,0,1019.25,-49.84,212.31,-7.81,-0.50,-0.59,-0.01,9.45,0.36,-0.10,0.55,13.75,3.00,-37.38
1765366764.19,0,1019.25,-49.84,209.12,-3.69,-2.06,0.26,-0.16,9.61,0.21,-0.84,0.54,13.06,0.75,-38.56
1765366764.31,0,1019.25,-49.86,205.69,1.06,-4.69,0.90,-0.04,9.73,0.56,-0.39,0.53,12.25,-0.69,-40.25
1765366764.42,0,1019.25,-49.86,202.44,1.75,-6.12,0.48,0.13,9.35,0.25,0.40,0.50,9.38,-4.56,-40.69
1765366764.54,0,1019.25,-49.85,199.06,-0.38,-6.19,-0.41,-0.11,9.46,-0.11,0.22,0.48,9.56,-3.75,-41.00
1765366764.66,0,1019.25,-49.85,196.12,1.06,-4.38,-0.35,-0.07,9.55,0.08,-0.77,0.45,11.50,-3.75,-40.56
1765366764.77,0,1019.25,-49.86,193.31,6.62,-3.19,0.49,0.03,9.64,-0.32,-0.87,0.55,5.50,-4.50,-41.75
1765366764.88,0,1019.25,-49.87,189.19,8.88,-1.00,0.75,-0.07,9.37,0.04,0.04,0.87,1.06,-4.56,-41.75
1765366765.00,0,1019.25,-49.87,182.25,6.19,-0.88,0.34,0.28,9.39,-0.02,0.55,1.21,1.38,-4.19,-41.50
1765366765.12,0,1019.25,-49.86,173.94,2.25,1.88,0.00,-0.11,9.56,-0.55,0.45,1.26,2.19,-4.00,-39.75
1765366765.24,0,1019.25,-49.86,166.50,0.25,2.94,0.03,-0.28,9.65,0.30,0.07,1.21,5.50,-3.69,-41.06
1765366765.35,0,1019.25,-49.85,158.56,0.00,0.62,0.34,0.17,9.44,0.09,0.04,1.16,3.25,-5.19,-41.50
1765366765.47,0,1019.25,-49.86,151.00,-0.81,1.44,0.43,-0.23,9.36,-0.19,0.33,1.12,2.56,-6.25,-38.50
1765366765.59,0,1019.25,-49.85,143.88,-3.19,-0.12,0.07,-0.13,9.37,0.52,0.45,1.04,5.19,-6.38,-39.75
1765366765.71,0,1019.25,-49.84,137.75,-4.12,-2.25,-0.27,0.19,9.83,-0.15,-0.02,0.99,4.88,-9.19,-39.00
1765366765.82,0,1019.25,-49.84,131.25,-1.62,-0.12,-0.01,-0.31,9.87,-0.29,-0.59,0.93,2.00,-8.56,-39.00
1765366765.94,0,1019.25,-49.85,125.75,2.12,-1.25,0.60,-0.16,9.90,0.59,-0.46,0.87,-0.88,-8.69,-38.50
1765366766.05,0,1019.25,-49.80,120.06,3.56,-3.88,0.61,0.29,9.77,0.08,0.11,0.83,-3.38,-10.88,-38.06
1765366766.16,0,1019.24,-49.76,115.19,2.25,-1.12,0.06,-0.12,10.55,-0.56,0.27,0.78,-3.38,-11.69,-37.69
1765366766.28,0,1019.24,-49.76,110.62,1.75,0.69,-0.12,-0.23,10.49,0.03,-0.15,0.72,-4.75,-8.38,-38.06
1765366766.39,0,1019.23,-49.71,106.31,3.69,0.31,0.27,0.10,8.74,-0.09,-0.40,0.67,-6.56,-8.00,-37.25
1765366766.51,0,1019.23,-49.70,102.12,5.19,2.38,0.65,-0.19,8.97,-0.30,-0.04,0.61,-9.19,-8.50,-39.00
1765366766.62,0,1019.23,-49.66,98.62,3.38,2.38,0.51,-0.16,9.83,0.40,0.55,0.53,-9.50,-7.06,-38.06
1765366766.73,0,1019.23,-49.66,95.31,-0.38,0.00,-0.22,0.15,9.63,0.13,0.45,0.47,-8.25,-7.88,-37.69
1765366766.85,0,1019.22,-49.57,92.62,-1.00,0.81,-0.34,-0.25,9.00,-0.17,-0.23,0.42,-7.56,-8.19,-38.50
1765366766.96,0,1019.22,-49.57,90.06,2.12,-0.44,0.28,-0.14,8.87,0.54,-0.60,0.36,-9.06,-6.88,-37.25
1765366767.08,0,1019.21,-49.51,87.88,4.62,-3.06,0.79,0.18,8.80,0.20,-0.13,0.33,-13.00,-8.25,-36.00
1765366767.19,0,1019.21,-49.47,86.06,3.06,-2.12,0.55,-0.16,9.03,-0.12,0.63,0.27,-13.50,-8.38,-34.69
1765366767.31,0,1019.21,-49.48,84.38,-1.25,-3.00,-0.31,-0.11,9.10,0.39,0.57,0.21,-12.38,-8.38,-36.00
1765366767.42,0,1019.20,-49.46,83.31,-2.19,-4.56,-0.43,0.04,9.61,0.07,-0.24,0.16,-10.50,-9.25,-36.00
1765366767.53,0,1019.20,-49.46,82.62,0.81,-3.69,0.52,-0.06,9.80,-0.21,-0.52,0.10,-12.69,-9.25,-35.56
1765366767.65,0,1019.20,-49.45,82.12,2.75,-2.94,0.55,-0.20,8.95,0.05,-0.04,0.05,-13.00,-9.25,-35.56
1765366767.76,0,1019.20,-49.44,81.94,1.88,-3.56,0.02,0.29,-318.80,-0.05,0.19,0.00,-13.38,-9.25,-35.56
1765366767.88,0,1019.20,-49.43,82.12,1.69,0.31,-0.07,-0.24,9.65,-0.91,-0.18,-0.04,-13.38,-7.75,-35.56
1765366767.99,0,1019.20,-49.44,82.69,3.56,2.38,0.45,-0.29,9.84,0.26,-0.31,-0.14,-13.00,-5.19,-36.38
1765366768.11,0,1019.20,-49.45,83.75,4.00,0.62,0.62,0.29,9.27,-0.13,0.23,-0.23,-13.38,-7.88,-36.00
1765366768.22,0,1019.20,-49.46,85.69,1.25,2.75,0.10,-0.43,9.58,-0.19,0.53,-0.33,-14.06,-6.69,-35.88
1765366768.33,0,1019.20,-49.46,88.12,-0.62,0.25,-0.37,0.02,9.55,0.72,0.06,-0.44,-10.50,-7.50,-37.56
1765366768.45,0,1019.20,-49.46,91.06,0.94,-0.94,0.14,0.18,9.38,-0.47,-0.49,-0.49,-10.06,-9.69,-35.50
1765366768.56,0,1019.20,-49.45,94.44,3.94,2.31,0.58,-0.44,9.71,-0.23,-0.30,-0.52,-12.69,-9.69,-36.75
1765366768.67,0,1019.20,-49.44,97.62,3.94,0.62,0.51,0.19,9.26,0.34,0.27,-0.53,-11.25,-10.00,-36.25
1765366768.79,0,1019.20,-49.45,100.81,1.50,0.75,0.12,-0.19,9.84,-0.27,0.44,-0.52,-11.50,-10.00,-36.25
1765366768.90,0,1019.20,-49.43,104.31,-0.44,-0.12,-0.13,-0.02,9.41,0.52,0.14,-0.55,-8.56,-10.00,-37.19
1765366769.01,0,1019.20,-49.44,107.81,0.00,-1.56,0.09,0.20,9.10,-0.26,-0.24,-0.59,-7.50,-10.75,-37.19
1765366769.13,0,1019.20,-49.43,111.94,1.62,0.81,0.45,-0.42,9.21,-0.20,-0.20,-0.64,-9.38,-11.88,-36.25
1765366769.24,0,1019.20,-49.42,116.00,1.69,-1.00,0.39,0.10,9.49,0.55,0.16,-0.70,-8.56,-12.06,-36.25
1765366769.36,0,1019.20,-49.41,120.38,0.38,-1.38,-0.01,0.12,9.50,-0.59,0.11,-0.74,-6.75,-5.56,-35.88
1765366769.47,0,1019.20,-49.42,125.38,0.69,2.06,0.00,-0.49,9.41,-0.11,-0.19,-0.79,-5.69,-12.50,-36.75
1765366769.58,0,1019.20,-49.41,130.31,2.44,-0.38,0.27,0.17,9.21,0.51,-0.29,-0.83,-4.19,-12.88,-36.25
1765366769.70,0,1019.20,-49.40,135.50,3.62,-0.56,0.45,0.15,9.61,-0.56,35.67,-0.87,-4.88,-13.88,-36.75
1765366769.81,0,1019.20,-49.41,141.50,3.25,2.00,0.24,-0.36,9.50,-0.06,0.18,-0.92,-3.38,-12.88,-37.56
1765366769.93,0,1019.20,-49.40,147.25,2.19,0.31,0.11,0.14,9.40,0.18,0.10,-0.95,-0.75,-12.88,-37.19
1765366770.04,0,1019.20,-49.40,153.12,1.88,0.81,0.21,-0.10,9.41,-0.25,0.02,-0.99,-0.38,-13.25,-37.56
1765366770.15,0,1019.20,-49.41,159.81,2.00,1.44,0.12,-0.17,9.44,0.08,-0.02,-1.02,2.06,-12.50,-37.56
1765366770.27,0,1019.20,-49.41,166.06,2.31,0.44,0.19,0.01,9.47,-0.03,-0.05,-1.02,1.75,-12.88,-37.56
1765366770.39,0,1019.20,-49.40,172.88,2.62,0.12,0.26,-0.11,9.59,0.15,-0.05,-1.03,3.56,-11.75,-37.56
1765366770.50,0,1019.20,-49.39,179.69,2.56,-0.38,0.27,0.04,9.55,-0.21,0.06,-1.02,5.75,-11.00,-38.00
1765366770.62,0,1019.20,-49.40,186.00,2.00,1.38,0.09,-0.26,9.50,-0.29,0.05,-1.04,6.19,-9.69,-37.06
1765366770.74,0,1019.20,-49.41,193.00,2.38,0.88,0.13,-0.08,9.51,0.33,-0.14,-1.08,8.38,-7.06,-38.25
1765366770.85,0,1019.20,-49.42,199.69,3.19,-0.62,0.35,0.14,9.44,-0.05,-0.12,-1.10,8.69,-7.75,-37.50
1765366770.97,0,1019.20,-49.41,206.69,2.38,-0.19,0.36,0.05,9.72,0.06,0.31,-0.98,9.50,-7.06,-38.75
1765366771.09,0,1019.20,-49.40,211.62,0.38,0.25,0.06,-0.15,9.44,-0.22,0.26,-0.59,11.69,-5.56,-37.50
1765366771.20,0,1019.20,-49.41,214.19,-0.44,-0.19,-0.13,-0.08,9.43,0.31,-0.07,-0.14,12.38,-5.19,-37.06
1765366771.32,0,1019.20,-49.42,214.44,1.19,-1.50,0.08,0.11,9.50,0.06,-0.39,0.02,13.06,-6.00,-37.19
1765366771.44,0,1019.20,-49.40,214.44,3.44,-0.31,0.46,-0.13,9.13,-0.28,-0.26,-0.01,11.19,-5.56,-38.38
1765366771.55,0,1019.20,-49.40,214.75,3.56,-0.44,0.45,0.03,9.49,0.18,0.20,-0.08,8.56,-4.88,-37.56
1765366771.66,0,1019.20,-49.39,215.12,1.69,0.50,0.01,-0.15,9.52,-0.54,0.25,-0.01,10.88,-5.19,-37.19
1765366771.78,0,1019.20,-49.40,215.19,0.94,1.31,-0.12,-0.30,9.64,0.40,-0.08,-0.03,10.88,-3.00,-38.38
1765366771.89,0,1019.20,-49.40,215.38,2.44,-1.06,0.13,0.30,9.03,0.09,-0.36,-0.04,10.88,-4.19,-37.56
1765366772.01,0,1019.20,-49.40,215.75,4.25,1.06,0.56,-0.29,9.33,-0.47,-0.15,-0.06,9.38,-4.50,-38.06
1765366772.12,0,1019.20,-49.41,216.38,3.62,1.00,0.39,-0.21,8.97,0.46,0.31,-0.11,8.56,-3.38,-38.00
1765366772.24,0,1019.20,-49.40,217.06,1.19,-1.12,0.00,0.29,9.67,-0.13,0.36,-0.14,10.50,-4.88,-38.00
1765366772.35,0,1019.20,-49.40,218.00,0.06,1.56,-0.16,-0.35,9.46,-0.39,-0.05,-0.14,12.25,-3.38,-38.00
1765366772.47,0,1019.20,-49.39,218.94,1.44,0.75,0.20,-0.04,9.27,0.51,-0.33,-0.17,12.69,-3.00,-37.19
1765366772.58,0,1019.19,-49.38,220.06,3.06,0.00,0.53,0.01,9.31,-0.45,-0.06,-0.17,11.19,-4.50,-37.19
1765366772.69,0,1019.19,-49.38,221.12,2.44,1.19,0.31,-0.20,9.45,0.12,0.20,-0.17,9.38,-1.88,-37.19
1765366772.81,0,1019.20,-49.39,222.31,0.81,0.00,0.04,0.07,9.34,0.08,0.26,-0.20,11.19,-2.25,-36.25
1765366772.92,0,1019.20,-49.39,223.69,0.12,0.62,-0.12,-0.10,9.59,-0.19,-0.10,-0.21,10.88,-3.38,-37.19
1765366773.04,0,1019.20,-49.40,225.06,1.69,0.75,0.30,-0.11,9.92,0.13,-0.31,-0.23,11.56,-2.69,-36.75
1765366773.15,0,1019.20,-49.40,226.44,3.12,-0.19,0.33,-0.04,10.15,0.10,-0.16,-0.23,9.75,-3.00,-37.56
1765366773.26,0,1019.20,-49.41,227.75,2.81,-0.56,0.33,0.15,9.11,-0.16,0.20,-0.17,9.38,-2.69,-37.19
1765366773.38,0,1019.20,-49.41,228.69,1.25,0.69,0.00,-0.23,9.81,-0.08,0.25,-0.13,10.50,-1.19,-37.19
1765366773.49,0,1019.20,-49.41,229.44,0.81,0.25,-0.21,0.06,9.92,-0.00,-0.27,-0.11,12.00,-0.50,-36.25
1765366773.61,0,1019.20,-49.41,230.12,3.31,0.94,0.42,-0.12,9.47,-0.10,-0.41,-0.11,10.50,-1.19,-37.25
1765366773.72,0,1019.20,-49.39,231.06,4.12,0.06,0.52,0.15,9.16,0.06,0.16,-0.19,8.56,-0.88,-38.00
1765366773.84,0,1019.19,-49.38,232.44,2.00,0.31,0.17,-0.20,9.52,0.07,0.42,-0.22,10.06,-1.56,-36.75
1765366773.95,0,1019.20,-49.39,233.88,-0.19,0.75,-0.15,-0.02,9.45,-0.38,0.30,-0.22,12.00,-0.88,-37.56
1765366774.06,0,1019.20,-49.39,235.19,-0.50,1.94,0.04,-0.29,7.06,0.15,-0.11,-0.22,13.06,0.25,-36.25
1765366774.18,0,1019.20,-49.39,236.69,0.31,0.00,0.26,0.09,10.04,0.32,-0.13,-0.24,11.19,0.56,-36.75
1765366774.29,0,1019.20,-49.42,238.19,0.81,0.12,0.09,0.00,10.12,-0.45,-0.05,-0.25,10.06,0.25,-37.56
1765366774.40,0,1019.20,-49.42,239.81,1.38,0.12,0.10,-0.33,9.85,0.70,-0.13,-0.29,11.19,1.00,-37.19
1765366774.52,0,1019.20,-49.45,241.69,2.81,-3.19,0.22,0.79,8.55,-0.16,-0.31,-0.27,10.88,-0.06,-37.56
1765366774.63,0,1019.20,-49.44,243.56,4.25,1.75,0.27,-0.79,9.81,-0.25,-0.13,-0.29,10.06,0.56,-38.00
1765366774.75,0,1019.20,-49.44,245.50,4.75,-0.69,0.60,0.24,9.81,0.45,0.00,-0.31,9.50,4.69,-36.75
1765366774.86,0,1019.20,-49.44,247.44,2.94,0.00,0.37,0.19,9.60,-0.66,0.52,-0.31,9.06,1.38,-38.06
1765366774.98,0,1019.20,-49.45,249.50,0.06,3.56,-0.37,-0.54,9.96,0.02,0.21,-0.30,10.19,4.56,-37.19
1765366775.09,0,1019.20,-49.46,251.31,0.62,0.81,0.29,0.03,9.90,0.49,-0.22,-0.29,13.88,6.06,-36.25
1765366775.21,0,1019.20,-49.46,253.00,1.38,-0.38,0.25,0.14,9.49,-0.16,-0.02,-0.26,10.19,4.69,-37.56
1765366775.32,0,1019.20,-49.44,254.50,1.50,0.62,0.23,-0.23,10.55,0.01,-0.04,-0.23,11.00,5.38,-38.00
1765366775.43,0,1019.20,-49.44,256.00,1.44,-0.62,0.64,-0.12,10.30,0.30,0.16,-0.21,10.56,5.38,-37.56
1765366775.55,0,1019.20,-49.41,257.12,-0.94,-3.75,-0.17,0.14,9.23,0.54,0.44,-0.19,12.75,4.69,-37.25
1765366775.66,0,1019.20,-49.40,258.31,-1.81,-3.69,-0.13,0.09,8.36,-0.57,-0.21,-0.17,15.00,4.00,-36.75
1765366775.78,0,1019.19,-49.34,259.44,0.31,1.44,0.26,-0.18,8.97,-0.81,-0.34,-0.18,13.56,4.88,-37.25
1765366775.90,0,1019.19,-49.34,260.56,2.12,3.06,0.10,-0.34,9.41,0.34,-0.29,-0.20,14.25,7.50,-36.25
1765366776.01,0,1019.19,-49.31,261.56,3.38,1.38,0.58,0.42,9.73,-0.41,0.08,-0.10,11.69,6.75,-38.00
1765366776.12,0,1019.18,-49.29,262.00,2.38,4.44,0.11,-0.69,10.64,0.07,0.19,-0.01,11.56,6.75,-36.69
1765366776.24,0,1019.18,-49.29,261.94,1.38,-0.44,0.40,0.16,9.91,0.97,0.22,0.03,14.88,9.50,-34.19
1765366776.36,0,1019.18,-49.24,261.50,0.25,-2.75,-0.56,0.16,9.72,-0.32,-0.07,0.07,13.50,2.38,-35.06
1765366776.47,0,1019.18,-49.25,261.12,3.75,-0.44,0.39,-0.13,9.68,-0.07,-0.79,0.06,12.00,4.56,-37.19
1765366776.58,0,1019.17,-49.20,260.81,6.50,2.06,1.44,0.11,10.76,-0.89,0.16,0.07,9.75,4.00,-36.75
1765366776.70,0,1019.17,-49.20,260.69,0.88,4.69,-0.31,-0.67,10.32,0.57,1.07,0.07,12.00,5.38,-35.88
1765366776.82,0,1019.16,-49.11,260.56,-1.69,-1.62,-0.74,0.38,9.29,0.89,-0.35,0.06,17.75,5.38,-34.19
1765366776.94,0,1019.15,-48.97,259.94,3.31,-1.94,0.33,0.03,9.63,-0.67,-0.87,0.16,14.50,-0.50,-37.25
1765366777.06,0,1019.15,-48.97,259.06,8.19,2.38,0.41,0.00,9.63,-0.57,-0.70,0.16,9.50,0.25,-39.75
1765366777.17,0,1019.13,-48.84,258.44,10.62,6.56,1.01,-0.03,8.75,-0.77,0.01,0.14,8.38,4.00,-41.88
1765366777.29,0,1019.13,-48.85,258.00,7.44,9.94,0.23,-0.43,8.43,0.00,0.78,0.14,6.69,6.06,-41.75
1765366777.40,0,1019.12,-48.74,257.44,3.31,6.81,-0.22,-0.19,8.50,0.84,0.42,0.10,12.25,5.25,-42.19
1765366777.52,0,1019.12,-48.75,256.75,1.19,2.94,0.11,0.16,8.07,0.06,0.23,0.10,15.06,2.38,-43.38
1765366777.63,0,1019.11,-48.67,256.38,0.06,2.69,-0.08,-0.33,7.91,0.28,0.07,-0.02,17.19,2.69,-44.69
1765366777.75,0,1019.11,-48.66,257.31,-0.25,-2.38,0.30,-0.03,7.60,1.18,0.14,-0.26,19.75,0.56,-44.38
1765366777.86,0,1019.11,-48.67,259.06,-1.75,-6.25,0.20,0.32,7.57,0.08,0.37,-0.30,23.00,-5.06,-45.88
1765366777.97,0,1019.11,-48.68,260.94,-3.44,-5.88,-0.49,-0.55,7.85,0.49,-0.00,-0.36,28.06,-4.75,-46.06
1765366778.09,0,1019.12,-48.76,263.69,-0.88,-8.19,0.10,0.72,8.94,-0.33,-0.80,-0.37,30.56,-5.06,-43.25
1765366778.20,0,1019.13,-48.88,266.31,2.12,-2.06,1.30,-0.42,9.57,-0.95,-0.08,-0.40,28.00,-1.25,-45.50
1765366778.32,0,1019.13,-48.87,268.81,-1.56,1.06,0.34,0.09,10.32,-0.49,1.02,-0.40,29.06,4.50,-39.88
1765366778.43,0,1019.15,-48.99,271.25,-6.31,5.94,-0.55,-0.50,10.25,-0.65,0.30,-0.35,31.25,6.75,-35.19
1765366778.54,0,1019.15,-49.00,273.31,-4.94,7.75,0.23,0.32,10.60,-0.60,-0.42,-0.36,32.88,9.75,-32.88
1765366778.66,0,1019.16,-49.09,275.44,-2.75,8.81,-0.01,-0.68,9.26,0.98,-0.23,-0.40,28.88,14.00,-32.75
1765366778.77,0,1019.16,-49.10,278.25,0.75,3.56,0.10,0.76,10.59,-0.14,-0.78,-0.46,30.06,12.19,-35.50
1765366778.89,0,1019.17,-49.17,281.25,4.25,5.75,1.10,-0.93,8.13,0.45,0.02,-0.56,24.06,12.19,-37.56
1765366779.01,0,1019.17,-49.16,285.19,0.75,-1.25,0.58,1.19,10.48,0.52,0.96,-0.66,26.25,18.06,-35.19
1765366779.12,0,1019.18,-49.24,289.00,-2.94,4.00,-1.26,-0.44,9.90,-1.39,-0.22,-0.63,24.88,14.06,-38.00
1765366779.23,0,1019.18,-49.29,292.69,2.06,6.25,0.36,-0.90,9.09,1.10,-0.99,-0.68,23.75,20.38,-36.19
1765366779.35,0,1019.19,-49.30,296.44,6.88,-5.00,1.01,0.83,9.18,1.46,-0.32,-0.63,23.50,22.50,-36.56
1765366779.46,0,1019.19,-49.36,300.12,5.25,-5.50,0.63,0.11,10.83,-1.16,0.61,-0.59,19.88,16.88,-44.06
1765366779.58,0,1019.19,-49.36,304.06,0.12,-1.94,-0.09,-0.77,9.61,0.45,0.74,-0.60,20.38,21.00,-40.50
1765366779.69,0,1019.20,-49.39,307.88,-2.62,-6.62,-0.41,0.49,9.16,0.42,-0.01,-0.64,24.75,24.19,-37.69
1765366779.81,0,1019.19,-49.38,312.12,-0.56,-3.69,0.01,-0.02,10.07,-1.07,-0.67,-0.64,23.75,20.38,-41.06
1765366779.92,0,1019.20,-49.38,316.31,3.25,-0.44,0.64,-0.44,9.32,0.19,-0.51,-0.69,16.69,25.50,-40.38
1765366780.03,0,1019.19,-49.37,320.44,4.19,-3.06,0.70,0.34,9.47,0.15,0.18,-0.69,13.38,27.38,-40.19
1765366780.15,0,1019.20,-49.40,325.00,1.50,-0.31,0.08,-0.14,9.60,-0.85,0.47,-0.67,11.88,26.56,-40.19
1765366780.26,0,1019.20,-49.43,329.12,-0.25,2.12,-0.26,-0.41,9.53,0.16,0.10,-0.68,11.50,29.88,-36.88
1765366780.37,0,1019.20,-49.43,333.25,0.94,0.25,0.08,0.33,9.53,0.06,-0.45,-0.67,9.19,29.25,-37.69
1765366780.49,0,1019.20,-49.45,337.75,3.69,2.75,0.29,-0.13,9.58,-0.63,-0.10,-0.68,3.19,29.25,-37.25
1765366780.60,0,1019.20,-49.45,341.44,0.81,4.25,-0.28,-0.41,9.87,-0.19,0.62,-0.46,2.38,31.56,-34.25
1765366780.72,0,1019.20,-49.45,344.56,-0.19,2.56,-0.52,0.10,9.17,0.43,-0.31,-0.47,1.75,32.38,-34.25
1765366780.83,0,1019.20,-49.45,347.31,4.06,2.62,0.20,0.09,9.20,-0.36,-0.88,-0.45,-0.75,30.88,-35.06
1765366780.95,0,1019.20,-49.45,350.12,8.62,4.25,0.95,-0.31,9.40,0.07,-0.36,-0.48,-5.69,31.00,-33.88
1765366781.06,0,1019.21,-49.46,353.00,6.94,1.06,0.63,0.35,9.51,0.40,0.97,-0.35,-7.88,31.25,-33.06
1765366781.17,0,1019.20,-49.46,353.62,-1.44,2.44,-1.03,-0.33,9.33,-0.37,1.29,0.19,-5.00,32.75,-34.38
1765366781.29,0,1019.20,-49.45,351.25,-5.38,1.25,-1.48,-0.31,8.89,0.75,-0.37,0.54,-0.19,33.50,-33.56
1765366781.41,0,1019.20,-49.46,346.81,0.69,-3.06,0.05,0.33,9.95,0.24,-1.15,0.92,1.69,31.69,-35.69
1765366781.52,0,1019.20,-49.46,340.44,5.69,-3.06,0.84,-0.01,9.52,-0.07,-0.11,1.04,-3.00,27.56,-39.06
1765366781.63,0,1019.21,-49.46,334.06,3.69,-2.44,0.48,-0.11,9.58,0.23,0.64,1.01,0.69,29.06,-39.69
1765366781.75,0,1019.21,-49.47,327.25,-0.50,-3.25,-0.25,0.13,10.07,-0.04,0.55,1.01,6.19,27.88,-39.69
1765366781.87,0,1019.21,-49.47,321.00,-1.25,-1.81,-0.28,-0.20,9.47,-0.26,-0.16,1.01,13.75,27.19,-38.38
1765366781.98,0,1019.20,-49.45,314.94,1.19,-1.88,0.27,-0.10,8.95,0.24,-0.45,1.00,14.50,25.69,-38.75
1765366782.09,0,1019.20,-49.45,308.38,3.31,-2.06,0.88,0.15,10.21,-0.17,0.00,0.98,16.38,23.56,-40.88
1765366782.21,0,1019.20,-49.44,301.94,0.75,0.00,0.35,-0.25,9.70,-0.11,0.68,0.96,18.19,22.88,-40.50
1765366782.33,0,1019.20,-49.45,296.19,-3.25,-1.00,-0.34,0.07,9.03,0.19,0.52,0.92,25.56,20.25,-38.38
1765366782.44,0,1019.20,-49.41,290.12,-3.69,-0.44,-0.37,-0.02,8.76,-0.42,-0.31,0.90,28.50,16.75,-37.06
1765366782.56,0,1019.20,-49.43,284.75,-0.19,1.31,0.30,-0.32,8.12,-0.00,-0.65,0.84,28.50,16.00,-37.56
1765366782.67,0,1019.20,-49.44,279.19,2.62,0.00,0.71,0.06,7.81,0.29,-0.15,0.81,27.88,12.00,-40.50
1765366782.79,0,1019.21,-49.48,274.31,1.62,0.00,0.29,0.00,7.35,-0.27,0.46,0.79,29.38,10.19,-40.06
1765366782.91,0,1019.21,-49.49,269.19,-1.56,1.81,-0.21,-0.28,8.26,-0.05,0.34,0.76,31.19,9.50,-39.19
1765366783.02,0,1019.22,-49.60,264.31,-1.62,0.00,-0.37,0.10,10.85,0.32,-0.48,0.72,33.00,6.88,-38.38
1765366783.14,0,1019.22,-49.60,259.94,2.81,0.12,0.51,-0.06,11.41,-0.23,-0.80,0.69,31.38,3.88,-41.38
1765366783.25,0,1019.24,-49.71,255.56,5.75,0.44,-326.67,-0.15,9.55,0.26,-0.03,0.64,29.88,2.38,-42.56
1765366783.37,0,1019.24,-49.78,251.75,2.88,-0.81,0.56,0.18,11.47,0.12,0.79,0.58,32.38,-1.19,-43.00
1765366783.48,0,1019.24,-49.78,248.25,-1.25,0.00,-0.48,-0.12,9.67,-0.21,0.36,0.55,32.38,-2.88,-39.06
1765366783.60,0,1019.25,-49.83,244.62,-0.75,0.31,-0.33,-0.16,10.05,0.09,-0.51,0.52,34.56,-3.69,-39.00
1765366783.71,0,1019.25,-49.83,241.56,3.56,-0.25,0.51,0.00,10.47,0.04,-0.70,0.49,32.38,-6.19,-40.38
1765366783.83,0,1019.25,-49.84,238.62,5.94,-0.50,0.86,-0.10,9.08,0.17,0.06,0.47,27.56,-8.75,-42.88
1765366783.94,0,1019.25,-49.84,235.44,3.12,-1.38,0.48,0.00,9.12,0.13,0.74,0.45,27.19,-11.38,-42.50
1765366784.05,0,1019.25,-49.86,232.69,-1.44,-1.44,-0.28,-0.08,9.29,-0.06,0.62,0.44,29.38,-12.50,-38.25
1765366784.17,0,1019.25,-49.86,229.81,-3.12,-1.31,-0.45,-0.14,9.49,0.09,-0.12,0.43,32.38,-13.69,-35.19
1765366784.28,0,1019.26,-49.88,227.25,-0.31,-2.38,0.21,0.01,10.30,0.20,-0.59,0.42,28.38,-16.56,-36.06
1765366784.39,0,1019.26,-49.88,224.75,2.31,-2.69,0.77,0.02,9.50,-0.12,-0.10,0.41,25.88,-17.00,-37.75
1765366784.51,0,1019.25,-49.87,222.00,0.88,-2.38,0.55,-0.18,8.90,0.17,0.54,0.39,24.69,-18.75,-37.75
1765366784.62,0,1019.26,-49.89,219.62,-2.94,-3.88,-0.15,0.11,8.87,0.13,0.62,0.36,26.19,-19.88,-36.06
1765366784.74,0,1019.26,-49.88,217.31,-4.31,-2.56,-0.45,-0.10,9.61,-0.41,-0.16,0.36,28.00,-22.25,-33.50
1765366784.85,0,1019.26,-49.91,215.00,-1.00,-1.00,0.21,-0.22,9.63,0.09,-0.66,0.33,25.50,-21.88,-34.88
1765366784.97,0,1019.26,-49.92,213.12,2.19,-2.12,0.71,0.07,9.09,0.07,-0.23,0.31,22.88,-23.00,-36.88
1765366785.08,0,1019.26,-49.94,211.31,1.94,-1.06,0.48,-0.14,8.94,-0.37,0.40,0.29,20.38,-24.06,-36.50
1765366785.19,0,1019.26,-49.94,209.50,-1.12,0.00,-0.09,-0.18,8.57,0.13,0.45,0.26,21.38,-23.00,-37.00
1765366785.31,0,1019.27,-49.99,207.94,-2.44,-0.56,-0.24,0.05,8.71,-0.16,-0.04,0.24,23.25,-25.56,-36.06
1765366785.42,0,1019.27,-50.00,206.31,-0.62,1.19,0.07,-0.24,10.11,-0.22,-0.47,0.22,23.00,-25.88,-36.50
1765366785.54,0,1019.28,-50.05,205.06,2.19,0.56,0.53,-0.06,9.71,0.30,-0.40,0.19,19.69,-26.56,-36.38
1765366785.65,0,1019.28,-50.05,204.00,3.12,-0.19,0.59,0.08,10.87,-0.13,0.12,0.16,19.69,-29.50,-36.00
1765366785.76,0,1019.28,-50.09,203.00,1.38,0.75,0.09,-0.20,11.10,0.02,0.31,0.13,18.56,-30.19,-36.00
1765366785.88,0,1019.28,-50.11,202.38,0.50,-0.31,-0.12,0.05,9.97,0.17,-0.05,0.09,20.06,-30.19,-33.88
1765366785.99,0,1019.28,-50.12,201.88,2.12,0.19,0.18,-0.12,9.97,-0.25,-0.42,0.07,19.25,-32.38,-34.75
1765366786.11,0,1019.28,-50.10,201.50,4.44,-0.12,0.45,-0.21,8.53,0.41,-0.22,0.03,18.19,-32.06,-35.56
1765366786.22,0,1019.28,-50.09,201.31,4.44,-2.50,0.23,0.22,8.95,0.07,0.13,0.00,16.00,-32.75,-36.38
1765366786.34,0,1019.28,-50.09,201.38,3.38,-0.75,0.00,-0.28,9.22,-0.32,0.04,-0.01,16.06,-33.06,-36.00
1765366786.45,0,1019.28,-50.09,201.56,3.88,-1.69,0.13,-0.16,10.02,0.57,-0.18,-0.04,16.88,-32.69,-36.38
1765366786.56,0,1019.28,-50.09,201.81,5.12,-3.88,0.49,0.31,8.87,-0.21,-0.13,-0.05,16.50,-34.56,-35.56
1765366786.68,0,1019.28,-50.10,202.38,4.44,0.00,0.50,-0.47,10.20,-0.59,0.40,-0.07,16.06,-33.06,-36.00
1765366786.80,0,1019.28,-50.09,203.06,1.12,-0.81,-0.11,-0.07,9.59,0.65,0.45,-0.12,18.25,-29.69,-36.00
1765366786.91,0,1019.28,-50.08,203.81,0.19,-2.50,-0.24,0.31,10.02,-0.48,-0.23,-0.13,20.56,-33.06,-33.88
1765366787.03,0,1019.28,-50.09,204.81,2.94,1.75,0.34,-0.57,8.23,-0.35,-0.47,-0.16,20.88,-31.19,-36.50
1765366787.14,0,1019.28,-50.07,205.81,4.44,-0.25,1.13,-0.06,10.86,0.76,0.07,-0.19,19.38,-29.19,-38.06
1765366787.25,0,1019.28,-50.07,206.94,1.00,-2.62,0.37,0.52,9.88,-0.40,0.81,-0.21,20.88,-31.25,-35.56
1765366787.37,0,1019.28,-50.09,208.12,-3.69,2.19,-0.43,-0.54,9.32,-0.56,0.48,-0.18,23.50,-29.19,-34.25
1765366787.49,0,1019.28,-50.09,209.38,-3.94,0.75,-0.22,0.05,9.70,0.66,-0.37,-0.21,27.50,-25.06,-32.25
1765366787.60,0,1019.28,-50.08,210.81,-0.44,-0.81,0.47,0.25,8.56,-0.31,-0.54,-0.20,25.69,-27.25,-34.06
1765366787.72,0,1019.28,-50.09,212.12,1.00,2.62,0.80,-0.48,9.61,-0.33,0.16,-0.23,25.25,-25.50,-36.19
1765366787.83,0,1019.28,-50.10,213.88,-1.56,1.12,0.16,0.01,9.56,0.47,0.68,-0.27,28.00,-23.19,-35.00
1765366787.95,0,1019.28,-50.09,215.62,-4.56,0.31,-0.52,0.11,9.80,-0.30,0.11,-0.28,30.19,-24.00,-32.75
1765366788.06,0,1019.28,-50.10,217.38,-2.31,2.31,-0.16,-0.39,9.07,0.07,-0.73,-0.30,30.88,-23.19,-33.56
1765366788.19,0,1019.28,-50.12,219.25,2.81,-0.25,0.72,0.19,10.05,0.42,-0.61,-0.29,31.19,-23.19,-36.19
1765366788.30,0,1019.28,-50.11,221.19,4.25,-0.06,0.80,0.01,10.18,-0.47,0.21,-0.28,29.00,-22.19,-37.25
1765366788.42,0,1019.28,-50.09,223.00,1.25,1.69,-0.07,-0.40,9.91,0.17,0.59,-0.29,31.19,-21.75,-38.56
1765366788.54,0,1019.28,-50.11,225.06,-0.81,-1.69,-0.45,0.14,9.05,0.52,-0.10,-0.30,33.69,-22.19,-35.69
1765366788.65,0,1019.28,-50.11,227.12,1.81,-2.12,0.08,-0.04,8.11,-0.35,-0.69,-0.30,35.06,-23.25,-34.88
1765366788.77,0,1019.28,-50.10,229.25,5.69,-1.06,0.83,-0.30,9.82,0.17,-0.34,-0.32,30.69,-20.00,-36.88
1765366788.89,0,1019.28,-50.09,231.06,4.94,-3.69,0.64,0.26,10.47,0.36,0.43,-0.33,31.06,-21.00,-38.25
1765366789.00,0,1019.28,-50.08,232.94,1.56,-2.88,-0.35,-0.06,11.04,-0.55,0.40,-0.31,32.56,-18.75,-37.00
1765366789.11,0,1019.28,-50.09,234.94,1.44,-0.81,-0.41,-0.38,8.70,0.08,-0.37,-0.31,33.56,-17.00,-37.00
1765366789.23,0,1019.28,-50.06,236.81,4.94,-2.75,0.51,0.21,8.91,0.24,-0.70,-0.29,33.00,-16.25,-39.06
1765366789.35,0,1019.28,-50.05,238.88,6.81,-1.50,1.05,0.04,8.63,-0.60,0.25,-0.29,31.06,-14.69,-41.25
1765366789.46,0,1019.27,-50.03,240.75,2.50,1.31,0.31,-0.33,9.61,-0.16,1.01,-0.27,31.88,-11.00,-40.75
1765366789.57,0,1019.27,-50.03,242.69,-2.88,0.44,-0.60,0.08,10.00,0.21,0.45,-0.28,35.19,-9.19,-37.50
1765366789.69,0,1019.27,-50.00,244.31,-1.88,1.62,-0.36,-0.02,9.39,-0.48,-0.61,-0.27,37.38,-8.38,-34.06
1765366789.80,0,1019.27,-49.96,245.94,2.94,3.81,0.69,-0.30,9.72,-0.09,-0.72,-0.30,34.19,-5.50,-39.56
1765366789.91,0,1019.27,-49.97,247.69,4.62,2.38,1.04,0.16,9.57,0.17,0.32,-0.31,32.38,-3.25,-34.06
1765366790.03,0,1019.26,-49.96,249.81,0.31,3.19,0.13,-0.08,9.03,-0.41,0.89,-0.29,30.88,-3.25,-39.56
1765366790.14,0,1019.27,-49.96,251.62,-3.62,4.19,-0.65,-0.39,9.37,0.30,0.23,-0.27,36.06,0.50,-35.25
1765366790.26,0,1019.26,-49.95,253.44,-1.50,0.75,-0.29,0.16,9.30,0.44,-0.80,-0.24,35.06,-0.25,-35.25
1765366790.37,0,1019.26,-49.94,254.75,4.00,0.94,0.88,0.03,9.33,-0.39,-0.70,-0.21,34.25,-1.00,-38.56
1765366790.49,0,1019.26,-49.92,256.12,5.25,2.25,1.10,-0.31,9.02,0.15,0.48,-0.22,30.25,-0.25,-40.38
1765366790.60,0,1019.26,-49.92,257.62,-0.69,-0.69,0.09,0.11,9.57,0.52,1.17,-0.23,31.75,0.56,-36.19
1765366790.72,0,1019.26,-49.91,259.00,-5.62,-1.38,-0.89,0.04,9.20,-0.28,0.18,-0.21,37.25,0.19,-34.06
1765366790.83,0,1019.26,-49.91,260.19,-2.62,0.31,-0.27,-0.32,9.20,0.01,-0.95,-0.19,37.25,1.56,-32.75
1765366790.95,0,1019.26,-49.91,261.25,3.44,-1.44,0.87,0.09,9.06,0.29,-0.75,-0.15,32.88,2.75,-38.25
1765366791.06,0,1019.26,-49.93,262.12,4.69,-1.25,1.07,0.06,9.80,-0.35,0.40,-0.11,30.56,1.25,-38.56
1765366791.17,0,1019.26,-49.93,262.75,-0.19,0.38,0.00,-0.28,9.88,-0.00,0.93,-0.08,32.06,3.38,-37.38
1765366791.29,0,1019.26,-49.94,263.19,-3.81,-0.50,-0.76,0.04,9.54,0.12,0.02,-0.05,35.75,3.75,-34.88
1765366791.40,0,1019.26,-49.95,263.38,-0.25,0.19,-0.14,-0.07,9.30,-0.26,-0.99,-0.02,35.75,3.75,-34.06
1765366791.52,0,1019.26,-49.95,263.50,5.62,0.88,0.93,-0.18,9.16,0.12,-0.67,-0.01,31.38,4.56,-37.88
1765366791.63,0,1019.26,-49.94,263.44,6.31,-0.06,0.97,0.12,9.31,0.04,0.47,0.01,29.88,4.19,-41.25
1765366791.74,0,1019.26,-49.93,263.31,1.31,1.06,-0.04,-0.10,9.49,-0.31,0.91,0.04,29.56,4.56,-40.25
1765366791.86,0,1019.26,-49.93,263.00,-2.06,1.88,-0.65,-0.22,9.45,0.09,0.01,0.08,34.69,4.88,-35.25
1765366791.97,0,1019.26,-49.94,262.31,0.81,1.00,-0.02,0.01,9.38,0.04,-0.87,0.11,34.75,4.19,-36.19
1765366792.09,0,1019.26,-49.94,261.56,5.88,1.44,1.01,-0.07,9.34,-0.07,-0.50,0.13,31.50,3.75,-38.69
1765366792.20,0,1019.26,-49.93,260.62,5.56,1.12,0.90,-0.06,9.22,0.17,0.58,0.14,30.00,3.75,-41.19
1765366792.32,0,1019.26,-49.93,259.75,0.06,0.50,-0.01,0.06,9.54,-0.02,0.97,0.15,33.69,2.69,-38.19
1765366792.43,0,1019.26,-49.93,258.75,-3.69,1.31,-0.66,-0.21,9.42,-0.11,0.10,0.18,36.25,2.25,-34.00
1765366792.54,0,1019.26,-49.93,257.44,-1.00,0.69,-0.10,-0.11,8.79,0.26,-0.78,0.21,36.25,2.69,-33.50
1765366792.66,0,1019.26,-49.93,256.06,3.69,-0.31,0.99,0.09,9.67,-0.03,-0.53,0.24,31.88,0.50,-38.56
1765366792.78,0,1019.26,-49.94,254.44,3.75,0.31,0.96,-0.18,10.19,0.03,0.55,0.24,29.69,-0.25,-39.50
1765366792.89,0,1019.26,-49.95,252.94,-1.31,-1.12,-0.29,0.04,9.65,0.26,0.82,0.25,33.00,-1.00,-38.19
1765366793.01,0,1019.26,-49.95,251.19,-4.00,-1.31,-0.61,-0.07,9.18,-0.20,-0.07,0.27,34.75,-3.56,-34.00
1765366793.12,0,1019.26,-49.95,249.50,-0.62,-0.81,0.06,-0.24,9.66,0.18,-0.82,0.28,35.50,-4.56,-34.88
1765366793.23,0,1019.26,-49.95,247.75,3.75,-2.62,0.88,0.20,8.95,0.12,-0.39,0.31,31.50,-4.56,-38.19
1765366793.35,0,1019.26,-49.92,245.69,3.69,-1.19,0.67,-0.09,8.67,-0.38,0.41,0.33,30.00,-6.50,-38.88
1765366793.46,0,1019.26,-49.92,243.62,-0.12,-0.31,-0.11,-0.17,10.03,0.22,0.66,0.33,31.06,-6.88,-37.75
1765366793.58,0,1019.26,-49.91,241.44,-2.44,-1.56,-0.52,0.18,9.66,-0.06,-0.06,0.34,34.00,-8.25,-35.19
1765366793.70,0,1019.26,-49.92,239.31,0.50,0.31,0.11,-0.29,9.32,-0.28,-0.79,0.34,33.69,-8.25,-35.69
1765366793.81,0,1019.26,-49.94,237.06,5.12,-0.19,0.83,-0.05,9.25,0.43,-0.45,0.33,29.25,-10.19,-39.75
1765366793.93,0,1019.26,-49.94,234.88,5.12,-1.31,0.75,0.22,9.36,-0.23,0.47,0.34,28.50,-13.06,-39.38
1765366794.04,0,1019.26,-49.93,232.62,0.50,1.56,-0.09,-0.31,9.43,-0.27,0.75,0.36,30.00,-13.25,-39.38
1765366794.17,0,1019.26,-49.93,230.25,-2.62,0.88,-0.54,0.01,9.85,0.34,-0.03,0.36,31.50,-13.38,-35.19
1765366794.28,0,1019.26,-49.94,227.81,0.31,0.38,0.12,0.03,9.46,-0.26,-0.75,0.37,31.50,-15.56,-37.25
1765366794.40,0,1019.26,-49.93,225.38,4.38,1.75,0.95,-0.31,9.36,0.11,-0.32,0.35,28.88,-16.00,-39.38
1765366794.52,0,1019.26,-49.93,223.25,3.19,-0.50,0.69,0.15,9.26,0.36,0.67,0.33,26.00,-17.38,-39.38
1765366794.63,0,1019.26,-49.92,220.94,-1.94,-0.25,-0.30,-0.05,9.74,-0.36,0.73,0.34,26.69,-18.19,-37.25
1765366794.74,0,1019.26,-49.91,218.81,-3.81,0.44,-0.52,-0.31,9.29,0.27,-0.18,0.34,27.38,-18.25,-35.50
1765366794.86,0,1019.26,-49.92,216.81,-0.69,-2.00,0.29,0.17,9.53,0.31,-0.73,0.36,26.38,-20.19,-34.56
1765366794.97,0,1019.26,-49.93,214.44,3.25,-1.69,0.84,-0.08,9.42,-0.29,-0.32,0.36,22.25,-22.38,-37.50
1765366795.09,0,1019.26,-49.93,212.25,2.75,-0.75,0.60,-0.23,9.48,0.26,0.50,0.35,21.19,-22.06,-38.38
1765366795.20,0,1019.26,-49.94,209.94,-1.06,-2.81,-0.20,0.17,9.47,0.18,0.54,0.33,21.50,-23.50,-36.19
1765366795.31,0,1019.26,-49.93,207.81,-2.19,-1.56,-0.39,-0.14,8.97,-0.39,-0.13,0.34,23.25,-24.19,-34.19
1765366795.43,0,1019.26,-49.94,205.75,0.44,-0.69,0.26,-0.19,9.61,0.31,-0.60,0.33,21.06,-24.56,-35.75
1765366795.54,0,1019.26,-49.94,203.56,3.81,-2.50,0.72,0.27,9.56,0.04,-0.29,0.34,17.06,-27.19,-36.19
1765366795.66,0,1019.26,-49.94,201.56,3.56,0.00,0.58,-0.20,9.72,-0.50,0.31,0.34,16.00,-27.19,-37.88
1765366795.77,0,1019.26,-49.94,199.56,0.69,0.38,0.01,-0.17,9.80,0.39,0.47,0.32,16.75,-27.56,-37.88
1765366795.88,0,1019.26,-49.94,197.50,-0.81,-1.06,-0.25,0.24,8.93,-0.18,-0.03,0.30,17.19,-28.69,-35.38
1765366796.00,0,1019.26,-49.94,195.69,0.81,1.75,0.13,-0.33,8.93,-0.44,-0.42,0.28,15.25,-28.25,-36.19
1765366796.11,0,1019.26,-49.94,194.00,2.94,1.38,0.60,-0.13,9.22,0.47,-0.17,0.25,13.50,-27.88,-39.56
1765366796.23,0,1019.26,-49.93,192.31,2.25,-0.25,0.60,0.26,9.83,-0.14,0.38,0.24,12.00,-29.38,-37.88
1765366796.34,0,1019.26,-49.92,190.94,-0.88,1.88,0.03,-0.33,9.87,-0.20,0.55,0.23,13.50,-30.06,-37.50
1765366796.46,0,1019.26,-49.94,189.56,-3.00,0.31,-0.39,-0.07,9.70,0.52,0.04,0.20,14.19,-29.38,-38.25
1765366796.57,0,1019.26,-49.94,188.44,-1.06,-1.12,0.00,0.19,9.60,-0.15,-0.53,0.19,12.00,-32.00,-37.06
1765366796.68,0,1019.26,-49.93,187.44,2.38,0.62,0.52,-0.34,8.86,-0.04,-0.43,0.15,9.38,-30.88,-38.69
1765366796.80,0,1019.26,-49.93,186.44,3.31,-1.44,0.69,0.00,9.24,0.56,0.16,0.12,8.00,-31.19,-37.50
1765366796.91,0,1019.26,-49.91,185.62,0.69,-2.25,0.33,0.27,10.16,-0.39,0.58,0.12,9.38,-33.75,-36.56
1765366797.02,0,1019.26,-49.91,184.81,-2.19,0.75,-0.33,-0.54,10.12,-0.04,0.23,0.13,10.88,-32.69,-37.88
1765366797.14,0,1019.26,-49.93,184.00,-1.38,-2.00,-0.22,0.15,9.02,0.53,-0.46,0.13,11.00,-32.38,-36.19
1765366797.25,0,1019.26,-49.93,183.25,2.50,-1.62,0.48,0.16,9.08,-0.63,-0.61,0.15,9.50,-33.38,-35.75
1765366797.37,0,1019.26,-49.90,182.50,4.38,1.38,0.97,-0.42,9.95,-0.03,0.16,0.12,5.50,-32.69,-39.19
1765366797.48,0,1019.25,-49.87,181.75,0.75,-0.69,0.33,0.16,9.92,0.40,0.82,0.09,5.06,-33.38,-38.69
1765366797.60,0,1019.25,-49.87,181.12,-3.19,-0.25,-0.56,-0.06,8.95,-0.48,0.27,0.11,7.25,-34.19,-37.06
1765366797.71,0,1019.25,-49.84,180.31,-1.69,1.44,-0.39,-0.42,8.62,0.15,-0.71,0.10,8.75,-33.88,-39.50
1765366797.82,0,1019.25,-49.83,179.62,3.81,-1.06,0.52,0.19,8.91,0.38,-0.92,0.13,3.56,-34.69,-38.19
1765366797.94,0,1019.25,-49.81,178.88,7.00,-0.25,1.09,-0.01,9.69,-0.51,0.03,0.13,0.25,-35.38,-38.75
1765366798.05,0,1019.25,-49.81,178.19,3.81,1.62,0.30,-0.36,9.33,0.12,0.77,0.11,-0.38,-33.19,-40.38
1765366798.17,0,1019.24,-49.79,177.56,-0.06,-0.50,-0.54,0.18,9.25,0.22,0.29,0.09,4.00,-33.88,-39.19
