Time,Phase,Pressure,Altitude,Heading,Roll,Pitch,AccelX,AccelY,AccelZ,GyroX,GyroY,GyroZ,MagX,MagY,MagZ
1765366818.02,0,1019.26,-49.96,192.00,2.44,1.25,0.57,-0.06,9.55,0.16,-0.39,-0.06,17.00,-31.25,-39.69
1765366818.14,0,1019.26,-49.95,192.31,2.94,0.75,0.63,0.01,9.56,-0.09,0.23,-0.04,16.56,-30.88,-40.19
1765366818.25,0,1019.26,-49.92,192.56,0.44,1.56,0.07,-0.18,9.46,-0.06,0.47,-0.03,16.56,-31.25,-40.19
1765366818.37,0,1019.26,-49.93,192.75,-1.31,0.94,-0.35,-0.07,9.35,0.16,0.00,-0.02,20.25,-31.56,-39.75
1765366818.48,0,1019.26,-49.95,192.81,0.44,0.62,0.04,-0.01,9.50,-0.05,-0.51,0.00,18.75,-30.50,-39.38
1765366818.60,0,1019.26,-49.95,192.75,3.44,0.88,0.65,-0.11,9.50,0.06,-0.32,0.01,16.56,-31.25,-39.75
1765366818.71,0,1019.26,-49.95,192.62,3.56,0.06,0.63,0.03,9.52,0.10,0.29,0.02,16.25,-33.06,-40.69
1765366818.83,0,1019.26,-49.95,192.44,0.81,0.31,0.03,-0.10,9.26,-0.11,0.48,0.04,15.88,-32.38,-41.00
1765366818.94,0,1019.26,-49.95,192.12,-0.88,0.44,-0.32,-0.12,9.25,0.12,-0.02,0.05,16.56,-30.88,-39.00
1765366819.05,0,1019.26,-49.96,191.75,0.88,-0.31,0.08,0.01,9.42,0.05,-0.47,0.07,18.50,-32.00,-38.19
1765366819.17,0,1019.26,-49.95,191.25,3.44,0.06,0.63,-0.06,9.52,-0.09,-0.24,0.08,17.38,-34.19,-39.38
1765366819.28,0,1019.26,-49.93,190.69,3.25,0.06,0.56,-0.07,9.37,0.11,0.34,0.09,13.69,-32.75,-40.19
1765366819.39,0,1019.26,-49.92,190.06,0.19,-0.19,0.03,0.01,9.41,-0.06,0.48,0.10,15.88,-33.06,-38.50
1765366819.51,0,1019.26,-49.92,189.38,-1.31,0.56,-0.29,-0.14,9.38,-0.11,-0.04,0.12,16.56,-33.50,-38.50
1765366819.62,0,1019.26,-49.93,188.56,0.44,0.56,0.12,-0.08,9.50,0.09,-0.45,0.13,17.38,-33.50,-38.88
1765366819.74,0,1019.26,-49.93,187.75,2.81,0.31,0.67,0.01,9.70,-0.05,-0.24,0.14,13.25,-33.50,-40.19
1765366819.85,0,1019.26,-49.93,186.88,2.44,1.00,0.53,-0.09,9.46,-0.08,0.35,0.15,13.25,-33.50,-40.56
1765366819.97,0,1019.26,-49.93,185.94,-0.50,1.00,0.00,-0.06,9.41,0.05,0.45,0.15,13.25,-33.75,-40.19
1765366820.08,0,1019.26,-49.93,185.06,-1.81,0.88,-0.28,-0.06,9.36,-0.06,-0.08,0.15,14.75,-32.75,-38.50
1765366820.19,0,1019.26,-49.94,184.06,-0.06,1.12,0.18,-0.11,9.53,0.01,-0.44,0.16,13.25,-32.38,-39.38
1765366820.31,0,1019.26,-49.95,182.94,2.19,0.88,0.62,0.00,9.21,-0.01,-0.17,0.16,10.75,-34.56,-39.38
1765366820.42,0,1019.26,-49.95,181.94,1.69,1.50,0.42,-0.12,9.09,-0.13,0.34,0.17,11.50,-34.56,-39.38
1765366820.54,0,1019.26,-49.94,180.94,-0.88,1.62,-0.09,-0.11,9.33,0.06,0.35,0.16,10.50,-33.50,-39.38
1765366820.65,0,1019.26,-49.95,179.94,-1.50,1.19,-0.29,-0.03,9.41,0.03,-0.14,0.16,9.69,-33.75,-39.38
1765366820.76,0,1019.26,-49.96,178.94,0.94,1.12,0.20,-0.12,10.05,0.05,-0.58,0.16,9.69,-33.56,-38.06
1765366820.88,0,1019.26,-49.95,177.75,4.06,0.06,0.71,-0.06,9.71,0.25,-0.26,0.16,5.56,-34.25,-38.06
1765366820.99,0,1019.26,-49.95,176.75,3.56,-1.06,0.50,-0.03,9.33,0.15,0.37,0.16,3.38,-35.75,-37.19
1765366821.11,0,1019.27,-49.97,175.75,0.94,-1.56,-0.16,-0.09,9.40,0.14,0.35,0.15,3.75,-35.88,-34.69
1765366821.22,0,1019.27,-49.98,174.69,0.12,-2.06,-0.32,-0.01,9.06,0.12,-0.24,0.16,4.06,-36.56,-34.25
1765366821.34,0,1019.27,-49.98,173.75,2.69,-1.75,0.30,-0.02,9.33,-0.08,-0.55,0.16,1.56,-36.00,-35.19
1765366821.45,0,1019.27,-49.98,172.88,4.94,-1.12,0.83,-0.09,9.47,-0.04,-0.03,0.15,-0.19,-35.56,-33.88
1765366821.56,0,1019.27,-49.98,171.81,2.81,-1.06,0.45,0.00,9.61,0.05,0.63,0.15,0.50,-37.06,-35.19
1765366821.67,0,1019.27,-49.98,170.88,-1.06,-0.62,-0.22,-0.01,9.45,-0.18,0.48,0.15,1.56,-37.75,-35.19
1765366821.79,0,1019.27,-49.98,169.81,-2.00,0.44,-0.27,-0.20,9.55,-0.09,-0.20,0.16,2.25,-36.00,-35.19
1765366821.95,0,1019.27,-49.98,168.56,1.50,0.31,0.65,0.02,9.63,-0.05,-0.34,0.15,0.06,-37.06,-35.50
1765366822.07,0,1019.27,-49.98,167.50,1.88,1.31,0.65,-0.11,9.47,-0.17,0.34,0.15,-1.69,-35.25,-36.38
1765366822.19,0,1019.27,-49.99,166.62,-1.12,1.44,-0.04,-0.10,9.54,0.08,0.56,0.15,-0.56,-35.56,-38.38
1765366822.31,0,1019.27,-49.99,165.69,-3.12,1.12,-0.39,0.00,9.43,-0.09,-0.08,0.15,0.50,-34.88,-37.19
1765366822.42,0,1019.27,-49.97,164.69,-0.56,1.75,0.15,-0.19,9.37,-0.06,-0.58,0.15,0.50,-35.56,-36.38
1765366822.54,0,1019.27,-49.97,163.69,2.69,1.00,0.70,0.00,9.27,0.18,-0.27,0.14,-3.88,-36.00,-38.00
1765366822.66,0,1019.27,-49.97,162.75,2.12,0.69,0.53,0.00,9.71,-0.11,0.40,0.14,-3.06,-36.19,-37.06
1765366822.78,0,1019.27,-49.96,161.94,-1.06,1.12,-0.14,-0.18,10.99,0.10,0.41,0.13,0.19,-36.56,-38.00
1765366822.90,0,1019.26,-49.95,161.19,-1.62,-0.06,-0.25,0.07,10.22,0.10,-0.26,0.12,-1.56,-36.56,-37.56
1765366823.02,0,1019.27,-49.96,160.38,1.38,0.62,0.35,-0.13,8.94,-0.27,-0.54,0.12,-3.06,-36.56,-38.00
1765366823.14,0,1019.26,-49.91,159.62,3.75,1.25,0.69,-0.19,9.08,0.19,-0.04,0.10,-4.88,-34.38,-38.00
1765366823.25,0,1019.26,-49.91,159.00,2.25,-0.12,0.32,0.07,8.86,0.10,0.45,0.08,-6.75,-34.00,-38.75
1765366823.37,0,1019.25,-49.87,158.50,-0.50,0.56,-0.18,-0.17,9.11,-0.19,0.36,0.08,-5.25,-35.19,-37.06
1765366823.49,0,1019.25,-49.86,158.06,-0.75,0.25,-0.21,-0.11,9.65,0.28,-0.26,0.07,-3.75,-33.25,-37.50
1765366823.60,0,1019.25,-49.85,157.69,1.94,-1.12,0.42,0.14,9.89,0.05,-0.51,0.06,-5.75,-34.00,-36.19
1765366823.71,0,1019.25,-49.85,157.38,3.75,-0.06,0.79,-0.15,10.18,-0.20,0.03,0.04,-8.69,-33.69,-36.69
1765366823.83,0,1019.25,-49.82,157.19,1.56,0.00,0.33,-0.02,9.91,0.18,0.56,0.02,-8.00,-33.69,-36.19
1765366823.94,0,1019.24,-49.78,157.12,-1.50,-0.38,-0.32,0.00,9.01,-0.15,0.33,0.01,-6.19,-33.00,-36.69
1765366824.06,0,1019.24,-49.78,157.06,-1.62,0.81,-0.21,-0.23,8.72,-0.07,-0.30,-0.01,-5.38,-31.88,-37.88
1765366824.17,0,1019.24,-49.73,157.19,1.31,-0.12,0.31,-0.01,8.87,0.28,-0.53,-0.02,-7.19,-31.88,-36.69
1765366824.29,0,1019.24,-49.73,157.31,3.44,-0.75,0.75,0.05,9.27,-0.14,-0.04,-0.03,-6.19,-33.06,-35.25
1765366824.40,0,1019.24,-49.72,157.62,1.69,0.38,0.36,-0.22,9.27,-0.06,0.52,-0.05,-8.00,-31.56,-37.38
1765366824.51,0,1019.24,-49.72,158.00,-1.19,-0.31,-0.31,0.00,9.33,0.21,0.32,-0.07,-6.50,-32.69,-36.88
1765366824.63,0,1019.23,-49.71,158.50,-0.75,-0.31,-0.23,-0.02,9.33,-0.19,-0.42,-0.08,-4.69,-31.88,-35.69
1765366824.74,0,1019.24,-49.71,159.12,2.62,0.56,0.45,-0.22,9.56,-0.00,-0.57,-0.11,-4.69,-33.38,-36.88
1765366824.86,0,1019.24,-49.72,159.81,4.31,-0.44,0.74,0.06,9.64,0.15,0.09,-0.13,-8.38,-32.25,-35.69
1765366824.97,0,1019.23,-49.70,160.75,1.88,-0.12,0.30,-0.02,9.52,-0.24,0.57,-0.14,-7.19,-31.88,-35.19
1765366825.09,0,1019.24,-49.71,161.69,-1.00,0.69,-0.33,-0.21,9.30,0.08,0.24,-0.15,-3.19,-33.06,-37.75
1765366825.20,0,1019.24,-49.73,162.75,-0.44,-0.38,-0.13,0.05,9.42,0.14,-0.39,-0.17,-4.25,-32.25,-36.56
1765366825.32,0,1019.24,-49.73,163.81,2.50,0.06,0.57,-0.08,9.51,-0.21,-0.43,-0.18,-3.88,-32.69,-37.38
1765366825.43,0,1019.24,-49.74,165.12,3.50,0.44,0.68,-0.15,9.38,0.13,0.17,-0.21,-5.00,-32.69,-37.00
1765366825.55,0,1019.24,-49.73,166.50,0.69,-0.56,0.10,0.07,9.24,0.02,0.51,-0.22,-2.50,-32.69,-36.06
1765366825.67,0,1019.24,-49.72,167.88,-1.31,0.38,-0.31,-0.17,9.07,-0.19,0.08,-0.22,1.19,-32.69,-37.38
1765366825.79,0,1019.24,-49.72,169.38,-0.06,0.25,0.04,-0.10,8.86,0.25,-0.43,-0.23,0.75,-33.06,-38.19
1765366825.91,0,1019.24,-49.73,170.88,2.75,-0.75,0.51,0.04,8.83,-0.06,-0.31,-0.23,0.50,-32.25,-36.56
1765366826.03,0,1019.24,-49.76,172.44,3.19,0.00,0.51,-0.17,8.98,-0.06,0.21,-0.24,-0.56,-31.88,-35.69
1765366826.15,0,1019.24,-49.77,174.06,0.88,-0.75,0.11,0.01,10.00,0.18,0.40,-0.25,2.25,-33.75,-37.38
1765366826.26,0,1019.24,-49.79,175.69,-0.81,-0.50,-0.09,-0.02,9.97,-0.29,0.04,-0.24,4.00,-33.75,-35.69
1765366826.39,0,1019.24,-49.79,177.25,0.00,0.62,0.09,-0.22,9.17,0.10,-0.27,-0.24,5.19,-33.75,-37.75
1765366826.50,0,1019.25,-49.83,179.12,1.75,-0.38,0.49,0.17,9.24,-0.14,-0.07,-0.23,4.69,-34.06,-37.75
1765366826.64,0,1019.25,-49.86,180.69,1.25,1.81,0.33,-0.17,9.76,-0.41,0.23,-0.23,6.06,-34.06,-36.50
1765366826.76,0,1019.25,-49.87,182.12,0.00,2.44,-0.08,-0.16,9.54,0.15,0.14,-0.23,8.69,-32.38,-39.38
1765366826.87,0,1019.26,-49.90,183.50,0.44,1.50,-0.02,0.08,9.24,-0.11,-0.31,-0.23,11.19,-34.56,-38.56
1765366826.98,0,1019.26,-49.89,185.00,2.88,2.62,0.45,-0.24,9.34,-0.09,-0.32,-0.22,10.06,-35.38,-39.38
1765366827.10,0,1019.26,-49.92,186.38,3.50,1.44,0.59,-0.01,9.70,0.27,0.17,-0.23,8.88,-34.19,-39.25
1765366827.22,0,1019.26,-49.93,187.88,1.44,1.31,0.09,-0.03,10.04,-0.26,0.35,-0.22,11.75,-34.19,-38.50
1765366827.34,0,1019.26,-49.94,189.31,0.25,2.06,-0.17,-0.23,9.52,0.18,-0.09,-0.21,13.19,-33.25,-40.19
1765366827.46,0,1019.27,-49.97,190.69,1.94,0.38,0.24,0.10,9.65,0.16,-0.37,-0.20,13.19,-34.25,-38.38
1765366827.57,0,1019.27,-49.96,192.00,3.50,0.69,0.62,-0.12,9.51,-0.09,-0.00,-0.19,12.50,-34.56,-38.38
1765366827.70,0,1019.27,-49.96,193.19,2.12,-0.06,0.30,-0.08,8.94,0.30,0.39,-0.19,13.56,-33.19,-38.00
1765366827.81,0,1019.27,-49.97,194.31,-0.25,-1.38,-0.11,0.07,9.37,0.00,0.28,-0.18,14.69,-33.88,-36.75
1765366827.93,0,1019.27,-49.96,195.50,-0.50,-0.50,-0.09,-0.19,9.73,-0.05,-0.21,-0.15,17.25,-33.50,-37.19
1765366828.05,0,1019.26,-49.95,196.38,1.44,-1.12,0.41,0.01,9.58,0.18,-0.33,-0.14,16.06,-32.38,-37.19
1765366828.17,0,1019.26,-49.95,197.19,2.44,-1.06,0.52,0.01,8.44,-0.25,0.10,-0.25,16.56,-32.75,-36.69
1765366828.29,0,1019.27,-49.98,197.88,0.62,0.56,0.20,-0.18,9.03,-0.11,0.43,-0.09,17.69,-31.25,-38.00
1765366828.42,0,1019.27,-49.97,198.50,-1.81,0.50,-0.26,0.04,10.18,-0.01,0.14,-0.07,19.50,-31.00,-35.88
1765366828.54,0,1019.27,-49.99,198.88,-0.62,1.44,-0.05,-0.12,9.62,-0.20,-0.49,-0.05,21.25,-31.75,-38.38
1765366828.66,0,1019.27,-50.00,199.12,2.94,1.88,0.66,-0.08,9.98,0.09,-0.43,-0.04,19.06,-31.00,-39.56
1765366828.78,0,1019.27,-50.00,199.31,3.81,1.38,0.59,0.03,9.10,-0.08,0.26,-0.02,19.75,-31.75,-40.38
1765366828.90,0,1019.27,-50.00,199.38,0.75,2.44,0.03,-0.17,9.68,-0.12,0.47,0.01,19.75,-31.00,-40.25
1765366829.02,0,1019.27,-49.99,199.31,-0.69,1.81,-0.28,-0.02,10.03,0.23,-0.07,0.03,22.00,-30.00,-40.25
1765366829.13,0,1019.27,-49.98,199.00,1.31,1.25,0.13,0.00,8.49,-0.10,-0.48,0.06,21.00,-31.00,-39.88
1765366829.25,0,1019.27,-49.98,198.56,3.94,1.94,0.67,-0.22,8.90,0.01,-0.21,0.07,19.75,-32.06,-40.25
1765366829.37,0,1019.27,-50.00,198.06,3.12,0.69,0.55,0.03,9.86,0.26,0.41,0.08,17.56,-30.56,-40.25
1765366829.48,0,1019.27,-50.00,197.56,0.00,0.38,-0.12,0.00,10.14,-0.16,0.46,0.10,18.69,-32.88,-38.25
1765366829.59,0,1019.27,-49.99,196.81,-1.19,0.88,-0.26,-0.18,9.25,0.09,-0.14,0.11,19.75,-31.50,-37.38
1765366829.71,0,1019.27,-49.99,196.06,1.00,-0.06,0.25,0.01,9.20,0.09,-0.48,0.13,18.00,-32.19,-37.50
1765366829.82,0,1019.27,-50.00,195.12,3.31,0.12,0.69,-0.08,9.83,-0.07,-0.13,0.14,15.00,-33.00,-38.69
1765366829.94,0,1019.27,-50.00,194.25,2.19,0.06,0.39,-0.11,9.32,0.13,0.43,0.15,14.25,-33.00,-38.69
1765366830.06,0,1019.27,-49.99,193.25,-0.75,-0.88,-0.16,0.05,8.77,0.11,0.37,0.15,16.06,-34.06,-38.19
1765366830.17,0,1019.27,-49.98,192.25,-1.06,-0.56,-0.13,-0.13,11.58,-0.13,-0.22,0.16,15.00,-34.38,-34.56
1765366830.28,0,1019.27,-49.98,191.25,1.31,-1.00,0.53,0.04,11.66,0.19,-0.41,0.17,14.69,-33.00,-36.50
1765366830.40,0,1019.26,-49.89,190.06,2.62,-0.50,0.70,0.11,9.74,-0.44,0.12,0.19,12.50,-32.69,-37.00
1765366830.51,0,1019.26,-49.90,188.81,0.19,2.31,0.27,-0.33,8.79,-0.20,0.55,0.20,12.75,-32.00,-40.38
1765366830.63,0,1019.25,-49.81,187.75,-2.88,1.25,-0.39,-0.07,8.27,0.34,0.31,0.19,13.19,-30.75,-38.69
1765366830.75,0,1019.25,-49.80,186.50,-2.56,0.38,-0.31,0.04,8.85,-0.15,-0.43,0.19,13.06,-31.56,-37.38
1765366830.86,0,1019.23,-49.71,185.31,1.44,1.62,0.42,-0.21,8.89,-0.08,-0.70,0.18,9.00,-30.50,-39.50
1765366830.98,0,1019.23,-49.70,184.06,4.25,0.75,0.85,0.03,9.55,0.29,-0.07,0.17,7.56,-32.06,-40.25
1765366831.09,0,1019.23,-49.64,183.00,2.19,0.19,0.23,-0.02,10.86,-0.13,0.61,0.18,5.69,-31.69,-39.06
1765366831.21,0,1019.22,-49.57,181.81,-1.00,0.81,-0.40,-0.26,8.58,0.06,0.20,0.18,8.38,-32.06,-37.38
1765366831.33,0,1019.22,-49.57,180.69,-0.25,-0.69,-0.20,-0.03,7.80,0.33,-0.44,0.18,7.19,-32.75,-38.19
1765366831.45,0,1019.21,-49.50,179.44,3.44,-1.44,0.57,0.06,8.65,-0.11,-0.52,0.19,4.69,-32.75,-36.19
1765366831.57,0,1019.21,-49.47,178.38,4.38,-0.19,0.95,-0.06,9.16,-0.15,0.36,0.18,1.25,-33.25,-37.00
1765366831.68,0,1019.21,-49.48,177.25,-0.62,0.31,0.04,0.06,10.53,-0.02,1.01,0.16,2.25,-32.19,-37.38
1765366831.80,0,1019.21,-49.48,176.19,-4.12,2.88,-0.93,-0.25,11.28,-0.78,-0.35,0.15,6.06,-32.19,-37.00
1765366831.92,0,1019.20,-49.41,175.12,1.62,3.81,0.76,-0.51,11.28,0.86,-1.04,0.09,2.25,-29.69,-40.19
1765366832.04,0,1019.20,-49.40,174.25,3.88,-0.56,1.48,0.45,10.04,-0.23,0.67,0.12,-0.88,-33.00,-36.06
1765366832.16,0,1019.18,-49.28,173.44,-3.75,1.06,-0.22,-0.69,10.08,0.19,1.34,0.13,-0.56,-34.50,-36.56
1765366832.27,0,1019.18,-49.29,173.25,-8.00,-4.62,-1.47,0.04,10.14,1.13,-0.10,0.08,3.75,-33.00,-36.06
1765366832.39,0,1019.16,-49.11,173.25,-1.06,-8.38,-0.14,-0.01,9.32,0.12,-1.87,0.14,2.56,-36.69,-33.88
1765366832.50,0,1019.16,-49.10,172.94,10.31,-11.88,1.41,-0.33,8.47,1.20,-1.10,0.18,-2.19,-37.69,-35.00
1765366832.62,0,1019.14,-48.93,171.19,12.62,-18.12,1.20,0.37,6.63,0.42,0.55,0.22,-10.25,-38.88,-31.38
1765366832.73,0,1019.14,-48.93,168.69,6.88,-16.06,0.11,0.32,7.53,-0.91,1.21,0.26,-7.75,-38.88,-31.56
1765366832.85,0,1019.13,-48.83,166.44,1.75,-6.88,-0.70,-0.14,8.56,-1.70,0.38,0.37,-6.06,-33.19,-37.69
1765366832.96,0,1019.12,-48.79,164.19,2.94,3.12,0.14,-0.33,9.21,-1.18,35.19,0.32,-4.00,-26.25,-43.25
1765366833.08,0,1019.12,-48.79,162.62,4.94,8.38,1.12,-0.16,8.02,-0.65,0.03,0.23,-6.38,-14.50,-45.25
1765366833.19,0,1019.13,-48.85,161.75,1.19,10.75,0.55,-0.47,6.62,0.05,1.03,0.17,-5.50,-10.19,-44.56
1765366833.30,0,1019.13,-48.85,161.81,-6.81,7.25,0.11,-0.01,8.53,0.75,1.29,0.05,1.00,-9.69,-43.75
1765366833.42,0,1019.14,-48.95,162.31,-13.06,5.38,-0.64,0.14,9.77,-0.16,0.56,-0.04,6.00,-11.88,-41.06
1765366833.53,0,1019.14,-48.95,162.75,-12.00,5.31,-0.81,-0.45,8.85,0.44,-0.86,-0.10,9.19,-10.19,-38.56
1765366833.65,0,1019.16,-49.11,163.50,-3.19,1.00,-0.21,0.20,6.51,0.58,-1.82,-0.09,6.50,-11.25,-37.38
1765366833.77,0,1019.16,-49.11,164.25,9.00,1.19,1.15,0.24,8.80,-0.69,-1.65,-0.16,1.38,-14.25,-37.38
1765366833.88,0,1019.19,-49.30,166.12,13.50,5.69,2.19,-0.33,9.15,-0.53,0.54,-0.29,-6.38,-9.69,-36.75
1765366833.99,0,1019.22,-49.56,169.00,3.88,6.50,0.32,-0.03,8.07,-0.04,2.13,-0.36,-4.00,-8.19,-37.06
1765366834.11,0,1019.22,-49.56,171.94,-4.94,7.62,-2.05,-0.79,11.96,0.30,-0.12,-0.43,2.25,-6.69,-35.88
1765366834.24,0,1019.24,-49.74,174.69,4.19,-2.00,1.34,0.66,9.44,1.73,-1.61,-0.34,7.38,-6.06,-35.69
1765366834.35,0,1019.24,-49.74,176.75,6.56,-2.88,1.91,0.39,8.66,-1.05,0.77,-0.27,0.88,-10.19,-36.75
1765366834.49,0,1019.26,-49.89,178.75,-4.12,3.06,-0.50,-0.92,10.11,0.44,1.44,-0.25,4.25,-5.38,-39.06
1765366834.61,0,1019.26,-49.88,181.12,-7.75,-1.62,-1.13,0.38,10.41,0.47,-0.62,-0.31,14.25,-1.69,-34.88
1765366834.73,0,1019.27,-50.00,183.31,-0.19,-0.06,0.56,0.04,10.32,-0.78,-1.36,-0.33,7.19,-4.75,-37.56
1765366834.84,0,1019.28,-50.10,185.62,4.88,2.19,1.59,-0.36,11.47,0.29,-0.13,-0.42,3.56,-1.19,-39.19
1765366834.95,0,1019.28,-50.11,188.25,1.38,-0.06,0.38,0.18,8.58,0.11,1.00,-0.46,3.69,0.25,-38.88
1765366835.07,0,1019.29,-50.18,191.31,-4.44,1.62,-0.66,-0.23,9.96,-0.45,0.55,-0.45,6.06,-1.38,-38.50
1765366835.18,0,1019.29,-50.18,194.12,-3.75,1.94,-0.51,-0.27,9.12,0.40,-0.61,-0.47,7.19,0.06,-36.25
1765366835.29,0,1019.30,-50.24,196.81,0.38,-0.69,0.00,0.37,7.32,-0.05,2.26,-0.26,3.88,-0.88,-37.56
1765366835.41,0,1019.30,-50.24,198.00,-6.00,1.81,-0.98,-0.56,9.78,-0.22,-1.52,-0.13,7.69,-0.38,-35.88
1765366835.53,0,1019.30,-50.25,198.94,-4.25,0.88,-0.57,-0.13,8.38,0.47,-0.11,-0.17,5.88,1.56,-36.56
1765366835.64,0,1019.30,-50.25,199.19,-5.75,0.75,-0.65,-0.10,9.19,-0.23,0.04,0.06,6.56,1.19,-36.06
1765366835.75,0,1019.30,-50.24,198.56,-5.81,1.31,-0.89,-0.18,9.37,-0.02,0.02,0.10,7.38,2.00,-35.75
1765366835.87,0,1019.30,-50.24,198.25,-5.81,1.50,-0.81,-0.25,9.44,-0.06,-0.00,-0.03,9.25,3.75,-32.75
1765366835.98,0,1019.30,-50.25,198.31,-5.81,1.56,-0.88,-0.22,9.65,0.03,-0.00,-0.00,9.00,5.19,-35.00
1765366836.09,0,1019.30,-50.24,198.31,-5.75,1.31,-0.84,-0.11,9.43,0.03,0.00,0.00,10.38,3.75,-31.56
1765366836.21,0,1019.30,-50.23,198.31,-5.75,1.25,-0.84,-0.13,9.43,-0.03,-0.00,0.00,10.00,4.19,-34.19
1765366836.32,0,1019.30,-50.25,198.31,-5.69,1.44,-0.82,-0.18,9.40,-0.03,0.00,-0.00,9.69,4.19,-33.25
1765366836.44,0,1019.30,-50.25,198.31,-5.69,1.56,-0.89,-0.22,9.55,0.00,-0.00,-0.00,10.75,4.50,-34.19
1765366836.55,0,1019.30,-50.26,198.31,-5.62,1.50,-0.85,-0.16,9.46,0.01,0.00,0.00,9.00,4.19,-33.69
1765366836.67,0,1019.30,-50.26,198.31,-5.62,1.50,-0.87,-0.19,9.51,-0.01,0.00,0.00,9.00,4.19,-33.38
1765366836.78,0,1019.30,-50.25,198.31,-5.62,1.50,-0.85,-0.19,9.49,-0.01,0.00,0.00,9.69,4.50,-34.19
1765366836.90,0,1019.30,-50.24,198.31,-5.62,1.50,-0.85,-0.19,9.46,0.01,0.00,0.00,10.00,3.38,-34.56
1765366837.01,0,1019.30,-50.24,198.31,-5.62,1.50,-0.82,-0.17,9.40,0.00,0.00,-0.00,10.38,4.50,-32.06
1765366837.13,0,1019.30,-50.25,198.31,-5.62,1.50,-0.84,-0.22,9.40,0.01,0.00,-0.00,10.00,3.75,-34.19
1765366837.24,0,1019.30,-50.25,198.31,-5.62,1.38,-0.86,-0.19,9.51,0.03,-0.00,0.00,9.69,3.75,-34.19
1765366837.36,0,1019.30,-50.25,198.31,-5.62,1.19,-0.85,-0.12,9.44,0.03,0.00,-0.00,9.69,4.19,-33.69
1765366837.48,0,1019.30,-50.25,198.31,-5.62,1.19,-0.85,-0.11,9.48,-0.03,0.00,0.00,10.38,4.50,-34.19
1765366837.59,0,1019.30,-50.24,198.31,-5.62,1.44,-0.84,-0.19,9.44,-0.04,-0.00,0.00,9.38,5.19,-34.56
1765366837.70,0,1019.30,-50.25,198.31,-5.62,1.62,-0.85,-0.23,9.45,-0.01,0.00,-0.00,10.38,3.00,-33.69
1765366837.82,0,1019.30,-50.26,198.31,-5.62,1.62,-0.84,-0.20,9.46,-0.00,0.00,-0.00,8.19,4.19,-33.69
1765366837.93,0,1019.30,-50.26,198.31,-5.62,1.62,-0.85,-0.22,9.47,0.02,0.00,0.00,9.38,4.88,-33.69
1765366838.05,0,1019.30,-50.25,198.31,-5.62,1.50,-0.84,-0.17,9.47,0.00,0.00,-0.00,10.00,3.75,-33.69
1765366838.16,0,1019.30,-50.24,198.31,-5.62,1.56,-0.88,-0.23,9.46,-0.02,0.00,-0.00,9.38,4.88,-34.56
1765366838.28,0,1019.30,-50.24,198.25,-5.62,1.69,-0.86,-0.22,9.45,-0.00,-0.00,-0.00,9.69,4.19,-34.19
1765366838.39,0,1019.30,-50.22,198.25,-5.62,1.69,-0.84,-0.20,9.50,0.01,0.00,0.00,10.75,3.75,-33.25
1765366838.51,0,1019.30,-50.23,198.25,-5.62,1.69,-0.86,-0.21,9.46,-0.02,0.00,-0.00,9.69,4.88,-34.56
1765366838.62,0,1019.30,-50.24,198.25,-5.62,1.81,-0.83,-0.26,9.42,-0.01,0.00,-0.00,10.00,4.19,-35.38
1765366838.74,0,1019.30,-50.24,198.25,-5.62,1.81,-0.84,-0.25,9.43,0.00,-0.00,0.00,8.56,5.19,-34.56
1765366838.85,0,1019.30,-50.25,198.25,-5.62,1.81,-0.86,-0.24,9.49,-0.01,0.00,0.00,9.69,4.19,-35.06
1765366838.97,0,1019.30,-50.25,198.25,-5.62,1.81,-0.82,-0.28,9.47,0.00,0.00,0.00,10.75,4.88,-32.50
1765366839.08,0,1019.30,-50.27,198.25,-5.62,1.81,-0.83,-0.25,9.44,0.01,0.00,0.00,9.69,4.50,-33.75
1765366839.19,0,1019.30,-50.27,198.25,-5.62,1.81,-0.84,-0.26,9.49,-0.00,0.00,-0.00,9.38,3.75,-33.69
1765366839.31,0,1019.30,-50.26,198.25,-5.62,1.81,-0.84,-0.26,9.47,0.01,0.00,0.00,8.56,5.56,-34.56
1765366839.43,0,1019.30,-50.25,198.25,-5.62,1.75,-0.83,-0.21,9.44,0.01,-0.00,0.00,9.38,4.50,-33.25
1765366839.54,0,1019.30,-50.26,198.25,-5.62,1.75,-0.85,-0.22,9.45,0.01,-0.00,-0.00,9.00,4.50,-32.88
1765366839.66,0,1019.30,-50.26,198.25,-5.62,1.75,-0.84,-0.22,9.46,-0.01,-0.00,0.00,9.69,3.75,-34.19
1765366839.77,0,1019.30,-50.25,198.25,-5.62,1.81,-0.86,-0.24,9.48,0.00,0.00,0.00,9.69,4.50,-32.50
1765366839.90,0,1019.30,-50.26,198.25,-5.62,1.81,-0.86,-0.21,9.46,0.00,-0.00,0.00,10.75,3.00,-34.19
1765366840.02,0,1019.30,-50.25,198.25,-5.62,1.88,-0.86,-0.26,9.48,-0.02,-0.00,0.00,10.38,4.19,-34.56
1765366840.14,0,1019.30,-50.25,198.25,-5.62,1.88,-0.85,-0.27,9.50,0.02,-0.00,0.00,9.69,3.75,-33.25
1765366840.26,0,1019.30,-50.25,198.25,-5.62,1.75,-0.86,-0.23,9.45,0.01,-0.00,0.00,10.00,3.38,-34.19
1765366840.38,0,1019.30,-50.25,198.25,-5.62,1.75,-0.83,-0.22,9.45,-0.02,-0.00,0.00,9.69,2.69,-34.19
1765366840.50,0,1019.30,-50.26,198.25,-5.62,1.88,-0.81,-0.26,9.43,-0.01,-0.00,-0.00,11.88,3.00,-34.19
1765366840.61,0,1019.30,-50.26,198.25,-5.62,1.94,-0.84,-0.22,9.47,0.00,-0.00,-0.00,9.00,3.75,-35.00
1765366840.73,0,1019.30,-50.24,198.25,-5.62,1.94,-0.83,-0.28,9.48,-0.01,-0.00,-0.00,9.38,4.88,-33.69
1765366840.84,0,1019.30,-50.25,198.25,-5.62,1.94,-0.86,-0.23,9.46,-0.01,0.00,-0.00,8.56,4.88,-34.19
1765366840.96,0,1019.30,-50.24,198.25,-5.62,2.06,-0.86,-0.26,9.48,-0.03,0.00,-0.00,10.00,3.38,-34.19
1765366841.07,0,1019.30,-50.26,198.25,-5.62,2.19,-0.83,-0.33,9.43,-0.00,-0.00,0.00,9.69,4.19,-33.25
1765366841.19,0,1019.30,-50.26,198.25,-5.62,2.06,-0.85,-0.25,9.50,0.02,-0.00,0.00,8.56,4.50,-36.19
1765366841.30,0,1019.30,-50.24,198.25,-5.62,2.00,-0.84,-0.25,9.43,0.00,0.00,0.00,9.38,4.19,-33.25
1765366841.42,0,1019.30,-50.25,198.25,-5.62,1.94,-0.84,-0.27,9.44,0.02,0.00,-0.00,10.38,3.00,-34.56
1765366841.54,0,1019.30,-50.27,198.25,-5.62,1.75,-0.89,-0.21,9.50,0.03,0.00,-0.00,10.00,4.19,-33.69
1765366841.65,0,1019.30,-50.28,198.25,-5.62,1.69,-0.85,-0.19,9.50,0.01,0.00,0.00,10.00,4.19,-34.19
1765366841.77,0,1019.30,-50.27,198.25,-5.62,1.69,-0.83,-0.17,9.46,0.00,-0.00,0.00,10.38,4.19,-33.25
1765366841.88,0,1019.30,-50.25,198.25,-13.62,1.69,-0.86,-0.20,9.44,0.01,0.00,0.00,8.56,3.75,-34.19
1765366842.00,0,1019.30,-50.26,198.31,-5.62,1.62,-0.85,-0.15,9.42,0.01,0.00,0.00,9.38,5.56,-33.69
1765366842.11,0,1019.30,-50.27,198.31,-5.62,1.62,-0.85,-0.18,9.46,-0.00,-0.00,-0.00,10.00,3.75,-33.69
1765366842.23,0,1019.30,-50.27,198.31,-5.62,1.62,-0.86,-0.19,9.47,0.01,-0.00,0.00,9.69,4.50,-34.56
1765366842.34,0,1019.30,-50.27,198.31,-5.62,1.44,-0.84,-0.11,9.44,0.03,-0.00,0.00,9.69,3.38,-33.69
1765366842.46,0,1019.30,-50.26,198.31,-5.62,1.38,-0.85,-0.09,9.50,0.00,0.00,-0.00,9.69,3.38,-33.25
1765366842.57,0,1019.30,-50.25,198.31,-5.62,1.44,-0.85,-0.13,9.45,-0.02,-0.00,-0.00,11.19,4.19,-34.19
1765366842.68,0,1019.30,-50.24,198.31,-5.62,1.50,-0.85,-0.19,9.56,-0.01,-0.00,0.00,9.69,4.50,-32.88
1765366842.80,0,1019.30,-50.25,198.31,-5.62,1.31,-0.89,-0.06,9.44,0.07,0.00,0.00,9.38,3.38,-33.69
1765366842.91,0,1019.30,-50.24,198.31,-5.62,1.06,-0.81,-0.01,9.50,0.02,-0.00,-0.00,10.00,3.00,-33.25
1765366843.03,0,1019.30,-50.25,198.31,-5.62,1.06,-0.83,-0.07,9.52,-0.01,-0.00,0.00,9.38,2.69,-34.56
1765366843.15,0,1019.30,-50.24,198.31,-5.62,0.94,-0.85,-0.05,9.45,0.05,0.00,0.00,9.00,4.50,-34.19
1765366843.26,0,1019.30,-50.24,198.31,-5.62,0.62,-0.83,0.09,9.42,0.03,0.00,-0.00,10.00,4.50,-34.19
1765366843.38,0,1019.30,-50.24,198.31,-5.62,0.88,-0.87,0.04,9.50,-0.11,-0.00,0.00,9.38,4.50,-34.06
1765366843.49,0,1019.30,-50.23,198.31,-5.62,1.88,-0.83,-0.22,9.48,-0.18,-0.01,-0.02,10.38,3.75,-33.25
1765366843.61,0,1019.30,-50.23,198.44,-5.62,2.88,-0.86,-0.34,9.47,-0.13,-0.00,-0.02,9.00,3.75,-33.69
1765366843.72,0,1019.30,-50.25,198.56,-5.62,3.62,-0.85,-0.49,9.41,-0.11,-0.00,-0.03,8.56,3.75,-33.69
1765366843.84,0,1019.30,-50.25,198.62,-5.62,4.12,-0.83,-0.63,9.45,-0.01,-0.00,-0.00,7.88,2.69,-34.56
1765366843.95,0,1019.30,-50.27,198.62,-5.62,3.94,-0.83,-0.49,9.43,0.03,0.00,0.00,6.69,2.69,-34.88
1765366844.06,0,1019.30,-50.26,198.62,-5.62,3.94,-0.85,-0.55,9.44,-0.00,0.00,0.00,9.00,3.38,-35.25
1765366844.18,0,1019.30,-50.26,198.62,-5.62,3.94,-0.85,-0.54,9.51,0.00,-0.00,0.00,8.56,3.75,-33.69
1765366844.30,0,1019.30,-50.26,198.62,-5.62,3.88,-0.85,-0.50,9.45,-0.00,-0.00,0.00,7.50,3.38,-34.06
1765366844.41,0,1019.30,-50.26,198.62,-5.62,3.88,-0.81,-0.50,9.49,-0.01,0.00,0.00,8.19,2.69,-35.75
1765366844.53,0,1019.30,-50.26,198.62,-5.62,4.00,-0.85,-0.53,9.43,-0.02,0.00,-0.00,7.50,3.38,-34.06
1765366844.64,0,1019.30,-50.28,198.62,-5.62,4.12,-0.85,-0.58,9.41,-0.01,0.00,-0.00,8.56,3.00,-35.25
1765366844.76,0,1019.30,-50.29,198.62,-5.62,4.06,-0.86,-0.52,9.46,0.01,0.00,-0.00,7.88,4.19,-35.25
1765366844.87,0,1019.30,-50.28,198.62,-5.62,4.06,-0.83,-0.53,9.48,-0.02,0.00,0.00,7.50,3.75,-35.75
1765366844.99,0,1019.30,-50.28,198.62,-5.62,4.19,-0.84,-0.55,9.51,-0.02,0.00,0.00,7.88,1.56,-35.25
1765366845.11,0,1019.30,-50.29,198.62,-5.62,4.31,-0.86,-0.59,9.44,-0.01,0.00,0.00,7.06,4.88,-34.88
1765366845.22,0,1019.30,-50.29,198.62,-5.62,4.31,-0.85,-0.59,9.44,-0.01,-0.00,-0.00,7.06,3.75,-36.06
1765366845.34,0,1019.30,-50.28,198.62,-5.62,4.38,-0.84,-0.60,9.48,-0.01,0.14,0.00,8.56,2.25,-35.69
1765366845.46,0,1019.30,-50.28,198.62,-5.62,4.38,-0.85,-0.62,9.42,0.00,-0.00,0.00,8.56,4.19,-42.88
1765366845.58,0,1019.30,-50.27,198.62,-5.62,4.38,-0.81,-0.60,9.46,0.00,-0.00,0.00,7.06,4.19,-34.88
1765366845.70,0,1019.30,-50.27,198.62,-5.62,4.31,-0.87,-0.56,9.43,0.02,-0.00,0.00,7.88,3.75,-35.69
1765366845.81,0,1019.30,-50.28,198.62,-5.62,4.31,-0.84,-0.58,9.44,-0.01,-0.00,0.00,8.19,3.38,-35.25
1765366845.93,0,1019.30,-50.28,198.62,-5.62,4.31,-0.83,-0.58,9.45,0.01,0.00,0.00,7.50,3.00,-35.25
1765366846.05,0,1019.30,-50.29,198.62,-5.62,4.31,-0.84,-0.57,9.42,-0.01,-0.00,0.00,10.00,2.25,-34.50
1765366846.17,0,1019.30,-50.27,198.62,-5.62,4.38,-0.83,-0.62,9.47,-0.00,0.00,0.00,9.38,3.75,-35.75
1765366846.29,0,1019.30,-50.27,198.62,-5.62,4.25,-0.85,-0.56,9.48,0.02,0.00,0.00,7.88,3.00,-34.50
1765366846.40,0,1019.30,-50.27,198.62,-5.62,4.25,-0.85,-0.56,9.45,-0.01,0.00,0.00,8.19,3.38,-35.25
1765366846.52,0,1019.30,-50.29,198.62,-5.62,4.25,-0.81,-0.60,9.40,0.00,-0.00,0.00,7.50,3.38,-35.25
1765366846.63,0,1019.30,-50.29,198.62,-5.62,4.25,-0.84,-0.56,9.42,0.00,0.00,0.00,6.00,3.75,-35.25
1765366846.75,0,1019.30,-50.29,198.62,-5.62,4.25,-0.86,-0.56,9.47,0.00,0.00,0.00,9.00,3.38,-35.25
1765366846.86,0,1019.30,-50.28,198.62,-5.62,4.25,-0.84,-0.57,9.47,-0.00,-0.00,0.00,7.50,3.38,-34.88
1765366846.98,0,1019.30,-50.28,198.62,-5.62,4.25,-0.83,-0.59,9.46,0.01,-0.00,0.00,7.88,4.19,-34.88
1765366847.09,0,1019.30,-50.28,198.62,-5.62,4.25,-0.87,-0.58,9.42,-0.00,0.00,0.00,9.00,3.75,-35.75
1765366847.21,0,1019.30,-50.28,198.62,-5.62,4.25,-0.84,-0.58,9.46,-0.01,0.00,0.00,7.06,4.19,-34.88
1765366847.32,0,1019.30,-50.28,198.62,-5.62,4.38,-0.85,-0.62,9.48,-0.01,0.00,-0.00,6.38,2.69,-36.06
1765366847.44,0,1019.30,-50.29,198.62,-5.62,4.38,-0.83,-0.61,9.46,0.00,0.00,-0.00,8.19,3.75,-34.88
1765366847.55,0,1019.30,-50.29,198.62,-5.62,4.38,-0.85,-0.60,9.46,0.01,-0.00,0.00,8.56,4.50,-34.88
1765366847.67,0,1019.30,-50.29,198.62,-5.62,4.38,-0.84,-0.59,9.46,-0.01,0.00,0.00,8.56,3.75,-35.25
1765366847.78,0,1019.30,-50.29,198.62,-5.62,-2043.56,-0.83,-0.65,9.43,-0.01,0.00,-0.00,7.88,3.38,-36.06
1765366847.90,0,1019.31,-50.30,198.62,-5.62,4.44,-0.85,-0.63,9.43,0.01,-0.00,-0.00,8.19,2.69,-34.75
1765366848.01,0,1019.30,-50.29,198.62,-5.62,4.38,-0.84,-0.58,9.48,0.00,-0.00,0.00,7.50,4.19,-36.06
1765366848.13,0,1019.30,-50.28,198.62,-5.62,4.44,-0.84,-0.63,9.46,-0.01,0.00,-0.00,7.88,3.75,-35.75
1765366848.25,0,1019.30,-50.29,198.62,-5.62,4.44,-0.86,-0.62,9.44,0.00,0.00,-0.00,7.88,4.19,-37.00
1765366848.36,0,1019.30,-50.28,198.62,-5.62,4.44,-0.80,-0.62,9.43,0.00,-0.00,0.00,7.88,3.75,-35.75
1765366848.48,0,1019.30,-50.28,198.62,-5.62,4.44,-0.85,-0.61,9.42,-0.00,-0.00,0.00,6.38,4.19,-36.06
1765366848.60,0,1019.30,-50.28,198.62,-5.62,4.44,-0.85,-0.61,9.44,0.00,0.00,-0.00,8.19,4.19,-35.25
1765366848.71,0,1019.30,-50.28,198.62,-5.62,4.44,-0.83,-0.61,9.46,-0.00,0.00,0.00,7.06,4.50,-35.75
1765366848.83,0,1019.30,-50.28,198.62,-5.62,4.44,-0.85,-0.62,9.43,0.00,0.00,0.00,8.19,3.38,-35.75
1765366848.95,0,1019.30,-50.27,198.62,-5.62,4.44,-0.84,-0.63,9.46,-0.00,0.14,0.00,7.88,4.19,-34.88
1765366849.06,0,1019.30,-50.27,198.62,-5.62,4.44,-0.84,-0.64,9.44,0.00,0.00,0.00,7.50,4.50,-35.25
1765366849.18,0,1019.30,-50.27,198.62,-5.62,4.44,-0.86,-0.63,9.48,0.00,-0.00,0.00,7.50,3.75,-35.25
1765366849.30,0,1019.30,-50.28,198.62,-5.62,4.44,-0.85,-0.61,9.41,-0.00,-0.00,0.00,7.88,4.50,-34.88
1765366849.41,0,1019.30,-50.27,198.62,-5.62,4.44,-0.86,-0.63,9.45,-0.00,0.00,-0.00,7.50,3.38,-34.88
1765366849.53,0,1019.30,-50.28,198.62,-5.62,4.44,-0.85,-0.64,9.45,0.00,0.00,0.00,6.38,3.75,-34.88
1765366849.65,0,1019.30,-50.28,198.62,-5.62,4.44,-0.81,-0.62,9.41,-0.00,0.00,0.00,8.56,3.75,-37.00
1765366849.76,0,1019.30,-50.26,198.62,-5.62,4.44,-0.84,-0.64,9.49,0.00,0.00,0.00,7.06,2.69,-34.88
1765366849.88,0,1019.30,-50.28,198.62,-5.62,4.44,-0.83,-0.64,9.46,0.00,-0.00,-0.00,6.38,3.75,-35.25
1765366849.99,0,1019.30,-50.28,198.62,-5.62,4.44,-0.86,-0.65,9.40,0.00,-0.00,0.00,7.88,4.19,-35.25
1765366850.11,0,1019.30,-50.27,198.62,-5.62,4.44,-0.87,-0.62,9.44,0.00,-0.00,-0.00,9.69,3.38,-35.75
1765366850.22,0,1019.30,-50.27,198.62,-5.62,4.44,-0.83,-0.64,9.45,0.00,-0.00,0.00,6.69,3.38,-36.06
1765366850.34,0,1019.30,-50.28,198.62,-5.62,4.44,-0.84,-0.63,9.44,-0.00,-0.00,-0.00,7.88,3.38,-34.50
1765366850.46,0,1019.30,-50.28,198.62,-5.62,4.44,-0.84,-0.64,9.46,-0.00,-0.00,0.00,9.00,3.00,-35.75
1765366850.57,0,1019.30,-50.29,198.62,-5.62,4.44,-0.86,-0.62,9.45,0.00,0.00,0.00,7.06,4.19,-36.56
1765366850.69,0,1019.31,-50.29,198.62,-5.62,4.44,-0.90,-0.67,9.65,-0.00,0.00,-0.00,7.50,3.75,-36.06
1765366850.81,0,1019.30,-50.28,198.62,-5.62,4.44,-0.85,-0.62,9.45,-0.00,0.01,-0.00,6.69,4.19,-34.88
1765366850.93,0,1019.30,-50.28,198.62,-5.62,4.44,-0.83,-0.61,9.42,-0.00,-0.00,0.00,7.88,4.50,-34.50
1765366851.05,0,1019.30,-50.28,198.62,-5.62,4.44,-0.84,-0.62,9.42,-0.00,0.00,0.00,7.50,3.75,-34.50
1765366851.17,0,1019.30,-50.28,198.62,-5.62,4.44,-0.86,-0.65,9.45,-0.00,0.00,0.00,10.00,3.75,-34.50
1765366851.28,0,1019.30,-50.28,198.62,-5.62,4.44,-0.83,-0.64,9.47,0.00,0.00,-0.00,7.06,3.00,-35.25
1765366851.40,0,1019.30,-50.28,198.62,-5.62,4.44,-0.83,-0.64,9.45,0.00,0.00,0.00,8.56,3.38,-35.25
1765366851.52,0,1019.31,-50.29,198.62,-5.62,4.44,-0.84,-0.65,9.46,0.00,-0.00,0.00,8.19,3.38,-34.88
1765366851.64,0,1019.31,-50.30,198.62,-5.62,4.44,-0.85,-0.66,9.46,0.00,-0.00,0.00,8.56,2.69,-34.88
1765366851.76,0,1019.31,-50.30,198.62,-5.62,4.44,-0.83,-0.64,9.45,-0.00,0.00,0.00,9.00,1.88,-35.69
1765366851.88,0,1019.31,-50.29,198.62,-5.62,4.44,-0.83,-0.64,9.44,-0.00,0.00,0.00,8.56,3.38,-34.88
1765366851.99,0,1019.31,-50.29,198.62,-5.62,4.44,-0.84,-0.62,9.48,0.00,0.00,-0.00,7.50,3.38,-35.75
1765366852.11,0,1019.31,-50.29,198.62,-5.62,4.44,-0.84,-0.63,9.42,-0.00,0.00,0.00,7.50,3.00,-36.06
1765366852.23,0,1019.31,-50.30,198.62,-5.62,4.44,-0.86,-0.63,9.43,0.00,0.00,-0.00,8.19,3.75,-36.56
1765366852.34,0,1019.31,-50.30,198.62,-5.62,4.44,-0.84,-0.62,9.43,0.00,0.00,-0.00,7.50,3.75,-35.25
1765366852.46,0,1019.31,-50.30,198.62,-5.62,4.44,-0.84,-0.63,9.44,0.00,0.00,-0.00,8.19,3.00,-35.25
1765366852.57,0,1019.31,-50.31,198.62,-5.62,4.44,-0.86,-0.62,9.48,-0.00,0.00,-0.00,7.06,3.00,-35.69
1765366852.69,0,1019.31,-50.30,198.62,-5.62,4.44,-0.83,-0.64,9.42,0.00,0.00,0.00,8.56,3.38,-34.75
1765366852.81,0,1019.31,-50.29,198.62,-5.62,4.44,-0.84,-0.64,9.41,-0.00,-0.00,0.00,7.50,4.19,-35.75
1765366852.92,0,1019.30,-50.29,198.62,-5.62,4.44,-0.85,-0.65,9.42,-0.00,0.00,0.00,9.00,4.19,-35.69
1765366853.03,0,1019.31,-50.30,198.62,-5.62,4.44,-0.82,-0.62,9.43,0.00,0.00,0.00,7.88,3.75,-35.25
1765366853.15,0,1019.31,-50.30,198.62,-5.62,4.44,-0.84,-0.61,9.45,0.00,-0.00,0.00,6.69,3.38,-36.06
1765366853.27,0,1019.31,-50.29,198.62,-5.62,4.44,-0.84,-0.62,9.45,-0.00,0.00,-0.00,8.56,3.00,-34.88
1765366853.38,0,1019.31,-50.29,198.62,-5.62,4.38,-0.84,-0.60,9.50,0.01,0.00,-0.01,7.06,3.75,-35.75
1765366853.50,0,1019.31,-50.29,198.50,-4.56,3.19,-0.46,-0.12,12.12,0.61,-0.66,0.04,7.88,4.88,-35.75
1765366853.61,0,1019.30,-50.24,198.25,1.12,1.31,0.83,0.34,10.78,-0.29,-0.82,0.04,7.88,1.88,-36.06
1765366853.73,0,1019.30,-50.24,198.12,2.88,4.19,1.13,-0.38,10.26,-0.17,0.34,0.01,4.25,2.25,-39.00
1765366853.84,0,1019.29,-50.16,198.38,-1.75,2.31,-0.04,0.07,10.13,0.47,0.83,-0.04,6.19,4.19,-39.75
1765366853.97,0,1019.29,-50.16,198.75,-4.44,1.75,-0.77,-0.01,10.93,-0.35,-0.32,-0.04,8.75,0.50,-39.25
1765366854.09,0,1019.27,-50.01,198.94,1.19,2.62,0.03,-0.30,8.60,0.23,-1.18,-0.06,8.69,0.06,-39.88
1765366854.21,0,1019.27,-50.01,199.00,8.00,-0.25,-326.72,0.13,7.43,0.39,-0.71,-0.03,5.75,-2.75,-39.38
1765366854.32,0,1019.26,-49.88,199.25,8.12,-0.56,1.13,-0.07,9.29,-0.18,0.62,-0.04,3.50,-6.50,-40.19
1765366854.44,0,1019.24,-49.77,199.56,1.75,-0.88,-0.11,-0.30,9.61,0.36,1.16,-0.07,4.56,-5.00,-38.50
1765366854.56,0,1019.24,-49.77,200.19,-3.06,-4.00,-0.80,0.17,7.94,0.27,0.18,-0.11,7.56,-7.56,-37.25
1765366854.67,0,1019.23,-49.68,200.94,-0.38,-2.62,-0.17,-0.12,8.83,-0.47,-0.96,-0.13,11.56,-8.69,-38.19
1765366854.79,0,1019.23,-49.68,202.06,5.81,-1.00,0.97,-0.17,8.94,0.01,-0.69,-0.17,6.50,-7.25,-40.00
1765366854.90,0,1019.23,-49.65,203.19,5.94,-1.56,1.08,0.22,9.98,-0.14,0.69,-0.20,3.88,-7.56,-38.19
1765366855.02,0,1019.23,-49.65,204.50,-0.69,1.06,-0.34,-0.22,9.43,-0.49,1.05,-0.18,6.38,-6.50,-38.56
1765366855.14,0,1019.22,-49.61,205.81,-4.75,2.19,-0.73,-0.18,8.55,0.15,0.09,-0.20,12.69,-5.38,-35.69
1765366855.26,0,1019.22,-49.58,207.00,-1.62,1.44,-0.05,0.11,9.61,-0.08,-0.94,-0.20,11.56,-5.25,-36.56
1765366855.37,0,1019.22,-49.58,208.38,4.12,2.88,1.02,-0.14,9.09,-0.19,-0.47,-0.22,8.69,-4.88,-37.38
1765366855.49,0,1019.22,-49.58,210.00,3.62,2.44,0.77,-0.07,8.80,0.19,0.63,-0.26,7.88,-5.25,-37.38
1765366855.60,0,1019.22,-49.57,211.69,-1.44,2.38,-0.35,-0.01,9.51,-0.21,0.77,-0.27,9.38,-5.25,-36.88
1765366855.72,0,1019.22,-49.55,213.56,-3.31,3.44,-0.66,-0.20,9.70,0.02,-0.37,-0.28,13.00,-3.88,-36.50
1765366855.84,0,1019.22,-49.55,215.31,1.94,2.31,0.32,0.06,9.57,0.16,-1.03,-0.29,10.38,-3.50,-36.00
1765366855.96,0,1019.22,-49.56,217.06,6.50,2.56,1.24,-0.21,9.30,-0.24,-0.18,-0.30,8.19,-3.88,-38.19
1765366856.08,0,1019.22,-49.55,219.25,3.94,0.31,0.49,-0.17,8.28,1.03,0.85,-0.40,7.06,-3.88,-38.19
1765366856.19,0,1019.22,-49.55,221.94,-2.19,-2.94,-0.04,1.09,9.65,-0.69,0.85,-0.45,11.19,-6.50,-36.00
1765366856.31,0,1019.21,-49.54,224.38,-5.25,6.94,-0.70,-1.20,9.68,-0.93,0.02,-0.42,12.69,-4.25,-36.38
1765366856.43,0,1019.21,-49.54,227.06,-1.50,2.44,-0.26,0.24,9.68,1.84,-1.10,-0.45,18.06,3.50,-31.19
1765366856.54,0,1019.22,-49.55,230.00,6.69,-0.69,0.92,1.15,9.77,-1.07,-1.16,-0.43,10.88,-5.06,-36.88
1765366856.66,0,1019.22,-49.56,234.00,10.38,11.19,1.13,-1.23,9.16,-1.25,0.16,-0.56,5.50,-0.69,-40.00
1765366856.77,0,1019.21,-49.54,238.38,6.94,8.38,0.26,-0.58,9.02,1.70,0.97,-0.68,11.25,8.56,-33.56
1765366856.89,0,1019.21,-49.54,242.75,2.56,0.62,-0.37,1.08,11.74,-0.49,0.36,-0.76,12.50,0.00,-35.38
1765366857.01,0,1019.21,-49.53,247.94,3.06,8.56,0.05,-1.18,11.71,-0.66,-0.33,-0.78,11.50,2.00,-37.56
1765366857.12,0,1019.20,-49.41,253.06,5.94,4.00,0.65,0.24,12.90,1.21,-0.24,-0.83,16.75,7.75,-34.75
1765366857.24,0,1019.20,-49.41,257.94,6.44,1.12,0.36,0.07,11.55,-0.31,0.10,-0.82,9.38,0.38,-40.00
1765366857.36,0,1019.17,-49.20,263.50,6.12,1.00,-0.09,-0.58,8.14,0.79,-0.05,-0.85,12.19,2.69,-40.75
1765366857.48,0,1019.18,-49.21,268.75,7.19,-7.12,-0.04,0.08,5.62,1.11,-0.36,-0.83,13.88,2.19,-40.38
1765366857.60,0,1019.15,-49.03,274.06,8.88,-12.06,0.41,0.31,6.79,0.00,35.38,-0.78,12.25,-5.00,-43.38
1765366857.71,0,1019.15,-49.03,279.06,8.44,-9.88,0.88,-0.15,8.65,-0.62,0.32,-0.76,12.19,-3.50,-46.38
1765366857.83,0,1019.14,-48.93,283.81,2.81,-7.00,0.36,0.11,9.21,-0.50,1.07,-0.72,13.25,0.88,-45.88
1765366857.94,0,1019.14,-48.94,287.62,-3.50,-1.56,-0.57,-0.05,7.38,-1.21,0.71,-0.62,22.75,5.56,-43.50
1765366858.06,0,1019.14,-48.88,291.25,-4.44,5.56,-0.70,-0.48,8.38,-0.60,-0.46,-0.57,24.50,11.19,-43.25
1765366858.17,0,1019.14,-48.90,294.38,1.56,6.06,0.32,-0.04,9.58,-35.47,-1.18,-0.55,24.69,15.69,-43.69
1765366858.29,0,1019.14,-48.89,297.56,8.06,5.12,1.00,0.15,7.63,-0.18,-0.54,-0.51,20.00,16.88,-47.19
1765366858.40,0,1019.14,-48.93,300.81,8.19,7.50,0.44,-0.12,6.60,-0.58,0.44,-0.47,18.56,19.00,-46.19
1765366858.51,0,1019.14,-48.94,303.94,5.25,9.31,-0.45,-0.44,9.68,0.08,0.40,-0.43,19.38,23.50,-42.25
1765366858.63,0,1019.16,-49.07,306.56,5.94,5.62,-0.39,-0.09,8.82,0.81,-0.50,-0.39,21.56,23.25,-41.88
1765366858.74,0,1019.16,-49.07,308.31,2.31,1.25,1.05,0.34,10.71,0.40,-0.64,-0.32,20.25,22.88,-40.69
1765366858.85,0,1019.17,-49.21,310.25,10.00,2.56,1.53,0.08,9.61,-0.75,0.80,-0.27,14.75,21.50,-41.00
1765366858.97,0,1019.17,-49.21,312.31,0.94,5.56,-0.19,-0.63,10.70,0.17,1.83,-0.23,20.19,24.00,-36.75
1765366859.08,0,1019.19,-49.36,314.62,-7.38,0.81,-1.42,0.15,10.11,0.89,0.40,-0.28,24.06,25.88,-33.06
1765366859.20,0,1019.19,-49.35,316.31,-3.69,-1.56,-0.28,0.02,8.22,-0.01,-1.27,-0.22,22.75,21.06,-36.88
1765366859.31,0,1019.20,-49.46,317.75,4.06,-2.56,1.13,0.06,9.00,0.36,-0.83,-0.18,19.06,21.38,-38.50
1765366859.43,0,1019.21,-49.53,318.81,5.00,-2.75,0.08,0.19,4.56,-0.49,0.37,-0.14,16.19,20.38,-39.38
1765366859.54,0,1019.21,-49.53,319.62,1.38,10.62,-0.32,-1.00,7.88,-1.57,0.70,0.03,15.75,23.25,-37.75
1765366859.66,0,1019.22,-49.61,319.69,-0.94,7.62,-0.63,-1.07,8.31,2.68,-0.01,0.04,22.38,35.38,-23.88
1765366859.77,0,1019.22,-49.61,319.06,2.56,-5.00,-0.24,1.33,9.69,0.14,-1.09,0.20,20.25,24.50,-34.75
1765366859.88,0,1019.23,-49.70,318.38,10.00,3.50,1.03,-0.77,9.86,-1.71,-0.87,0.18,13.25,19.88,-41.69
1765366860.00,0,1019.23,-49.70,317.19,10.56,2.38,1.14,-0.79,9.59,1.68,0.59,0.14,16.69,31.69,-33.38
1765366860.11,0,1019.25,-49.80,315.56,4.19,-5.50,-0.13,0.96,9.99,-0.08,1.09,0.14,16.50,24.69,-39.56
1765366860.23,0,1019.24,-49.79,314.25,0.44,0.31,-0.95,-0.56,9.97,-0.94,-0.07,0.26,18.38,21.50,-39.88
1765366860.34,0,1019.25,-49.87,312.19,5.00,-1.56,-0.19,-0.18,9.39,1.08,-1.17,0.34,21.38,27.00,-37.00
1765366860.46,0,1019.26,-49.93,309.62,12.06,-5.12,0.96,0.63,8.59,-0.03,-0.86,0.45,16.25,23.38,-43.69
1765366860.57,0,1019.26,-49.93,307.38,12.88,0.44,1.33,-0.34,9.99,-0.79,0.71,0.50,15.25,22.19,-43.19
1765366860.69,0,1019.27,-49.98,304.12,5.19,0.06,-0.17,-0.13,10.22,0.73,1.31,0.49,19.38,25.56,-39.00
1765366860.80,0,1019.27,-49.98,300.88,0.31,-1.25,-0.96,0.39,9.48,-0.46,0.07,0.56,28.50,22.75,-37.38
1765366860.91,0,1019.27,-50.01,297.00,4.19,3.00,-0.07,-0.53,9.69,-0.34,-1.04,0.59,28.38,22.75,-36.69
1765366861.03,0,1019.27,-50.02,292.94,9.50,1.00,1.16,0.13,9.10,0.69,-0.45,0.66,27.56,20.25,-40.00
1765366861.15,0,1019.28,-50.07,288.12,8.25,-0.62,1.01,0.48,9.62,-0.09,0.78,0.70,26.88,18.19,-42.38
1765366861.26,0,1019.28,-50.06,283.81,1.38,2.25,-0.14,-0.33,10.51,-0.30,1.17,0.77,31.25,14.19,-38.25
1765366861.37,0,1019.28,-50.09,279.19,-3.19,0.94,-0.91,0.02,10.13,0.42,0.10,0.79,36.88,15.00,-33.56
1765366861.49,0,1019.28,-50.11,273.75,0.00,-0.25,-0.11,0.14,9.63,-0.20,-0.93,0.84,38.69,8.69,-33.25
1765366861.60,0,1019.28,-50.10,268.62,5.12,1.44,0.97,-0.28,9.48,0.03,-0.49,0.84,35.00,5.00,-38.38
1765366861.72,0,1019.28,-50.11,262.94,4.25,-0.25,0.91,0.13,9.74,0.47,0.73,0.84,33.69,2.06,-39.19
1765366861.83,0,1019.28,-50.10,257.75,-1.62,-0.75,-0.32,0.18,9.25,-0.33,0.93,0.86,36.88,-2.69,-37.06
1765366861.95,0,1019.28,-50.10,252.31,-4.56,1.25,-0.86,-0.30,9.36,-0.21,-0.18,0.89,39.06,-3.00,-33.25
1765366862.06,0,1019.28,-50.10,246.25,0.06,0.19,-0.01,0.00,9.60,0.33,-1.12,0.92,38.25,-8.00,-35.25
1765366862.17,0,1019.28,-50.11,240.50,6.12,-0.06,1.14,0.15,9.73,-0.19,-0.57,0.94,35.25,-11.88,-39.50
1765366862.29,0,1019.28,-50.11,234.38,5.50,1.75,0.91,-0.20,9.61,0.02,0.69,0.93,32.00,-14.38,-41.50
1765366862.41,0,1019.28,-50.09,228.88,-0.44,0.81,-0.45,0.17,9.27,0.11,0.90,0.91,32.25,-18.19,-37.69
1765366862.52,0,1019.28,-50.10,222.69,-3.31,2.00,-0.70,-0.02,8.64,-0.50,-0.14,0.93,33.38,-21.56,-35.50
1765366862.64,0,1019.28,-50.11,216.38,0.62,3.75,0.19,-0.27,9.44,0.04,-0.92,0.92,32.06,-22.69,-38.38
1765366862.84,0,1019.28,-50.08,206.06,3.00,2.12,0.69,0.10,9.45,-0.22,0.70,0.92,21.69,-28.00,-41.00
1765366862.96,0,1019.28,-50.08,200.06,-2.75,3.62,-0.48,-0.17,8.67,-0.05,0.71,0.93,22.88,-30.25,-40.06
1765366863.09,0,1019.28,-50.10,193.38,-4.62,2.19,-0.59,0.02,9.13,0.12,-0.34,0.94,20.75,-32.69,-38.88
1765366863.21,0,1019.28,-50.12,187.56,-0.31,2.00,0.39,-0.07,9.85,-0.10,-0.91,0.95,15.69,-35.69,-38.50
1765366863.32,0,1019.28,-50.11,181.19,3.56,1.88,1.03,-0.14,9.77,0.31,-0.09,0.93,8.56,-36.69,-39.25
1765366863.44,0,1019.28,-50.12,175.00,1.06,-0.19,0.34,0.18,9.41,0.21,0.79,0.91,4.56,-37.00,-38.88
1765366863.56,0,1019.28,-50.11,168.88,-3.50,-0.12,-0.53,-0.06,9.39,-0.18,0.44,0.92,2.25,-37.50,-37.19
1765366863.68,0,1019.28,-50.11,162.75,-2.62,-0.44,-0.45,-0.15,9.49,0.26,-0.68,0.92,-0.69,-37.19,-36.75
1765366863.80,0,1019.28,-50.11,156.75,3.00,-2.25,0.59,0.13,9.52,0.17,-0.80,0.92,-8.75,-37.69,-35.38
1765366863.92,0,1019.28,-50.10,151.25,5.62,-1.81,0.96,-0.08,9.38,-0.00,0.14,0.89,-13.50,-37.00,-34.06
1765366864.04,0,1019.28,-50.10,145.31,2.19,-2.00,0.12,0.03,9.27,0.22,0.83,0.85,-16.88,-35.88,-34.06
1765366864.16,0,1019.28,-50.10,139.62,-2.00,-2.38,-0.59,0.09,9.68,-0.25,0.25,0.83,-17.25,-34.38,-35.50
1765366864.27,0,1019.28,-50.11,134.12,-0.31,-0.69,-0.16,-0.24,9.68,-0.08,-0.66,0.81,-20.56,-31.75,-36.69
1765366864.39,0,1019.28,-50.10,128.88,4.38,-1.94,0.82,0.07,9.14,0.32,-0.50,0.78,-23.56,-31.38,-34.56
1765366864.51,0,1019.28,-50.10,124.12,4.56,-2.12,0.89,0.11,9.36,-0.11,0.46,0.75,-30.56,-28.88,-33.75
1765366864.62,0,1019.28,-50.10,119.25,-0.75,-0.75,-0.06,-0.17,9.49,-0.06,0.95,0.71,-31.19,-27.06,-35.00
1765366864.74,0,1019.28,-50.10,115.00,-4.62,-1.62,-0.63,0.04,9.46,0.16,0.17,0.67,-29.00,-25.19,-38.75
1765366864.86,0,1019.28,-50.10,110.62,-2.38,-1.56,-0.07,0.00,9.56,-0.23,-0.70,0.64,-31.56,-23.75,-39.19
1765366864.98,0,1019.28,-50.12,106.62,1.88,-0.88,0.82,-0.17,9.30,0.14,-0.41,0.58,-34.38,-21.50,-37.06
1765366865.09,0,1019.29,-50.13,103.25,2.00,-2.12,0.68,0.17,9.14,0.18,0.55,0.52,-36.56,-19.69,-35.88
1765366865.21,0,1019.29,-50.12,99.81,-2.69,-1.62,-0.29,-0.05,9.72,-0.26,0.76,0.48,-35.19,-18.19,-36.25
1765366865.32,0,1019.29,-50.13,96.94,-4.62,-1.00,-0.63,-0.18,9.76,0.10,-0.11,0.44,-32.56,-14.75,-40.50
1765366865.44,0,1019.29,-50.15,94.25,-0.31,-2.25,0.12,0.14,9.53,0.09,-0.91,0.41,-35.50,-14.50,-37.50
1765366865.56,0,1019.29,-50.14,92.06,4.25,-1.31,1.01,-0.09,9.66,-0.21,-0.35,0.34,-36.50,-13.25,-34.56
1765366865.67,0,1019.29,-50.15,90.00,3.31,-0.88,0.64,-0.07,9.59,0.20,0.62,0.27,-38.75,-10.75,-34.50
1765366865.78,0,1019.29,-50.15,88.50,-1.19,-1.88,-0.46,0.11,9.62,-0.05,0.58,0.20,-38.38,-10.25,-36.19
1765366865.90,0,1019.29,-50.15,87.25,-2.00,-0.38,-0.56,-0.16,9.03,-0.27,-0.37,0.16,-35.88,-8.50,-37.88
1765366866.01,0,1019.29,-50.14,86.44,2.50,-0.31,0.31,-0.07,10.13,0.23,-0.94,0.10,-33.25,-6.69,-35.75
1765366866.13,0,1019.28,-50.12,86.00,6.81,-1.31,1.00,0.19,9.87,-0.05,-0.30,0.05,-38.06,-7.38,-32.38
1765366866.24,0,1019.28,-50.12,85.94,5.06,-0.12,0.51,-0.17,9.44,-0.10,0.64,-0.02,-39.19,-7.00,-31.38
1765366866.36,0,1019.28,-50.11,86.25,0.75,-1.12,-0.33,-0.09,8.48,0.33,0.55,-0.09,-38.06,-7.69,-33.88
1765366866.47,0,1019.28,-50.10,87.00,-0.06,-2.25,-0.50,0.14,9.27,-0.12,-0.31,-0.12,-34.06,-8.50,-36.06
1765366866.58,0,1019.28,-50.10,87.94,3.31,-0.44,0.36,-0.13,9.40,-0.29,-0.65,-0.17,-35.50,-9.19,-35.19
1765366866.70,0,1019.28,-50.09,89.25,5.44,-0.31,0.92,-0.06,9.60,0.23,0.11,-0.24,-37.38,-7.69,-32.25
1765366866.81,0,1019.28,-50.08,90.94,1.94,-1.31,0.36,0.17,9.53,-0.09,0.82,-0.29,-37.75,-9.88,-32.25
1765366866.93,0,1019.28,-50.08,92.69,-2.69,0.31,-0.47,-0.19,9.50,-0.23,0.57,-0.31,-32.88,-9.50,-38.19
1765366867.04,0,1019.28,-50.08,94.75,-3.12,0.00,-0.45,-0.06,9.31,0.35,-0.43,-0.35,-33.25,-11.00,-39.06
1765366867.15,0,1019.28,-50.06,97.25,1.12,-1.50,0.42,0.20,9.35,0.00,-0.73,-0.38,-33.38,-12.75,-37.25
1765366867.27,0,1019.28,-50.07,99.81,3.62,-0.31,0.90,-0.10,9.55,-0.21,0.04,-0.43,-36.00,-15.69,-34.75
1765366867.38,0,1019.28,-50.06,102.81,1.00,-0.38,0.32,-0.05,9.56,0.18,0.70,-0.48,-34.19,-16.38,-35.19
1765366867.50,0,1019.28,-50.07,105.88,-2.75,-0.75,-0.49,0.04,9.04,-0.15,0.33,-0.51,-32.88,-17.88,-37.25
1765366867.62,0,1019.28,-50.06,109.31,-2.06,0.69,-0.39,-0.22,9.16,-0.11,-0.53,-0.54,-29.38,-18.56,-38.06
1765366867.73,0,1019.28,-50.04,112.69,2.31,-0.19,0.46,0.01,9.49,0.29,-0.75,-0.56,-29.38,-21.19,-36.50
1765366867.84,0,1019.28,-50.05,116.19,4.81,-0.88,0.89,0.17,9.60,-0.27,0.05,-0.58,-31.50,-22.69,-35.25
1765366867.96,0,1019.28,-50.05,120.25,1.88,1.00,0.28,-0.24,9.58,-0.18,0.72,-0.61,-29.56,-23.75,-34.00
1765366868.07,0,1019.28,-50.06,124.12,-1.81,0.12,-0.52,0.01,9.28,0.30,0.31,-0.64,-24.88,-25.56,-37.75
1765366868.19,0,1019.28,-50.07,128.44,-1.00,-0.31,-0.33,0.10,9.37,-0.16,-0.57,-0.64,-22.25,-27.75,-36.50
1765366868.31,0,1019.28,-50.07,132.81,3.75,0.81,0.55,-0.19,9.50,-0.06,-0.67,-0.67,-23.38,-29.00,-36.50
1765366868.42,0,1019.28,-50.07,136.94,5.44,-0.38,0.83,0.06,9.21,0.21,0.13,-0.70,-21.56,-30.50,-34.38
1765366868.54,0,1019.28,-50.06,141.69,1.88,-0.50,0.05,0.05,9.79,-0.32,0.71,-0.72,-19.00,-32.56,-34.38
1765366868.67,0,1019.28,-50.07,146.94,-1.44,1.19,-0.55,-0.27,9.55,0.02,0.08,-0.74,-14.06,-33.38,-36.50
1765366868.78,0,1019.28,-50.08,151.44,0.62,-0.25,-0.04,0.11,9.50,0.26,-0.70,-0.75,-11.19,-33.75,-37.75
1765366868.90,0,1019.28,-50.07,156.50,4.94,-0.06,0.80,0.04,9.54,-0.35,-0.37,-0.77,-9.38,-36.69,-35.56
1765366869.02,0,1019.28,-50.08,161.81,4.44,0.75,0.68,-0.16,9.55,0.05,0.50,-0.79,-6.88,-36.75,-36.38
1765366869.14,0,1019.28,-50.07,167.06,-0.06,-0.50,-0.21,0.13,9.28,0.01,0.61,-0.80,-0.88,-36.38,-36.25
1765366869.26,0,1019.28,-50.07,172.31,-1.75,1.00,-0.52,-0.17,9.16,-0.27,-0.25,-0.78,4.19,-36.75,-36.00
1765366869.38,0,1019.28,-50.06,177.50,1.88,0.88,0.22,-0.07,9.57,0.30,-0.73,-0.78,4.56,-34.75,-36.38
1765366869.50,0,1019.28,-50.05,182.62,5.44,-0.44,0.83,0.26,8.98,-0.26,-0.15,-0.77,5.56,-35.56,-36.38
1765366869.62,0,1019.28,-50.06,187.94,3.81,1.94,0.48,-0.25,9.54,-0.38,0.60,-0.77,8.00,-34.06,-37.19
1765366869.74,0,1019.28,-50.07,192.69,0.00,1.56,-0.41,-0.08,9.43,0.38,0.49,-0.78,13.75,-30.75,-37.69
1765366869.86,0,1019.28,-50.08,197.94,-0.62,0.00,-0.41,0.15,9.61,-0.12,-0.44,-0.77,17.19,-31.06,-35.50
1765366869.98,0,1019.28,-50.08,203.00,3.62,1.44,0.42,-0.19,9.72,-0.09,-0.67,-0.78,17.88,-29.25,-38.06
1765366870.09,0,1019.28,-50.08,208.12,6.06,0.00,0.87,0.15,9.52,0.21,0.04,-0.78,18.88,-27.38,-38.06
1765366870.21,0,1019.28,-50.08,213.38,2.94,0.31,0.18,-0.02,9.49,-0.37,0.69,-0.77,20.75,-27.06,-37.69
1765366870.33,0,1019.28,-50.08,218.06,-0.44,1.25,-0.49,-0.27,9.50,0.22,0.29,-0.76,28.06,-22.69,-36.38
1765366870.45,0,1019.28,-50.08,223.06,0.06,-0.94,-0.29,0.22,9.35,0.23,-0.51,-0.73,29.19,-21.19,-35.50
1765366870.56,0,1019.28,-50.09,227.56,3.88,0.00,0.60,-0.07,9.32,-0.43,-0.57,-0.72,29.56,-19.38,-36.75
1765366870.67,0,1019.28,-50.09,232.44,5.38,0.69,0.80,-0.17,9.44,0.17,0.19,-0.72,28.06,-16.38,-39.25
1765366870.79,0,1019.28,-50.08,236.75,2.12,-0.94,0.11,0.21,9.60,0.07,0.69,-0.72,32.06,-14.88,-37.69
1765366870.90,0,1019.28,-50.08,241.00,-1.06,0.44,-0.52,-0.18,9.31,-0.33,0.20,-0.67,32.88,-12.75,-36.00
1765366871.02,0,1019.28,-50.08,245.38,0.06,0.75,-0.20,-0.16,9.23,0.31,-0.56,-0.64,34.19,-8.69,-34.25
1765366871.13,0,1019.28,-50.08,249.12,4.12,-1.06,0.57,0.30,9.28,-0.04,-0.58,-0.60,34.19,-7.25,-38.75
1765366871.25,0,1019.28,-50.08,253.12,5.56,0.81,0.78,-0.22,9.54,-0.42,0.18,-0.57,32.38,-4.69,-39.75
1765366871.36,0,1019.28,-50.08,256.62,2.50,0.56,0.08,-0.13,9.56,0.40,0.66,-0.56,33.50,-2.38,-38.88
1765366871.48,0,1019.28,-50.07,260.25,-0.50,-1.19,-0.51,0.22,9.46,-0.07,0.11,-0.53,36.06,-1.38,-36.25
1765366871.59,0,1019.28,-50.08,263.31,1.06,0.75,-0.08,-0.25,9.42,-0.30,-0.60,-0.48,37.19,1.56,-36.00
1765366871.70,0,1019.28,-50.08,266.12,5.00,0.06,0.67,-0.03,9.55,0.37,-0.47,-0.45,34.88,3.00,-37.69
1765366871.82,0,1019.28,-50.08,268.94,5.56,-1.25,0.71,0.21,9.43,-0.18,0.29,-0.41,31.88,4.00,-39.25
1765366871.93,0,1019.28,-50.08,271.38,2.06,0.75,0.02,-0.26,9.36,-0.24,0.66,-0.36,34.50,6.25,-37.25
1765366872.05,0,1019.28,-50.09,273.44,-0.81,0.31,-0.52,-0.03,9.40,0.33,0.12,-0.32,34.88,7.69,-35.00
1765366872.16,0,1019.28,-50.09,275.44,0.69,-0.62,-0.06,0.13,9.51,-0.13,-0.58,-0.26,36.00,7.75,-34.19
1765366872.28,0,1019.28,-50.09,277.06,4.62,0.88,0.73,-0.20,9.51,-0.11,-0.42,-0.23,33.38,9.25,-37.56
1765366872.39,0,1019.28,-50.09,278.31,4.62,-0.19,0.66,0.05,9.43,0.28,0.36,-0.20,30.38,10.06,-38.88
1765366872.50,0,1019.28,-50.09,279.38,1.00,-0.50,-0.09,0.08,9.44,-0.24,0.64,-0.15,33.06,10.38,-36.69
1765366872.62,0,1019.28,-50.09,280.12,-1.25,0.88,-0.50,-0.22,9.32,-0.01,-0.02,-0.09,34.88,11.50,-35.00
1765366872.73,0,1019.28,-50.10,280.56,0.94,-0.19,-0.02,0.05,9.42,0.21,-0.63,-0.04,33.69,12.56,-35.38
1765366872.85,0,1019.28,-50.11,280.62,4.56,0.00,0.74,0.00,9.44,-0.25,-0.36,0.01,31.19,11.50,-38.75
1765366872.96,0,1019.28,-50.10,280.50,4.31,1.00,0.64,-0.15,9.50,0.07,0.46,0.04,29.38,11.50,-38.38
1765366873.08,0,1019.28,-50.10,280.12,0.38,0.00,-0.19,0.09,9.45,0.11,0.58,0.08,32.25,11.50,-37.06
1765366873.20,0,1019.28,-50.11,279.44,-1.19,0.56,-0.50,-0.07,9.26,-0.23,-0.10,0.13,33.69,12.19,-34.69
1765366873.31,0,1019.28,-50.09,278.31,1.69,0.94,0.08,-0.18,9.32,0.18,-0.66,0.18,35.19,12.19,-34.56
1765366873.43,0,1019.28,-50.09,277.00,4.88,-0.38,0.76,0.15,9.51,0.09,-0.23,0.23,31.88,11.50,-38.75
1765366873.54,0,1019.28,-50.09,275.38,3.94,0.31,0.58,-0.08,9.55,-0.17,0.49,0.27,31.19,8.56,-40.19
1765366873.66,0,1019.28,-50.09,273.69,0.19,0.31,-0.19,-0.09,9.50,0.20,0.53,0.31,32.69,8.56,-36.75
1765366873.77,0,1019.28,-50.09,271.50,-1.12,-0.50,-0.47,0.10,9.27,-0.05,-0.18,0.35,36.00,7.06,-36.00
1765366873.89,0,1019.28,-50.10,269.19,1.69,0.44,0.20,-0.15,9.48,-0.10,-0.64,0.39,34.50,6.00,-36.00
1765366874.01,0,1019.28,-50.09,266.50,4.69,-0.06,0.77,-0.02,9.44,0.28,-0.16,0.42,33.06,5.19,-38.50
1765366874.12,0,1019.28,-50.09,263.81,3.25,-0.81,0.46,0.11,9.56,-0.07,0.57,0.45,32.69,2.25,-39.69
1765366874.24,0,1019.28,-50.09,260.69,-0.69,0.25,-0.30,-0.15,9.40,-0.10,0.50,0.48,35.19,1.56,-37.19
1765366874.35,0,1019.28,-50.10,257.62,-1.62,-0.31,-0.44,-0.05,9.32,0.19,-0.26,0.52,38.56,-1.00,-36.00
1765366874.47,0,1019.28,-50.09,254.06,1.56,-0.69,0.30,0.05,9.48,-0.09,-0.59,0.56,37.00,-3.19,-36.75
1765366874.59,0,1019.28,-50.09,250.31,3.88,0.00,0.79,-0.12,9.68,0.03,-0.00,0.58,34.38,-5.38,-39.75
1765366874.70,0,1019.28,-50.08,246.69,1.69,-0.69,0.25,0.08,9.35,0.14,0.61,0.60,33.38,-7.25,-39.25
1765366874.83,0,1019.28,-50.08,242.12,-1.94,-0.31,-0.41,-0.03,9.46,-0.22,0.21,0.65,35.19,-11.25,-37.69
1765366874.95,0,1019.28,-50.08,237.69,-1.06,0.25,-0.22,-0.20,9.47,0.05,-0.44,0.68,37.75,-12.69,-36.88
1765366875.07,0,1019.28,-50.08,233.00,2.50,-0.69,0.52,0.06,9.46,0.14,-0.47,0.71,33.25,-15.88,-37.75
1765366875.19,0,1019.28,-50.07,228.62,3.50,-0.25,0.66,-0.05,9.39,-0.13,0.22,0.74,30.00,-17.06,-39.38
1765366875.30,0,1019.28,-50.07,223.69,0.44,0.12,0.11,-0.11,9.42,0.10,0.59,0.75,27.00,-18.56,-37.88
1765366875.41,0,1019.28,-50.09,219.06,-2.12,-0.69,-0.41,0.06,9.50,0.03,0.14,0.76,28.38,-20.50,-37.88
1765366875.53,0,1019.28,-50.09,213.94,-0.88,-0.12,-0.10,-0.11,9.36,-0.17,-0.46,0.78,27.19,-23.19,-36.50
1765366875.64,0,1019.28,-50.08,209.19,2.25,-0.06,0.53,-0.11,9.53,0.17,-0.44,0.78,24.56,-24.56,-36.88
1765366875.76,0,1019.28,-50.07,203.94,3.00,-1.06,0.65,0.07,9.49,0.11,0.22,0.78,18.00,-27.19,-39.38
1765366875.87,0,1019.28,-50.06,199.12,0.38,-0.62,0.11,-0.01,9.47,-0.11,0.55,0.78,16.88,-29.38,-38.56
1765366875.99,0,1019.28,-50.07,194.38,-2.00,-0.38,-0.40,-0.09,9.34,0.04,0.13,0.78,16.56,-29.75,-37.75
1765366876.10,0,1019.28,-50.06,189.12,-0.75,-0.94,-0.07,-0.02,9.46,0.06,-0.43,0.79,12.88,-32.75,-37.75
1765366876.21,0,1019.28,-50.07,184.31,2.19,-0.94,0.51,0.00,9.62,0.00,-0.40,0.79,9.19,-33.19,-37.75
1765366876.33,0,1019.28,-50.07,179.56,3.00,-0.94,0.59,-0.03,9.41,0.12,0.21,0.78,4.38,-34.25,-37.25
1765366876.44,0,1019.28,-50.06,174.38,0.56,-1.31,0.07,0.04,9.37,0.01,0.48,0.76,3.69,-34.69,-36.88
1765366876.56,0,1019.28,-50.07,169.75,-1.25,-0.81,-0.32,-0.07,9.44,-0.10,0.10,0.75,1.06,-34.69,-35.69
1765366876.67,0,1019.28,-50.06,165.19,0.00,-0.62,0.01,-0.07,9.48,0.07,-0.44,0.74,-1.06,-35.00,-36.88
1765366876.78,0,1019.28,-50.05,160.38,2.94,-1.06,0.52,0.01,9.37,0.06,-0.33,0.72,-4.38,-35.00,-36.50
1765366876.90,0,1019.28,-50.05,156.06,3.31,-0.75,0.54,-0.03,9.30,-0.01,0.26,0.69,-10.25,-35.00,-36.88
1765366877.01,0,1019.28,-50.05,151.56,0.62,-0.75,0.05,-0.05,9.42,0.07,0.48,0.66,-10.88,-34.69,-36.88
1765366877.13,0,1019.28,-50.04,147.62,-1.19,-0.94,-0.29,0.00,9.57,-0.03,0.05,0.63,-12.88,-34.00,-36.50
1765366877.25,0,1019.28,-50.05,143.56,0.12,-0.56,0.05,-0.07,9.50,-0.02,-0.40,0.60,-13.06,-34.00,-36.88
1765366877.36,0,1019.28,-50.04,140.00,2.50,-0.81,0.51,-0.01,9.40,0.13,-0.24,0.56,-19.00,-32.06,-36.06
1765366877.47,0,1019.28,-50.06,136.44,2.56,-1.19,0.50,0.01,9.37,0.02,0.30,0.51,-20.50,-31.69,-35.56
1765366877.59,0,1019.28,-50.06,133.12,0.00,-0.94,-0.01,-0.05,9.50,-0.02,0.41,0.47,-19.75,-31.00,-36.50
1765366877.71,0,1019.28,-50.05,130.38,-1.25,-0.94,-0.26,-0.01,9.39,0.03,-0.05,0.43,-20.50,-29.88,-37.75
1765366877.83,0,1019.28,-50.05,127.62,0.50,-0.94,0.17,-0.06,9.35,-0.02,-0.42,0.39,-22.69,-28.75,-36.88
1765366877.95,0,1019.28,-50.08,125.25,2.75,-0.88,0.55,-0.03,9.39,0.05,-0.17,0.34,-25.56,-27.00,-36.88
1765366878.07,0,1019.28,-50.08,123.31,2.25,-1.06,0.37,0.00,9.43,0.02,0.33,0.28,-26.69,-26.50,-35.69
1765366878.18,0,1019.28,-50.06,121.56,-0.12,-0.81,-0.13,-0.03,9.55,-0.05,0.31,0.24,-27.06,-26.50,-37.38
1765366878.30,0,1019.28,-50.06,120.12,-0.81,-0.62,-0.18,-0.04,9.50,0.02,-0.18,0.19,-27.06,-25.38,-37.75
1765366878.42,0,1019.28,-50.06,119.00,1.25,-0.62,0.25,0.00,9.61,-0.00,-0.39,0.15,-28.19,-25.69,-36.06
1765366878.53,0,1019.28,-50.07,118.31,2.88,-0.50,0.56,-0.02,9.30,-0.02,-0.05,0.09,-29.56,-25.06,-35.25
1765366878.65,0,1019.28,-50.07,117.88,1.75,-0.44,0.30,0.00,9.76,0.02,0.35,0.04,-29.88,-24.25,-35.56
1765366878.77,0,1019.28,-50.06,117.81,-0.38,-0.44,-0.15,-0.01,9.20,-0.03,0.26,-0.01,-28.50,-24.56,-36.88
1765366878.88,0,1019.28,-50.07,118.00,-0.69,-0.19,-0.15,-0.03,9.39,-0.02,-0.20,-0.06,-28.50,-23.69,-36.88
1765366879.00,0,1019.28,-50.08,118.62,1.44,-0.31,0.28,0.00,9.54,0.05,-0.36,-0.10,-28.06,-23.69,-36.06
1765366879.12,0,1019.28,-50.07,119.44,2.62,-0.50,0.55,0.00,9.57,-0.03,0.04,-0.16,-29.56,-25.50,-35.69
1765366879.24,0,1019.28,-50.08,120.75,0.81,-0.25,0.17,-0.04,9.43,-0.04,0.38,-0.21,-28.06,-24.69,-36.88
1765366879.36,0,1019.28,-50.08,122.19,-0.88,-0.12,-0.23,-0.03,9.34,-0.00,0.10,-0.26,-26.25,-26.19,-37.38
1765366879.47,0,1019.28,-50.07,124.06,-0.06,-0.12,-0.02,-0.01,9.33,-0.00,-0.32,-0.30,-24.75,-25.75,-37.75
1765366879.59,0,1019.28,-50.08,126.19,2.25,-0.12,0.45,0.00,9.50,-0.01,-0.30,-0.34,-25.50,-26.88,-36.06
1765366879.71,0,1019.28,-50.08,128.44,2.75,-0.06,0.52,-0.02,9.60,-0.03,0.17,-0.39,-26.25,-27.19,-35.69
1765366879.83,0,1019.28,-50.07,131.12,0.69,-0.06,0.09,-0.05,9.40,0.01,0.38,-0.42,-23.00,-28.25,-36.88
1765366879.94,0,1019.28,-50.07,133.88,-0.88,-0.06,-0.22,-0.05,9.29,-0.00,0.05,-0.46,-21.50,-30.19,-36.56
1765366880.06,0,1019.28,-50.08,137.00,0.12,-0.06,0.02,-0.04,9.42,0.01,-0.33,-0.49,-19.25,-31.25,-36.06
1765366880.18,0,1019.28,-50.08,140.38,2.31,-0.19,0.49,0.00,9.41,-0.01,-0.21,-0.52,-18.50,-31.69,-36.06
1765366880.30,0,1019.28,-50.09,143.94,2.25,-0.12,0.43,-0.01,9.63,-0.05,0.25,-0.55,-17.75,-33.56,-36.06
1765366880.41,0,1019.28,-50.09,147.75,0.06,0.00,0.00,-0.04,9.55,-0.02,0.33,-0.58,-13.00,-34.00,-36.50
1765366880.53,0,1019.28,-50.10,151.31,-0.81,0.06,-0.21,0.00,9.46,-0.01,-0.09,-0.60,-10.06,-34.00,-36.50
1765366880.66,0,1019.28,-50.10,155.69,1.25,0.19,0.13,-0.06,9.31,-0.03,-0.41,-0.62,-7.50,-36.19,-37.38
1765366880.78,0,1019.28,-50.08,159.88,3.25,0.19,0.54,-0.01,9.49,-0.03,-0.14,-0.63,-8.00,-35.06,-36.50
1765366880.89,0,1019.28,-50.07,163.75,2.62,0.31,0.32,-0.02,9.45,-0.09,0.30,-0.64,-5.25,-35.00,-36.06
1765366881.01,0,1019.28,-50.09,168.12,0.44,0.69,-0.08,-0.08,9.44,-0.03,0.28,-0.65,-3.50,-35.00,-37.38
1765366881.12,0,1019.28,-50.09,172.06,0.00,0.62,-0.20,-0.03,9.45,0.02,-0.13,-0.65,2.00,-34.56,-36.50
1765366881.23,0,1019.28,-50.08,176.06,1.81,0.56,0.24,0.00,9.40,-0.05,-0.37,-0.65,3.06,-34.56,-36.50
1765366881.35,0,1019.28,-50.10,180.38,3.56,0.69,0.50,-0.03,9.32,-0.05,-0.09,-0.65,5.38,-35.25,-37.75
1765366881.46,0,1019.28,-50.10,184.38,2.75,0.62,0.29,-0.04,9.25,-0.02,0.30,-0.65,7.19,-33.19,-37.38
1765366881.58,0,1019.28,-50.09,188.69,0.75,0.44,-0.03,-0.07,9.49,0.07,0.26,-0.65,9.75,-33.06,-37.38
1765366881.69,0,1019.28,-50.10,192.69,0.25,-0.38,-0.08,0.08,9.93,0.11,-0.13,-0.65,13.50,-33.06,-37.75
1765366881.81,0,1019.28,-50.11,197.00,1.81,-0.19,0.19,-0.02,9.11,-0.16,-0.30,-0.64,16.75,-32.00,-35.69
1765366881.93,0,1019.28,-50.10,200.94,3.19,0.00,0.38,-0.07,8.93,0.05,-0.07,-0.64,17.06,-30.25,-37.38
1765366882.04,0,1019.28,-50.10,205.19,2.56,-0.19,0.25,0.10,8.70,-0.12,0.22,-0.63,17.75,-29.75,-37.75
1765366882.16,0,1019.28,-50.11,209.31,0.94,1.25,0.00,-0.11,10.43,-0.26,0.21,-0.61,23.38,-28.69,-38.25
1765366882.27,0,1019.28,-50.12,213.00,0.62,1.69,-0.07,-0.09,9.73,0.07,-0.09,-0.60,23.75,-25.50,-37.75
1765366882.38,0,1019.29,-50.13,216.56,2.06,1.12,0.20,0.04,9.64,-0.03,-0.27,-0.57,26.19,-24.38,-38.19
1765366882.50,0,1019.29,-50.14,220.31,3.19,1.81,0.45,-0.08,9.56,-0.19,-0.00,-0.55,27.25,-22.19,-39.88
1765366882.62,0,1019.29,-50.14,223.62,2.31,1.94,0.20,-0.11,9.49,0.09,0.26,-0.54,29.50,-20.38,-38.06
1765366882.73,0,1019.29,-50.14,226.88,1.00,1.00,-0.10,0.00,9.10,0.09,0.11,-0.51,30.19,-19.25,-37.25
1765366882.84,0,1019.29,-50.14,230.19,1.19,0.94,0.03,-0.05,9.27,-0.08,-0.18,-0.49,31.69,-17.75,-38.06
1765366882.96,0,1019.29,-50.17,233.06,2.44,0.75,0.34,-0.10,10.13,0.17,-0.13,-0.47,33.06,-16.56,-37.69
1765366883.07,0,1019.29,-50.16,236.12,2.56,-0.69,0.22,0.09,8.94,0.17,0.07,-0.45,33.06,-15.56,-37.25
1765366883.19,0,1019.29,-50.16,238.75,2.06,-0.62,0.05,-0.05,10.14,-0.13,0.03,-0.42,33.38,-14.56,-38.06
1765366883.30,0,1019.29,-50.17,241.50,2.31,-0.50,0.07,-0.03,9.24,0.06,-0.14,-0.40,36.06,-13.06,-37.69
1765366883.42,0,1019.29,-50.16,243.81,3.25,-0.62,0.22,0.00,9.27,-0.08,-0.18,-0.37,34.06,-13.06,-39.25
1765366883.53,0,1019.29,-50.15,246.00,3.69,-0.38,0.29,-0.11,9.59,0.04,-0.02,-0.35,36.00,-10.38,-40.25
1765366883.64,0,1019.29,-50.15,248.06,3.00,-1.12,0.14,0.07,9.51,0.09,0.10,-0.32,37.38,-10.06,-40.69
1765366883.76,0,1019.29,-50.16,250.12,2.19,-0.81,0.04,-0.02,9.48,-0.14,0.03,-0.29,36.00,-9.38,-38.50
1765366883.87,0,1019.29,-50.16,251.81,2.19,-0.38,0.11,-0.06,9.51,0.07,-0.09,-0.26,36.69,-6.75,-38.50
1765366883.99,0,1019.29,-50.15,253.44,2.56,-0.88,0.24,0.08,9.47,0.01,-0.06,-0.23,37.25,-7.19,-39.25
1765366884.10,0,1019.29,-50.17,254.69,2.44,0.00,0.24,-0.06,9.38,-0.23,0.08,-0.19,35.88,-6.38,-39.75
1765366884.22,0,1019.29,-50.17,255.88,1.56,0.69,0.12,-0.08,9.42,0.02,0.16,-0.16,34.69,-5.00,-39.00
1765366884.33,0,1019.29,-50.16,256.75,0.81,0.44,0.02,0.06,9.40,-0.03,0.07,-0.13,37.69,-3.88,-37.75
1765366884.45,0,1019.29,-50.14,257.44,0.88,1.50,0.12,-0.08,9.42,-0.20,-0.07,-0.08,38.19,-2.69,-38.56
1765366884.56,0,1019.29,-50.14,257.81,1.31,1.75,0.19,-0.08,9.37,0.08,-0.04,-0.05,37.00,-0.88,-38.19
1765366884.68,0,1019.29,-50.15,258.00,1.25,1.31,0.24,0.07,9.54,-0.06,0.07,-0.01,37.25,-0.88,-39.38
1765366884.79,0,1019.29,-50.16,258.00,0.62,2.06,0.11,-0.11,9.36,-0.13,0.11,0.03,37.38,-1.25,-38.56
1765366884.91,0,1019.29,-50.17,257.75,0.19,1.81,0.03,-0.03,9.38,0.15,0.00,0.06,36.69,0.19,-37.25
1765366885.02,0,1019.29,-50.15,257.19,0.62,1.06,0.11,0.04,9.58,-0.01,-0.13,0.10,38.19,-0.88,-36.50
1765366885.13,0,1019.29,-50.15,256.44,1.44,1.38,0.24,-0.08,9.54,-0.03,-0.11,0.14,38.19,-1.69,-39.38
1765366885.24,0,1019.29,-50.15,255.44,1.62,0.81,0.24,-0.03,9.83,0.16,0.03,0.17,37.38,-2.38,-39.38
1765366885.36,0,1019.29,-50.14,254.12,1.19,0.38,0.10,0.02,9.35,-0.06,0.07,0.21,37.38,-4.19,-38.56
1765366885.48,0,1019.29,-50.13,252.69,0.94,0.75,0.07,-0.15,9.46,0.02,-0.02,0.25,37.38,-4.19,-38.19
1765366885.59,0,1019.29,-50.15,251.12,1.38,-0.12,0.13,0.03,9.47,0.19,-0.10,0.28,37.38,-5.69,-37.75
1765366885.70,0,1019.29,-50.15,249.19,2.00,-0.31,0.24,0.02,9.51,-0.11,-0.07,0.31,36.00,-7.19,-37.75
1765366885.82,0,1019.29,-50.14,247.06,2.00,0.12,0.23,-0.14,9.42,0.08,0.07,0.33,36.00,-8.69,-39.38
1765366885.94,0,1019.29,-50.14,244.94,1.31,-0.81,0.10,0.04,9.39,0.14,0.11,0.35,37.00,-10.88,-38.56
1765366886.05,0,1019.29,-50.15,242.50,0.88,-0.56,0.05,-0.04,9.35,-0.15,-0.00,0.38,37.00,-13.38,-39.38
1765366886.17,0,1019.29,-50.14,240.19,1.25,-0.25,0.14,-0.13,9.46,0.15,-0.09,0.39,35.56,-13.25,-40.25
1765366886.29,0,1019.29,-50.13,237.56,1.81,-1.19,0.24,0.11,9.30,0.06,-0.04,0.40,35.19,-16.00,-39.06
1765366886.40,0,1019.29,-50.15,234.81,1.56,-0.25,0.24,-0.08,9.56,-0.18,0.11,0.42,34.06,-17.06,-39.38
1765366886.52,0,1019.29,-50.15,232.25,0.69,-0.12,0.08,-0.07,9.49,0.17,0.14,0.42,33.00,-16.56,-37.75
1765366886.63,0,1019.29,-50.15,229.44,0.12,-0.69,0.05,0.08,9.51,-0.07,0.02,0.43,32.25,-19.69,-37.75
1765366886.75,0,1019.29,-50.15,226.75,0.38,0.38,0.14,-0.11,9.44,-0.13,-0.08,0.44,30.69,-20.38,-38.19
1765366886.86,0,1019.29,-50.16,224.06,0.69,0.19,0.25,-0.01,9.36,0.19,0.01,0.43,29.88,-21.19,-39.06
1765366886.98,0,1019.29,-50.15,221.19,0.31,-0.31,0.19,0.07,9.40,-0.08,0.11,0.44,-2018.44,-22.56,-37.38
1765366887.09,0,1019.29,-50.15,218.50,-0.25,0.56,0.09,-0.14,9.68,-0.11,0.10,0.44,28.88,-24.56,-39.06
