Phase,Timestamp,State,Lat,Lon,Heading,TargetAngle,Dist,Roll,Pitch,L_Speed,R_Speed,Fix,RelAlt,AccelNorm,AI_CX,ToF_Dist
1,2026-03-07 11:25:28,STANDBY,0,0,0,0,0,0,0,0,0,0,-0.10,10.27,,24.6
1,2026-03-07 11:25:28,STANDBY,0,0,0,0,0,0,0,0,0,0,-0.10,9.86,,0
1,2026-03-07 11:25:28,STANDBY,0,0,0,0,0,0,0,0,0,0,-0.11,9.64,,0
1,2026-03-07 11:25:28,STANDBY,0,0,0,0,0,0,0,0,0,0,-0.11,9.69,,0
1,2026-03-07 11:25:28,STANDBY,0,0,0,0,0,0,0,0,0,0,-0.12,9.51,,16.3
1,2026-03-07 11:25:28,STANDBY,0,0,0,0,0,0,0,0,0,0,-0.13,9.25,,14.4
1,2026-03-07 11:25:28,STANDBY,0,0,0,0,0,0,0,0,0,0,-0.16,9.41,,11.6
1,2026-03-07 11:25:28,STANDBY,0,0,0,0,0,0,0,0,0,0,-0.16,10.25,,9.2
1,2026-03-07 11:25:28,STANDBY,0,0,0,0,0,0,0,0,0,0,-0.21,9.66,,7.7
1,2026-03-07 11:25:29,STANDBY,0,0,0,0,0,0,0,0,0,0,-0.25,8.95,,6.5
1,2026-03-07 11:25:29,STANDBY,0,0,0,0,0,0,0,0,0,0,-0.26,10.03,,4.4
1,2026-03-07 11:25:29,STANDBY,0,0,0,0,0,0,0,0,0,0,-0.30,10.23,,3.4
1,2026-03-07 11:25:29,STANDBY,0,0,0,0,0,0,0,0,0,0,-0.30,11.11,,1.4
1,2026-03-07 11:25:29,STANDBY,0,0,0,0,0,0,0,0,0,0,-0.33,9.53,,0.4
1,2026-03-07 11:25:29,STANDBY,0,0,0,0,0,0,0,0,0,0,-0.33,10.05,,0
1,2026-03-07 11:25:29,STANDBY,0,0,0,0,0,0,0,0,0,0,-0.34,9.97,,0.2
1,2026-03-07 11:25:29,STANDBY,0,0,0,0,0,0,0,0,0,0,-0.33,9.90,,0
1,2026-03-07 11:25:29,STANDBY,0,0,0,0,0,0,0,0,0,0,-0.35,9.86,,0
1,2026-03-07 11:25:30,STANDBY,0,0,0,0,0,0,0,0,0,0,-0.35,9.83,,0
1,2026-03-07 11:25:30,STANDBY,0,0,0,0,0,0,0,0,0,0,-0.35,9.89,,0
1,2026-03-07 11:25:30,STANDBY,0,0,0,0,0,0,0,0,0,0,-0.35,9.86,,0
1,2026-03-07 11:25:30,STANDBY,0,0,0,0,0,0,0,0,0,0,-0.38,9.84,,0
1,2026-03-07 11:25:30,STANDBY,0,0,0,0,0,0,0,0,0,0,-0.39,9.84,,0
1,2026-03-07 11:25:30,STANDBY,0,0,0,0,0,0,0,0,0,0,-0.41,9.86,,0
1,2026-03-07 11:25:30,STANDBY,0,0,0,0,0,0,0,0,0,0,-0.39,9.85,,0
1,2026-03-07 11:25:30,STANDBY,0,0,0,0,0,0,0,0,0,0,-0.40,9.88,,0
1,2026-03-07 11:25:30,STANDBY,0,0,0,0,0,0,0,0,0,0,-0.41,9.86,,0
1,2026-03-07 11:25:31,STANDBY,0,0,0,0,0,0,0,0,0,0,-0.42,9.85,,0
1,2026-03-07 11:25:31,STANDBY,0,0,0,0,0,0,0,0,0,0,-0.39,9.86,,0
1,2026-03-07 11:25:31,STANDBY,0,0,0,0,0,0,0,0,0,0,-0.39,9.86,,0
1,2026-03-07 11:25:31,STANDBY,0,0,0,0,0,0,0,0,0,0,-0.36,9.88,,0
1,2026-03-07 11:25:31,STANDBY,0,0,0,0,0,0,0,0,0,0,-0.37,9.88,,0
1,2026-03-07 11:25:31,STANDBY,0,0,0,0,0,0,0,0,0,0,-0.39,9.84,,0
1,2026-03-07 11:25:31,STANDBY,0,0,0,0,0,0,0,0,0,0,-0.39,9.84,,0
1,2026-03-07 11:25:31,STANDBY,0,0,0,0,0,0,0,0,0,0,-0.39,9.85,,0
1,2026-03-07 11:25:31,STANDBY,0,0,0,0,0,0,0,0,0,0,-0.40,9.84,,0
1,2026-03-07 11:25:31,STANDBY,0,0,0,0,0,0,0,0,0,0,-0.37,10.11,,0
1,2026-03-07 11:25:32,STANDBY,0,0,0,0,0,0,0,0,0,0,-0.36,10.48,,0
1,2026-03-07 11:25:32,STANDBY,0,0,0,0,0,0,0,0,0,0,-0.35,11.43,,0.1
1,2026-03-07 11:25:32,STANDBY,0,0,0,0,0,0,0,0,0,0,-0.34,11.83,,1.1
1,2026-03-07 11:25:32,STANDBY,0,0,0,0,0,0,0,0,0,0,-0.30,11.22,,4.6
1,2026-03-07 11:25:32,STANDBY,0,0,0,0,0,0,0,0,0,0,-0.24,10.89,,10.5
1,2026-03-07 11:25:32,STANDBY,0,0,0,0,0,0,0,0,0,0,-0.25,10.63,,0
1,2026-03-07 11:25:32,STANDBY,0,0,0,0,0,0,0,0,0,0,-0.08,10.57,,0
1,2026-03-07 11:25:32,STANDBY,0,0,0,0,0,0,0,0,0,0,-0.07,10.84,,0
1,2026-03-07 11:25:32,STANDBY,0,0,0,0,0,0,0,0,0,0,0.08,10.14,,0
1,2026-03-07 11:25:33,STANDBY,0,0,0,0,0,0,0,0,0,0,0.08,8.86,,0
1,2026-03-07 11:25:33,STANDBY,0,0,0,0,0,0,0,0,0,0,0.27,7.81,,0
1,2026-03-07 11:25:33,STANDBY,0,0,0,0,0,0,0,0,0,0,0.27,8.35,,0
1,2026-03-07 11:25:33,STANDBY,0,0,0,0,0,0,0,0,0,0,0.40,8.46,,0
1,2026-03-07 11:25:33,STANDBY,0,0,0,0,0,0,0,0,0,0,0.40,8.83,,0
1,2026-03-07 11:25:33,STANDBY,0,0,0,0,0,0,0,0,0,0,0.42,9.46,,0
1,2026-03-07 11:25:33,STANDBY,0,0,0,0,0,0,0,0,0,0,0.42,9.88,,0
1,2026-03-07 11:25:33,STANDBY,0,0,0,0,0,0,0,0,0,0,0.43,9.18,,0
1,2026-03-07 11:25:33,STANDBY,0,0,0,0,0,0,0,0,0,0,0.42,10.33,,0
1,2026-03-07 11:25:34,STANDBY,0,0,0,0,0,0,0,0,0,0,0.40,9.45,,0.7
1,2026-03-07 11:25:34,STANDBY,0,0,0,0,0,0,0,0,0,0,0.41,10.49,,0
1,2026-03-07 11:25:34,STANDBY,0,0,0,0,0,0,0,0,0,0,0.41,9.73,,0
1,2026-03-07 11:25:34,STANDBY,0,0,0,0,0,0,0,0,0,0,0.41,9.92,,12.7
1,2026-03-07 11:25:34,STANDBY,0,0,0,0,0,0,0,0,0,0,0.41,9.92,,5.9
1,2026-03-07 11:25:34,STANDBY,0,0,0,0,0,0,0,0,0,0,0.43,9.83,,0
1,2026-03-07 11:25:34,STANDBY,0,0,0,0,0,0,0,0,0,0,0.43,9.85,,0
1,2026-03-07 11:25:34,STANDBY,0,0,0,0,0,0,0,0,0,0,0.42,10.06,,37.9
1,2026-03-07 11:25:34,STANDBY,0,0,0,0,0,0,0,0,0,0,0.42,9.87,,0
1,2026-03-07 11:25:35,STANDBY,0,0,0,0,0,0,0,0,0,0,0.42,9.66,,0
1,2026-03-07 11:25:35,STANDBY,0,0,0,0,0,0,0,0,0,0,0.42,9.74,,86.4
1,2026-03-07 11:25:35,STANDBY,0,0,0,0,0,0,0,0,0,0,0.45,9.68,,0
1,2026-03-07 11:25:35,STANDBY,0,0,0,0,0,0,0,0,0,0,0.46,9.90,,0
1,2026-03-07 11:25:35,STANDBY,0,0,0,0,0,0,0,0,0,0,0.42,9.99,,0
1,2026-03-07 11:25:35,STANDBY,0,0,0,0,0,0,0,0,0,0,0.41,10.01,,0
1,2026-03-07 11:25:35,STANDBY,0,0,0,0,0,0,0,0,0,0,0.37,10.22,,0
1,2026-03-07 11:25:35,STANDBY,0,0,0,0,0,0,0,0,0,0,0.37,9.98,,0
1,2026-03-07 11:25:35,STANDBY,0,0,0,0,0,0,0,0,0,0,0.32,10.05,,0
1,2026-03-07 11:25:36,STANDBY,0,0,0,0,0,0,0,0,0,0,0.33,9.64,,0
1,2026-03-07 11:25:36,STANDBY,0,0,0,0,0,0,0,0,0,0,0.37,10.06,,0
1,2026-03-07 11:25:36,STANDBY,0,0,0,0,0,0,0,0,0,0,0.37,10.09,,95.4
1,2026-03-07 11:25:36,STANDBY,0,0,0,0,0,0,0,0,0,0,0.38,9.94,,0
1,2026-03-07 11:25:36,STANDBY,0,0,0,0,0,0,0,0,0,0,0.45,9.76,,0
1,2026-03-07 11:25:36,STANDBY,0,0,0,0,0,0,0,0,0,0,0.44,10.05,,0
1,2026-03-07 11:25:36,STANDBY,0,0,0,0,0,0,0,0,0,0,0.47,10.44,,0
1,2026-03-07 11:25:36,STANDBY,0,0,0,0,0,0,0,0,0,0,0.48,9.68,,0
1,2026-03-07 11:25:36,STANDBY,0,0,0,0,0,0,0,0,0,0,0.47,9.84,,0
1,2026-03-07 11:25:37,STANDBY,0,0,0,0,0,0,0,0,0,0,0.47,9.82,,0
1,2026-03-07 11:25:37,STANDBY,0,0,0,0,0,0,0,0,0,0,0.47,9.76,,0
1,2026-03-07 11:25:37,STANDBY,0,0,0,0,0,0,0,0,0,0,0.48,9.76,,0
1,2026-03-07 11:25:37,STANDBY,0,0,0,0,0,0,0,0,0,0,0.45,9.94,,0
1,2026-03-07 11:25:37,STANDBY,0,0,0,0,0,0,0,0,0,0,0.44,10.34,,0
1,2026-03-07 11:25:37,STANDBY,0,0,0,0,0,0,0,0,0,0,0.42,10.25,,0
1,2026-03-07 11:25:37,STANDBY,0,0,0,0,0,0,0,0,0,0,0.41,10.02,,0
1,2026-03-07 11:25:37,STANDBY,0,0,0,0,0,0,0,0,0,0,0.32,9.86,,0
1,2026-03-07 11:25:37,STANDBY,0,0,0,0,0,0,0,0,0,0,0.33,9.91,,0
1,2026-03-07 11:25:38,STANDBY,0,0,0,0,0,0,0,0,0,0,0.17,9.86,,0
1,2026-03-07 11:25:38,STANDBY,0,0,0,0,0,0,0,0,0,0,0.17,10.06,,0
1,2026-03-07 11:25:38,STANDBY,0,0,0,0,0,0,0,0,0,0,0.02,9.87,,0
1,2026-03-07 11:25:38,STANDBY,0,0,0,0,0,0,0,0,0,0,-0.20,10.07,,0
1,2026-03-07 11:25:38,STANDBY,0,0,0,0,0,0,0,0,0,0,-0.20,10.02,,0
1,2026-03-07 11:25:38,STANDBY,0,0,0,0,0,0,0,0,0,0,-0.10,9.36,,0
1,2026-03-07 11:25:38,STANDBY,0,0,0,0,0,0,0,0,0,0,-0.11,10.03,,0
1,2026-03-07 11:25:38,STANDBY,0,0,0,0,0,0,0,0,0,0,-0.07,10.04,,0
1,2026-03-07 11:25:38,STANDBY,0,0,0,0,0,0,0,0,0,0,-0.07,10.95,,0
1,2026-03-07 11:25:39,STANDBY,0,0,0,0,0,0,0,0,0,0,-0.05,9.94,,0
1,2026-03-07 11:25:39,STANDBY,0,0,0,0,0,0,0,0,0,0,-0.04,9.74,,0
1,2026-03-07 11:25:39,STANDBY,0,0,0,0,0,0,0,0,0,0,-0.00,9.77,,0
1,2026-03-07 11:25:39,STANDBY,0,0,0,0,0,0,0,0,0,0,-0.01,10.37,,0
1,2026-03-07 11:25:39,STANDBY,0,0,0,0,0,0,0,0,0,0,-0.11,10.70,,0
1,2026-03-07 11:25:39,STANDBY,0,0,0,0,0,0,0,0,0,0,-0.10,10.03,,0
1,2026-03-07 11:25:39,STANDBY,0,0,0,0,0,0,0,0,0,0,-0.14,9.93,,0
1,2026-03-07 11:25:39,STANDBY,0,0,0,0,0,0,0,0,0,0,-0.14,9.86,,0
1,2026-03-07 11:25:39,STANDBY,0,0,0,0,0,0,0,0,0,0,-0.15,10.13,,0
1,2026-03-07 11:25:39,STANDBY,0,0,0,0,0,0,0,0,0,0,-0.15,9.73,,0
1,2026-03-07 11:25:40,STANDBY,0,0,0,0,0,0,0,0,0,0,-0.15,10.12,,0
1,2026-03-07 11:25:40,STANDBY,0,0,0,0,0,0,0,0,0,0,-0.10,10.02,,0
1,2026-03-07 11:25:40,STANDBY,0,0,0,0,0,0,0,0,0,0,-0.10,9.99,,0
1,2026-03-07 11:25:40,STANDBY,0,0,0,0,0,0,0,0,0,0,-0.10,10.30,,0
1,2026-03-07 11:25:40,STANDBY,0,0,0,0,0,0,0,0,0,0,-0.10,10.53,,0
1,2026-03-07 11:25:40,STANDBY,0,0,0,0,0,0,0,0,0,0,-0.08,10.74,,0
1,2026-03-07 11:25:40,STANDBY,0,0,0,0,0,0,0,0,0,0,-0.08,10.71,,0
1,2026-03-07 11:25:40,STANDBY,0,0,0,0,0,0,0,0,0,0,-0.00,317.79,,0
1,2026-03-07 11:25:40,STANDBY,0,0,0,0,0,0,0,0,0,0,-0.01,10.22,,0
1,2026-03-07 11:25:41,STANDBY,0,0,0,0,0,0,0,0,0,0,0.07,8.93,,0
1,2026-03-07 11:25:41,STANDBY,0,0,0,0,0,0,0,0,0,0,0.07,9.72,,0
1,2026-03-07 11:25:41,STANDBY,0,0,0,0,0,0,0,0,0,0,0.17,9.62,,0
1,2026-03-07 11:25:41,STANDBY,0,0,0,0,0,0,0,0,0,0,0.17,9.77,,0
1,2026-03-07 11:25:41,STANDBY,0,0,0,0,0,0,0,0,0,0,0.29,9.91,,0
1,2026-03-07 11:25:41,STANDBY,0,0,0,0,0,0,0,0,0,0,0.30,9.83,,0
1,2026-03-07 11:25:41,STANDBY,0,0,0,0,0,0,0,0,0,0,0.44,9.92,,0
1,2026-03-07 11:25:41,STANDBY,0,0,0,0,0,0,0,0,0,0,0.44,10.34,,0
1,2026-03-07 11:25:41,STANDBY,0,0,0,0,0,0,0,0,0,0,0.56,10.70,,0
1,2026-03-07 11:25:42,STANDBY,0,0,0,0,0,0,0,0,0,0,0.63,9.95,,0
1,2026-03-07 11:25:42,STANDBY,0,0,0,0,0,0,0,0,0,0,0.63,9.62,,0
1,2026-03-07 11:25:42,STANDBY,0,0,0,0,0,0,0,0,0,0,0.73,9.49,,0
1,2026-03-07 11:25:42,STANDBY,0,0,0,0,0,0,0,0,0,0,0.74,9.38,,0
1,2026-03-07 11:25:42,STANDBY,0,0,0,0,0,0,0,0,0,0,0.77,9.86,,0
1,2026-03-07 11:25:42,STANDBY,0,0,0,0,0,0,0,0,0,0,0.77,9.82,,0
1,2026-03-07 11:25:42,STANDBY,0,0,0,0,0,0,0,0,0,0,0.80,10.14,,0
1,2026-03-07 11:25:42,STANDBY,0,0,0,0,0,0,0,0,0,0,0.80,9.94,,0
1,2026-03-07 11:25:42,STANDBY,0,0,0,0,0,0,0,0,0,0,0.83,9.47,,0
1,2026-03-07 11:25:43,STANDBY,0,0,0,0,0,0,0,0,0,0,0.82,9.61,,0
1,2026-03-07 11:25:43,STANDBY,0,0,0,0,0,0,0,0,0,0,0.83,9.42,,0
1,2026-03-07 11:25:43,STANDBY,0,0,0,0,0,0,0,0,0,0,0.84,9.60,,0
1,2026-03-07 11:25:43,STANDBY,0,0,0,0,0,0,0,0,0,0,0.85,9.95,,0
1,2026-03-07 11:25:43,STANDBY,0,0,0,0,0,0,0,0,0,0,0.84,9.95,,12.7
1,2026-03-07 11:25:43,STANDBY,0,0,0,0,0,0,0,0,0,0,0.82,9.78,,11.0
1,2026-03-07 11:25:43,STANDBY,0,0,0,0,0,0,0,0,0,0,0.82,9.98,,9.0
1,2026-03-07 11:25:43,STANDBY,0,0,0,0,0,0,0,0,0,0,0.84,9.61,,12.1
1,2026-03-07 11:25:43,STANDBY,0,0,0,0,0,0,0,0,0,0,0.86,9.74,,16.3
1,2026-03-07 11:25:44,STANDBY,0,0,0,0,0,0,0,0,0,0,0.86,10.35,,15.4
1,2026-03-07 11:25:44,STANDBY,0,0,0,0,0,0,0,0,0,0,0.85,9.80,,25.2
1,2026-03-07 11:25:44,STANDBY,0,0,0,0,0,0,0,0,0,0,0.84,9.67,,21.1
1,2026-03-07 11:25:44,STANDBY,0,0,0,0,0,0,0,0,0,0,0.85,9.85,,15.6
1,2026-03-07 11:25:44,STANDBY,0,0,0,0,0,0,0,0,0,0,0.85,9.63,,11.9
1,2026-03-07 11:25:44,STANDBY,0,0,0,0,0,0,0,0,0,0,0.83,9.79,,4.7
1,2026-03-07 11:25:44,STANDBY,0,0,0,0,0,0,0,0,0,0,0.84,9.98,,8.4
1,2026-03-07 11:25:44,STANDBY,0,0,0,0,0,0,0,0,0,0,0.85,9.97,,5.4
1,2026-03-07 11:25:44,STANDBY,0,0,0,0,0,0,0,0,0,0,0.84,9.70,,0
1,2026-03-07 11:25:45,STANDBY,0,0,0,0,0,0,0,0,0,0,0.82,9.66,,0.3
1,2026-03-07 11:25:45,STANDBY,0,0,0,0,0,0,0,0,0,0,0.83,9.79,,0
1,2026-03-07 11:25:45,STANDBY,0,0,0,0,0,0,0,0,0,0,0.85,9.68,,0.1
1,2026-03-07 11:25:45,STANDBY,0,0,0,0,0,0,0,0,0,0,0.84,9.79,,0.3
1,2026-03-07 11:25:45,STANDBY,0,0,0,0,0,0,0,0,0,0,0.86,9.77,,1.3
1,2026-03-07 11:25:45,STANDBY,0,0,0,0,0,0,0,0,0,0,0.86,10.18,,1.0
1,2026-03-07 11:25:45,STANDBY,0,0,0,0,0,0,0,0,0,0,0.86,9.83,,1.6
1,2026-03-07 11:25:45,STANDBY,0,0,0,0,0,0,0,0,0,0,0.87,9.03,,0.9
1,2026-03-07 11:25:45,STANDBY,0,0,0,0,0,0,0,0,0,0,0.86,9.86,,1.1
1,2026-03-07 11:25:46,STANDBY,0,0,0,0,0,0,0,0,0,0,0.88,9.41,,1.3
1,2026-03-07 11:25:46,STANDBY,0,0,0,0,0,0,0,0,0,0,0.88,9.40,,1.4
1,2026-03-07 11:25:46,STANDBY,0,0,0,0,0,0,0,0,0,0,0.86,10.50,,1.4
1,2026-03-07 11:25:46,STANDBY,0,0,0,0,0,0,0,0,0,0,0.87,9.57,,1.1
1,2026-03-07 11:25:46,STANDBY,0,0,0,0,0,0,0,0,0,0,0.88,9.56,,1.4
1,2026-03-07 11:25:46,STANDBY,0,0,0,0,0,0,0,0,0,0,0.87,9.33,,9.3
1,2026-03-07 11:25:46,STANDBY,0,0,0,0,0,0,0,0,0,0,0.90,9.89,,12.5
1,2026-03-07 11:25:46,STANDBY,0,0,0,0,0,0,0,0,0,0,0.90,7.88,,11.6
1,2026-03-07 11:25:46,STANDBY,0,0,0,0,0,0,0,0,0,0,0.90,8.99,,10.7
1,2026-03-07 11:25:47,STANDBY,0,0,0,0,0,0,0,0,0,0,0.89,9.93,,6.6
1,2026-03-07 11:25:47,STANDBY,0,0,0,0,0,0,0,0,0,0,0.88,10.19,,1.0
1,2026-03-07 11:25:47,STANDBY,0,0,0,0,0,0,0,0,0,0,0.86,9.50,,0.3
1,2026-03-07 11:25:47,STANDBY,0,0,0,0,0,0,0,0,0,0,0.87,9.64,,0.1
1,2026-03-07 11:25:47,STANDBY,0,0,0,0,0,0,0,0,0,0,0.86,9.85,,0.5
1,2026-03-07 11:25:47,STANDBY,0,0,0,0,0,0,0,0,0,0,0.85,9.50,,0.2
1,2026-03-07 11:25:47,STANDBY,0,0,0,0,0,0,0,0,0,0,0.81,9.79,,0.6
1,2026-03-07 11:25:47,STANDBY,0,0,0,0,0,0,0,0,0,0,0.81,10.47,,0.3
1,2026-03-07 11:25:47,STANDBY,0,0,0,0,0,0,0,0,0,0,0.77,9.15,,0.6
1,2026-03-07 11:25:47,STANDBY,0,0,0,0,0,0,0,0,0,0,0.77,9.42,,0.6
1,2026-03-07 11:25:48,STANDBY,0,0,0,0,0,0,0,0,0,0,0.74,9.47,,0.3
1,2026-03-07 11:25:48,STANDBY,0,0,0,0,0,0,0,0,0,0,0.73,9.47,,0.6
1,2026-03-07 11:25:48,STANDBY,0,0,0,0,0,0,0,0,0,0,0.71,9.92,,0.8
1,2026-03-07 11:25:48,STANDBY,0,0,0,0,0,0,0,0,0,0,0.71,9.48,,0.7
1,2026-03-07 11:25:48,STANDBY,0,0,0,0,0,0,0,0,0,0,0.70,9.70,,0.8
1,2026-03-07 11:25:48,STANDBY,0,0,0,0,0,0,0,0,0,0,0.71,9.70,,1.3
1,2026-03-07 11:25:48,STANDBY,0,0,0,0,0,0,0,0,0,0,0.69,9.96,,0.8
1,2026-03-07 11:25:48,STANDBY,0,0,0,0,0,0,0,0,0,0,0.65,9.66,,0.8
1,2026-03-07 11:25:48,STANDBY,0,0,0,0,0,0,0,0,0,0,0.64,9.91,,0.5
1,2026-03-07 11:25:49,STANDBY,0,0,0,0,0,0,0,0,0,0,0.61,9.83,,1.0
1,2026-03-07 11:25:49,STANDBY,0,0,0,0,0,0,0,0,0,0,0.62,8.42,,1.0
1,2026-03-07 11:25:49,STANDBY,0,0,0,0,0,0,0,0,0,0,0.59,10.50,,0.8
1,2026-03-07 11:25:49,STANDBY,0,0,0,0,0,0,0,0,0,0,0.59,9.61,,0.8
1,2026-03-07 11:25:49,STANDBY,0,0,0,0,0,0,0,0,0,0,0.53,11.06,,1.3
1,2026-03-07 11:25:49,STANDBY,0,0,0,0,0,0,0,0,0,0,0.52,9.99,,0.9
1,2026-03-07 11:25:49,STANDBY,0,0,0,0,0,0,0,0,0,0,0.49,10.51,,0.7
1,2026-03-07 11:25:49,STANDBY,0,0,0,0,0,0,0,0,0,0,0.48,9.40,,0.7
1,2026-03-07 11:25:49,STANDBY,0,0,0,0,0,0,0,0,0,0,0.42,9.88,,0.7
1,2026-03-07 11:25:50,STANDBY,0,0,0,0,0,0,0,0,0,0,0.42,10.07,,0.7
1,2026-03-07 11:25:50,STANDBY,0,0,0,0,0,0,0,0,0,0,0.44,9.86,,0.7
1,2026-03-07 11:25:50,STANDBY,0,0,0,0,0,0,0,0,0,0,0.44,9.66,,0.7
1,2026-03-07 11:25:50,STANDBY,0,0,0,0,0,0,0,0,0,0,0.42,10.35,,0.6
1,2026-03-07 11:25:50,STANDBY,0,0,0,0,0,0,0,0,0,0,0.43,9.57,,0.8
1,2026-03-07 11:25:50,STANDBY,0,0,0,0,0,0,0,0,0,0,0.35,9.60,,1.0
1,2026-03-07 11:25:50,STANDBY,0,0,0,0,0,0,0,0,0,0,0.29,10.56,,0.7
1,2026-03-07 11:25:50,STANDBY,0,0,0,0,0,0,0,0,0,0,0.30,9.81,,0.5
1,2026-03-07 11:25:50,STANDBY,0,0,0,0,0,0,0,0,0,0,0.26,9.32,,0.7
1,2026-03-07 11:25:51,STANDBY,0,0,0,0,0,0,0,0,0,0,0.27,9.76,,0.7
1,2026-03-07 11:25:51,STANDBY,0,0,0,0,0,0,0,0,0,0,0.29,9.72,,0.6
1,2026-03-07 11:25:51,STANDBY,0,0,0,0,0,0,0,0,0,0,0.29,10.33,,0.4
1,2026-03-07 11:25:51,STANDBY,0,0,0,0,0,0,0,0,0,0,0.31,9.61,,0.8
1,2026-03-07 11:25:51,STANDBY,0,0,0,0,0,0,0,0,0,0,0.31,8.89,,0.8
1,2026-03-07 11:25:51,STANDBY,0,0,0,0,0,0,0,0,0,0,0.23,9.78,,0.5
1,2026-03-07 11:25:51,STANDBY,0,0,0,0,0,0,0,0,0,0,0.23,9.68,,0.2
1,2026-03-07 11:25:51,STANDBY,0,0,0,0,0,0,0,0,0,0,0.26,9.05,,0.5
1,2026-03-07 11:25:51,STANDBY,0,0,0,0,0,0,0,0,0,0,0.26,9.39,,0.4
1,2026-03-07 11:25:52,STANDBY,0,0,0,0,0,0,0,0,0,0,0.25,9.67,,0.6
1,2026-03-07 11:25:52,STANDBY,0,0,0,0,0,0,0,0,0,0,0.24,9.87,,0.4
1,2026-03-07 11:25:52,STANDBY,0,0,0,0,0,0,0,0,0,0,0.25,9.15,,0.7
1,2026-03-07 11:25:52,STANDBY,0,0,0,0,0,0,0,0,0,0,0.19,10.67,,0.7
1,2026-03-07 11:25:52,STANDBY,0,0,0,0,0,0,0,0,0,0,0.19,9.17,,0.8
1,2026-03-07 11:25:52,STANDBY,0,0,0,0,0,0,0,0,0,0,0.22,9.35,,0.8
1,2026-03-07 11:25:52,STANDBY,0,0,0,0,0,0,0,0,0,0,0.23,9.58,,0.9
1,2026-03-07 11:25:52,STANDBY,0,0,0,0,0,0,0,0,0,0,0.15,9.35,,1.0
1,2026-03-07 11:25:52,STANDBY,0,0,0,0,0,0,0,0,0,0,0.14,9.72,,1.0
1,2026-03-07 11:25:53,STANDBY,0,0,0,0,0,0,0,0,0,0,0.23,10.51,,1.2
1,2026-03-07 11:25:53,STANDBY,0,0,0,0,0,0,0,0,0,0,0.23,8.19,,1.2
1,2026-03-07 11:25:53,STANDBY,0,0,0,0,0,0,0,0,0,0,0.18,11.03,,1.4
1,2026-03-07 11:25:53,STANDBY,0,0,0,0,0,0,0,0,0,0,0.17,9.09,,1.2
1,2026-03-07 11:25:53,STANDBY,0,0,0,0,0,0,0,0,0,0,0.18,9.11,,1.3
1,2026-03-07 11:25:53,STANDBY,0,0,0,0,0,0,0,0,0,0,0.19,10.44,,1.0
1,2026-03-07 11:25:53,STANDBY,0,0,0,0,0,0,0,0,0,0,0.21,10.15,,1.0
1,2026-03-07 11:25:53,STANDBY,0,0,0,0,0,0,0,0,0,0,0.22,9.51,,1.2
1,2026-03-07 11:25:53,STANDBY,0,0,0,0,0,0,0,0,0,0,0.19,10.56,,1.2
1,2026-03-07 11:25:54,STANDBY,0,0,0,0,0,0,0,0,0,0,0.19,9.35,,1.2
1,2026-03-07 11:25:54,STANDBY,0,0,0,0,0,0,0,0,0,0,0.18,9.79,,1.3
1,2026-03-07 11:25:54,STANDBY,0,0,0,0,0,0,0,0,0,0,0.22,9.60,,1.2
1,2026-03-07 11:25:54,STANDBY,0,0,0,0,0,0,0,0,0,0,0.23,9.42,,1.1
1,2026-03-07 11:25:54,STANDBY,0,0,0,0,0,0,0,0,0,0,0.30,9.77,,1.2
1,2026-03-07 11:25:54,STANDBY,0,0,0,0,0,0,0,0,0,0,0.29,9.66,,1.0
1,2026-03-07 11:25:54,STANDBY,0,0,0,0,0,0,0,0,0,0,0.29,9.63,,1.3
1,2026-03-07 11:25:54,STANDBY,0,0,0,0,0,0,0,0,0,0,0.29,9.69,,1.0
1,2026-03-07 11:25:54,STANDBY,0,0,0,0,0,0,0,0,0,0,0.29,9.66,,0.9
1,2026-03-07 11:25:55,STANDBY,0,0,0,0,0,0,0,0,0,0,0.29,9.80,,1.2
1,2026-03-07 11:25:55,STANDBY,0,0,0,0,0,0,0,0,0,0,0.29,9.66,,1.1
1,2026-03-07 11:25:55,STANDBY,0,0,0,0,0,0,0,0,0,0,0.29,9.81,,1.6
1,2026-03-07 11:25:55,STANDBY,0,0,0,0,0,0,0,0,0,0,0.41,9.73,,1.1
1,2026-03-07 11:25:55,STANDBY,0,0,0,0,0,0,0,0,0,0,0.41,9.82,,1.1
1,2026-03-07 11:25:55,STANDBY,0,0,0,0,0,0,0,0,0,0,0.26,9.77,,1.0
1,2026-03-07 11:25:55,STANDBY,0,0,0,0,0,0,0,0,0,0,0.26,9.77,,1.2
1,2026-03-07 11:25:55,STANDBY,0,0,0,0,0,0,0,0,0,0,0.31,9.75,,1.2
1,2026-03-07 11:25:55,STANDBY,0,0,0,0,0,0,0,0,0,0,0.40,9.77,,0.9
1,2026-03-07 11:25:56,STANDBY,0,0,0,0,0,0,0,0,0,0,0.40,9.75,,1.3
1,2026-03-07 11:25:56,STANDBY,0,0,0,0,0,0,0,0,0,0,0.52,9.79,,1.2
1,2026-03-07 11:25:56,STANDBY,0,0,0,0,0,0,0,0,0,0,0.52,9.75,,1.1
1,2026-03-07 11:25:56,STANDBY,0,0,0,0,0,0,0,0,0,0,0.50,9.77,,1.3
1,2026-03-07 11:25:56,STANDBY,0,0,0,0,0,0,0,0,0,0,0.49,9.77,,1.3
1,2026-03-07 11:25:56,STANDBY,0,0,0,0,0,0,0,0,0,0,0.41,9.76,,1.2
1,2026-03-07 11:25:56,STANDBY,0,0,0,0,0,0,0,0,0,0,0.42,9.74,,0.7
1,2026-03-07 11:25:56,STANDBY,0,0,0,0,0,0,0,0,0,0,0.48,9.76,,1.1
1,2026-03-07 11:25:56,STANDBY,0,0,0,0,0,0,0,0,0,0,0.48,9.77,,0.9
1,2026-03-07 11:25:57,STANDBY,0,0,0,0,0,0,0,0,0,0,0.57,9.80,,1.1
1,2026-03-07 11:25:57,STANDBY,0,0,0,0,0,0,0,0,0,0,0.57,9.74,,1.1
1,2026-03-07 11:25:57,STANDBY,0,0,0,0,0,0,0,0,0,0,0.59,9.75,,1.4
1,2026-03-07 11:25:57,STANDBY,0,0,0,0,0,0,0,0,0,0,0.59,9.77,,1.1
1,2026-03-07 11:25:57,STANDBY,0,0,0,0,0,0,0,0,0,0,0.68,9.74,,1.0
1,2026-03-07 11:25:57,STANDBY,0,0,0,0,0,0,0,0,0,0,0.75,9.75,,1.1
1,2026-03-07 11:25:57,STANDBY,0,0,0,0,0,0,0,0,0,0,0.75,9.73,,1.3
1,2026-03-07 11:25:57,STANDBY,0,0,0,0,0,0,0,0,0,0,0.69,9.78,,1.3
1,2026-03-07 11:25:57,STANDBY,0,0,0,0,0,0,0,0,0,0,0.68,9.78,,1.0
1,2026-03-07 11:25:58,STANDBY,0,0,0,0,0,0,0,0,0,0,0.69,9.76,,0.9
1,2026-03-07 11:25:58,STANDBY,0,0,0,0,0,0,0,0,0,0,0.69,9.75,,1.3
1,2026-03-07 11:25:58,STANDBY,0,0,0,0,0,0,0,0,0,0,0.67,9.74,,1.4
1,2026-03-07 11:25:58,STANDBY,0,0,0,0,0,0,0,0,0,0,0.67,9.75,,0.9
1,2026-03-07 11:25:58,STANDBY,0,0,0,0,0,0,0,0,0,0,0.80,9.79,,1.2
1,2026-03-07 11:25:58,STANDBY,0,0,0,0,0,0,0,0,0,0,0.81,9.79,,1.0
1,2026-03-07 11:25:58,STANDBY,0,0,0,0,0,0,0,0,0,0,0.78,9.75,,1.0
1,2026-03-07 11:25:58,STANDBY,0,0,0,0,0,0,0,0,0,0,0.78,9.82,,1.0
1,2026-03-07 11:25:58,STANDBY,0,0,0,0,0,0,0,0,0,0,0.65,9.82,,1.4
1,2026-03-07 11:25:58,STANDBY,0,0,0,0,0,0,0,0,0,0,0.65,10.04,,1.2
1,2026-03-07 11:25:59,STANDBY,0,0,0,0,0,0,0,0,0,0,0.76,9.87,,1.3
1,2026-03-07 11:25:59,STANDBY,0,0,0,0,0,0,0,0,0,0,0.75,9.59,,1.0
1,2026-03-07 11:25:59,STANDBY,0,0,0,0,0,0,0,0,0,0,0.80,9.70,,1.2
1,2026-03-07 11:25:59,STANDBY,0,0,0,0,0,0,0,0,0,0,0.84,9.86,,1.2
1,2026-03-07 11:25:59,STANDBY,0,0,0,0,0,0,0,0,0,0,0.84,9.74,,0.9
1,2026-03-07 11:25:59,STANDBY,0,0,0,0,0,0,0,0,0,0,0.83,9.78,,0.9
1,2026-03-07 11:25:59,STANDBY,0,0,0,0,0,0,0,0,0,0,0.83,9.71,,0.8
1,2026-03-07 11:25:59,STANDBY,0,0,0,0,0,0,0,0,0,0,0.33,9.92,,0.8
1,2026-03-07 11:26:00,STANDBY,0,0,0,0,0,0,0,0,0,0,0.33,10.02,,1.0
1,2026-03-07 11:26:00,STANDBY,0,0,0,0,0,0,0,0,0,0,0.94,10.06,,1.2
1,2026-03-07 11:26:00,STANDBY,0,0,0,0,0,0,0,0,0,0,0.94,9.75,,1.1
1,2026-03-07 11:26:00,STANDBY,0,0,0,0,0,0,0,0,0,0,0.48,10.05,,1.2
1,2026-03-07 11:26:00,STANDBY,0,0,0,0,0,0,0,0,0,0,0.46,9.63,,1.2
1,2026-03-07 11:26:00,STANDBY,0,0,0,0,0,0,0,0,0,0,0.46,9.84,,0.9
1,2026-03-07 11:26:00,STANDBY,0,0,0,0,0,0,0,0,0,0,0.85,9.83,,1.0
1,2026-03-07 11:26:00,STANDBY,0,0,0,0,0,0,0,0,0,0,0.85,9.75,,1.3
1,2026-03-07 11:26:00,STANDBY,0,0,0,0,0,0,0,0,0,0,0.38,9.78,,1.1
1,2026-03-07 11:26:01,STANDBY,0,0,0,0,0,0,0,0,0,0,0.38,9.79,,1.0
1,2026-03-07 11:26:01,STANDBY,0,0,0,0,0,0,0,0,0,0,0.13,9.78,,1.2
1,2026-03-07 11:26:01,STANDBY,0,0,0,0,0,0,0,0,0,0,0.14,9.88,,1.3
1,2026-03-07 11:26:01,STANDBY,0,0,0,0,0,0,0,0,0,0,0.11,9.84,,1.3
1,2026-03-07 11:26:01,STANDBY,0,0,0,0,0,0,0,0,0,0,0.11,9.71,,1.0
1,2026-03-07 11:26:01,STANDBY,0,0,0,0,0,0,0,0,0,0,0.05,9.96,,1.1
1,2026-03-07 11:26:01,STANDBY,0,0,0,0,0,0,0,0,0,0,0.05,9.65,,1.1
1,2026-03-07 11:26:01,STANDBY,0,0,0,0,0,0,0,0,0,0,0.46,9.94,,0.9
1,2026-03-07 11:26:01,STANDBY,0,0,0,0,0,0,0,0,0,0,0.46,9.81,,1.0
1,2026-03-07 11:26:01,STANDBY,0,0,0,0,0,0,0,0,0,0,-0.01,9.82,,1.0
1,2026-03-07 11:26:02,STANDBY,0,0,0,0,0,0,0,0,0,0,-0.00,9.92,,1.3
1,2026-03-07 11:26:02,STANDBY,0,0,0,0,0,0,0,0,0,0,-0.05,9.58,,1.3
1,2026-03-07 11:26:02,STANDBY,0,0,0,0,0,0,0,0,0,0,0.03,9.68,,1.0
1,2026-03-07 11:26:02,STANDBY,0,0,0,0,0,0,0,0,0,0,0.03,9.83,,1.2
1,2026-03-07 11:26:02,STANDBY,0,0,0,0,0,0,0,0,0,0,-0.18,9.70,,1.1
1,2026-03-07 11:26:02,STANDBY,0,0,0,0,0,0,0,0,0,0,-0.18,9.86,,1.0
1,2026-03-07 11:26:02,STANDBY,0,0,0,0,0,0,0,0,0,0,-0.06,9.72,,1.3
1,2026-03-07 11:26:02,STANDBY,0,0,0,0,0,0,0,0,0,0,-0.05,9.79,,0.9
1,2026-03-07 11:26:02,STANDBY,0,0,0,0,0,0,0,0,0,0,-0.04,9.74,,1.1
1,2026-03-07 11:26:03,STANDBY,0,0,0,0,0,0,0,0,0,0,-0.06,9.80,,0.9
1,2026-03-07 11:26:03,STANDBY,0,0,0,0,0,0,0,0,0,0,-0.14,9.84,,1.0
1,2026-03-07 11:26:03,STANDBY,0,0,0,0,0,0,0,0,0,0,-0.13,9.71,,1.0
1,2026-03-07 11:26:03,STANDBY,0,0,0,0,0,0,0,0,0,0,-0.02,9.71,,1.0
1,2026-03-07 11:26:03,STANDBY,0,0,0,0,0,0,0,0,0,0,-0.03,9.75,,1.4
1,2026-03-07 11:26:03,STANDBY,0,0,0,0,0,0,0,0,0,0,0.03,9.78,,1.0
1,2026-03-07 11:26:03,STANDBY,0,0,0,0,0,0,0,0,0,0,0.03,9.77,,1.1
1,2026-03-07 11:26:03,STANDBY,0,0,0,0,0,0,0,0,0,0,0.22,9.72,,1.2
1,2026-03-07 11:26:03,STANDBY,0,0,0,0,0,0,0,0,0,0,0.38,9.73,,1.0
1,2026-03-07 11:26:04,STANDBY,0,0,0,0,0,0,0,0,0,0,0.39,9.73,,1.2
1,2026-03-07 11:26:04,STANDBY,0,0,0,0,0,0,0,0,0,0,0.15,9.76,,1.3
1,2026-03-07 11:26:04,STANDBY,0,0,0,0,0,0,0,0,0,0,0.15,9.78,,1.2
1,2026-03-07 11:26:04,STANDBY,0,0,0,0,0,0,0,0,0,0,0.12,9.76,,1.2
1,2026-03-07 11:26:04,STANDBY,0,0,0,0,0,0,0,0,0,0,0.11,9.88,,0.9
1,2026-03-07 11:26:04,STANDBY,0,0,0,0,0,0,0,0,0,0,0.36,9.66,,1.2
1,2026-03-07 11:26:04,STANDBY,0,0,0,0,0,0,0,0,0,0,0.37,9.86,,1.0
1,2026-03-07 11:26:04,STANDBY,0,0,0,0,0,0,0,0,0,0,0.15,9.79,,1.1
1,2026-03-07 11:26:04,STANDBY,0,0,0,0,0,0,0,0,0,0,0.15,9.83,,1.0
1,2026-03-07 11:26:05,STANDBY,0,0,0,0,0,0,0,0,0,0,0.14,9.75,,0.8
1,2026-03-07 11:26:05,STANDBY,0,0,0,0,0,0,0,0,0,0,0.13,9.78,,1.1
1,2026-03-07 11:26:05,STANDBY,0,0,0,0,0,0,0,0,0,0,0.11,9.65,,0.8
1,2026-03-07 11:26:05,STANDBY,0,0,0,0,0,0,0,0,0,0,0.11,327.01,,1.2
1,2026-03-07 11:26:05,STANDBY,0,0,0,0,0,0,0,0,0,0,0.15,9.85,,1.3
1,2026-03-07 11:26:05,STANDBY,0,0,0,0,0,0,0,0,0,0,0.15,9.82,,1.1
1,2026-03-07 11:26:05,STANDBY,0,0,0,0,0,0,0,0,0,0,0.22,9.79,,0.9
1,2026-03-07 11:26:05,STANDBY,0,0,0,0,0,0,0,0,0,0,0.24,9.78,,1.3
1,2026-03-07 11:26:05,STANDBY,0,0,0,0,0,0,0,0,0,0,0.24,9.75,,0.9
1,2026-03-07 11:26:06,STANDBY,0,0,0,0,0,0,0,0,0,0,0.24,9.79,,1.1
1,2026-03-07 11:26:06,STANDBY,0,0,0,0,0,0,0,0,0,0,0.23,9.78,,1.3
1,2026-03-07 11:26:06,STANDBY,0,0,0,0,0,0,0,0,0,0,0.19,9.75,,1.2
1,2026-03-07 11:26:06,STANDBY,0,0,0,0,0,0,0,0,0,0,0.18,9.76,,1.0
1,2026-03-07 11:26:06,STANDBY,0,0,0,0,0,0,0,0,0,0,0.13,9.73,,1.1
1,2026-03-07 11:26:06,STANDBY,0,0,0,0,0,0,0,0,0,0,0.13,9.79,,1.1
1,2026-03-07 11:26:06,STANDBY,0,0,0,0,0,0,0,0,0,0,0.13,9.82,,1.3
1,2026-03-07 11:26:06,STANDBY,0,0,0,0,0,0,0,0,0,0,0.16,9.85,,1.2
1,2026-03-07 11:26:06,STANDBY,0,0,0,0,0,0,0,0,0,0,0.16,9.82,,1.0
1,2026-03-07 11:26:07,STANDBY,0,0,0,0,0,0,0,0,0,0,0.03,9.81,,1.2
1,2026-03-07 11:26:07,STANDBY,0,0,0,0,0,0,0,0,0,0,0.03,9.76,,1.3
1,2026-03-07 11:26:07,STANDBY,0,0,0,0,0,0,0,0,0,0,0.05,9.79,,1.1
1,2026-03-07 11:26:07,STANDBY,0,0,0,0,0,0,0,0,0,0,0.05,9.75,,1.2
1,2026-03-07 11:26:07,STANDBY,0,0,0,0,0,0,0,0,0,0,0.04,9.81,,1.1
1,2026-03-07 11:26:07,STANDBY,0,0,0,0,0,0,0,0,0,0,0.01,9.53,,1.2
1,2026-03-07 11:26:07,STANDBY,0,0,0,0,0,0,0,0,0,0,-0.01,9.81,,1.1
1,2026-03-07 11:26:07,STANDBY,0,0,0,0,0,0,0,0,0,0,-0.01,9.92,,1.0
1,2026-03-07 11:26:07,STANDBY,0,0,0,0,0,0,0,0,0,0,0.00,9.84,,1.1
1,2026-03-07 11:26:08,STANDBY,0,0,0,0,0,0,0,0,0,0,0.01,9.81,,0.9
1,2026-03-07 11:26:08,STANDBY,0,0,0,0,0,0,0,0,0,0,0.01,9.63,,1.0
1,2026-03-07 11:26:08,STANDBY,0,0,0,0,0,0,0,0,0,0,-0.01,9.85,,0.9
1,2026-03-07 11:26:08,STANDBY,0,0,0,0,0,0,0,0,0,0,-0.02,9.97,,1.0
1,2026-03-07 11:26:08,STANDBY,0,0,0,0,0,0,0,0,0,0,-0.02,9.69,,0.9
1,2026-03-07 11:26:08,STANDBY,0,0,0,0,0,0,0,0,0,0,-0.02,9.68,,1.1
1,2026-03-07 11:26:08,STANDBY,0,0,0,0,0,0,0,0,0,0,0.02,10.28,,1.2
1,2026-03-07 11:26:08,STANDBY,0,0,0,0,0,0,0,0,0,0,0.02,9.82,,1.1
1,2026-03-07 11:26:08,STANDBY,0,0,0,0,0,0,0,0,0,0,-0.02,9.44,,1.4
1,2026-03-07 11:26:09,STANDBY,0,0,0,0,0,0,0,0,0,0,-0.02,9.69,,1.1
1,2026-03-07 11:26:09,STANDBY,0,0,0,0,0,0,0,0,0,0,-0.09,10.02,,1.3
1,2026-03-07 11:26:09,STANDBY,0,0,0,0,0,0,0,0,0,0,-0.07,9.82,,1.4
1,2026-03-07 11:26:09,STANDBY,0,0,0,0,0,0,0,0,0,0,-0.08,10.45,,1.4
1,2026-03-07 11:26:09,STANDBY,0,0,0,0,0,0,0,0,0,0,-0.13,9.86,,1.1
1,2026-03-07 11:26:09,STANDBY,0,0,0,0,0,0,0,0,0,0,-0.13,10.08,,1.3
1,2026-03-07 11:26:09,STANDBY,0,0,0,0,0,0,0,0,0,0,-0.12,10.80,,1.1
1,2026-03-07 11:26:09,STANDBY,0,0,0,0,0,0,0,0,0,0,-0.12,11.11,,1.2
1,2026-03-07 11:26:09,STANDBY,0,0,0,0,0,0,0,0,0,0,-0.14,10.43,,1.1
1,2026-03-07 11:26:10,STANDBY,0,0,0,0,0,0,0,0,0,0,-0.14,9.98,,1.3
1,2026-03-07 11:26:10,STANDBY,0,0,0,0,0,0,0,0,0,0,-0.09,10.02,,0.9
1,2026-03-07 11:26:10,STANDBY,0,0,0,0,0,0,0,0,0,0,-0.09,9.94,,1.0
1,2026-03-07 11:26:10,STANDBY,0,0,0,0,0,0,0,0,0,0,-0.03,10.42,,1.1
1,2026-03-07 11:26:10,STANDBY,0,0,0,0,0,0,0,0,0,0,-0.04,10.49,,1.2
1,2026-03-07 11:26:10,STANDBY,0,0,0,0,0,0,0,0,0,0,-0.04,9.96,,1.0
1,2026-03-07 11:26:10,STANDBY,0,0,0,0,0,0,0,0,0,0,-0.04,9.89,,0.9
1,2026-03-07 11:26:10,STANDBY,0,0,0,0,0,0,0,0,0,0,0.01,9.10,,1.0
1,2026-03-07 11:26:10,STANDBY,0,0,0,0,0,0,0,0,0,0,0.09,9.16,,0.9
1,2026-03-07 11:26:11,STANDBY,0,0,0,0,0,0,0,0,0,0,0.09,6.20,,1.0
1,2026-03-07 11:26:11,STANDBY,0,0,0,0,0,0,0,0,0,0,-0.08,9.68,,1.1
1,2026-03-07 11:26:11,STANDBY,0,0,0,0,0,0,0,0,0,0,-0.08,10.16,,1.1
1,2026-03-07 11:26:11,STANDBY,0,0,0,0,0,0,0,0,0,0,0.09,10.27,,1.2
1,2026-03-07 11:26:11,STANDBY,0,0,0,0,0,0,0,0,0,0,0.09,10.74,,1.1
1,2026-03-07 11:26:11,STANDBY,0,0,0,0,0,0,0,0,0,0,0.19,10.49,,1.1
1,2026-03-07 11:26:11,STANDBY,0,0,0,0,0,0,0,0,0,0,0.18,10.29,,1.0
1,2026-03-07 11:26:11,STANDBY,0,0,0,0,0,0,0,0,0,0,0.24,9.72,,1.1
1,2026-03-07 11:26:11,STANDBY,0,0,0,0,0,0,0,0,0,0,0.25,9.23,,0.9
1,2026-03-07 11:26:12,STANDBY,0,0,0,0,0,0,0,0,0,0,0.31,9.13,,1.0
1,2026-03-07 11:26:12,STANDBY,0,0,0,0,0,0,0,0,0,0,0.30,9.28,,0.9
1,2026-03-07 11:26:12,STANDBY,0,0,0,0,0,0,0,0,0,0,0.34,9.22,,0.9
1,2026-03-07 11:26:12,STANDBY,0,0,0,0,0,0,0,0,0,0,0.35,8.26,,1.0
1,2026-03-07 11:26:12,STANDBY,0,0,0,0,0,0,0,0,0,0,0.44,9.21,,1.2
1,2026-03-07 11:26:12,STANDBY,0,0,0,0,0,0,0,0,0,0,0.67,10.06,,1.0
1,2026-03-07 11:26:12,STANDBY,0,0,0,0,0,0,0,0,0,0,0.66,10.18,,1.0
1,2026-03-07 11:26:12,STANDBY,0,0,0,0,0,0,0,0,0,0,0.74,9.25,,1.0
1,2026-03-07 11:26:12,STANDBY,0,0,0,0,0,0,0,0,0,0,0.74,9.42,,1.1
1,2026-03-07 11:26:12,STANDBY,0,0,0,0,0,0,0,0,0,0,0.82,9.86,,1.0
1,2026-03-07 11:26:13,STANDBY,0,0,0,0,0,0,0,0,0,0,0.82,10.66,,1.2
1,2026-03-07 11:26:13,STANDBY,0,0,0,0,0,0,0,0,0,0,0.63,9.58,,0.9
1,2026-03-07 11:26:13,STANDBY,0,0,0,0,0,0,0,0,0,0,0.62,9.15,,1.3
1,2026-03-07 11:26:13,STANDBY,0,0,0,0,0,0,0,0,0,0,0.57,9.67,,1.2
1,2026-03-07 11:26:13,STANDBY,0,0,0,0,0,0,0,0,0,0,0.57,7.45,,1.3
1,2026-03-07 11:26:13,STANDBY,0,0,0,0,0,0,0,0,0,0,0.57,10.10,,1.0
1,2026-03-07 11:26:13,STANDBY,0,0,0,0,0,0,0,0,0,0,0.57,10.89,,1.0
1,2026-03-07 11:26:13,STANDBY,0,0,0,0,0,0,0,0,0,0,0.53,10.28,,1.1
1,2026-03-07 11:26:13,STANDBY,0,0,0,0,0,0,0,0,0,0,0.53,8.50,,1.1
1,2026-03-07 11:26:14,STANDBY,0,0,0,0,0,0,0,0,0,0,0.49,8.91,,1.1
1,2026-03-07 11:26:14,STANDBY,0,0,0,0,0,0,0,0,0,0,0.51,7.56,,0.9
1,2026-03-07 11:26:14,STANDBY,0,0,0,0,0,0,0,0,0,0,0.48,8.96,,0.8
1,2026-03-07 11:26:14,STANDBY,0,0,0,0,0,0,0,0,0,0,0.44,11.41,,0.9
1,2026-03-07 11:26:14,STANDBY,0,0,0,0,0,0,0,0,0,0,0.45,11.92,,1.1
1,2026-03-07 11:26:14,STANDBY,0,0,0,0,0,0,0,0,0,0,0.39,10.36,,1.2
1,2026-03-07 11:26:14,STANDBY,0,0,0,0,0,0,0,0,0,0,0.38,10.05,,1.1
1,2026-03-07 11:26:14,STANDBY,0,0,0,0,0,0,0,0,0,0,0.36,7.89,,1.1
1,2026-03-07 11:26:14,STANDBY,0,0,0,0,0,0,0,0,0,0,0.37,10.24,,1.1
1,2026-03-07 11:26:15,STANDBY,0,0,0,0,0,0,0,0,0,0,0.36,10.49,,1.0
1,2026-03-07 11:26:15,STANDBY,0,0,0,0,0,0,0,0,0,0,0.36,11.52,,1.1
1,2026-03-07 11:26:15,STANDBY,0,0,0,0,0,0,0,0,0,0,0.36,9.78,,1.3
1,2026-03-07 11:26:15,STANDBY,0,0,0,0,0,0,0,0,0,0,0.35,9.63,,1.0
1,2026-03-07 11:26:15,STANDBY,0,0,0,0,0,0,0,0,0,0,0.43,7.21,,1.1
1,2026-03-07 11:26:15,STANDBY,0,0,0,0,0,0,0,0,0,0,0.43,8.07,,1.0
1,2026-03-07 11:26:15,STANDBY,0,0,0,0,0,0,0,0,0,0,0.50,9.63,,1.1
1,2026-03-07 11:26:15,STANDBY,0,0,0,0,0,0,0,0,0,0,0.50,10.58,,1.2
1,2026-03-07 11:26:15,STANDBY,0,0,0,0,0,0,0,0,0,0,0.52,9.14,,0.9
1,2026-03-07 11:26:16,STANDBY,0,0,0,0,0,0,0,0,0,0,0.50,9.01,,0.9
1,2026-03-07 11:26:16,STANDBY,0,0,0,0,0,0,0,0,0,0,0.50,9.40,,0.8
1,2026-03-07 11:26:16,STANDBY,0,0,0,0,0,0,0,0,0,0,0.53,9.70,,1.3
1,2026-03-07 11:26:16,STANDBY,0,0,0,0,0,0,0,0,0,0,0.53,11.63,,1.2
1,2026-03-07 11:26:16,STANDBY,0,0,0,0,0,0,0,0,0,0,0.62,12.33,,1.1
1,2026-03-07 11:26:16,STANDBY,0,0,0,0,0,0,0,0,0,0,0.62,11.00,,1.0
1,2026-03-07 11:26:16,STANDBY,0,0,0,0,0,0,0,0,0,0,0.67,9.55,,0.9
1,2026-03-07 11:26:16,STANDBY,0,0,0,0,0,0,0,0,0,0,0.67,8.53,,0.9
1,2026-03-07 11:26:16,STANDBY,0,0,0,0,0,0,0,0,0,0,0.80,8.58,,1.2
1,2026-03-07 11:26:17,STANDBY,0,0,0,0,0,0,0,0,0,0,0.80,8.46,,1.0
1,2026-03-07 11:26:17,STANDBY,0,0,0,0,0,0,0,0,0,0,0.88,9.14,,0.9
1,2026-03-07 11:26:17,STANDBY,0,0,0,0,0,0,0,0,0,0,0.88,9.59,,1.1
1,2026-03-07 11:26:17,STANDBY,0,0,0,0,0,0,0,0,0,0,0.95,11.39,,1.0
1,2026-03-07 11:26:17,STANDBY,0,0,0,0,0,0,0,0,0,0,0.95,9.82,,0.9
1,2026-03-07 11:26:17,STANDBY,0,0,0,0,0,0,0,0,0,0,1.04,8.57,,0.9
1,2026-03-07 11:26:17,STANDBY,0,0,0,0,0,0,0,0,0,0,1.05,7.56,,0.9
1,2026-03-07 11:26:17,STANDBY,0,0,0,0,0,0,0,0,0,0,1.07,9.09,,1.0
1,2026-03-07 11:26:17,STANDBY,0,0,0,0,0,0,0,0,0,0,1.15,10.60,,1.0
1,2026-03-07 11:26:18,STANDBY,0,0,0,0,0,0,0,0,0,0,1.14,10.74,,1.2
1,2026-03-07 11:26:18,STANDBY,0,0,0,0,0,0,0,0,0,0,1.11,7.94,,1.0
1,2026-03-07 11:26:18,STANDBY,0,0,0,0,0,0,0,0,0,0,1.11,9.14,,1.4
1,2026-03-07 11:26:18,STANDBY,0,0,0,0,0,0,0,0,0,0,1.11,10.80,,1.2
1,2026-03-07 11:26:18,STANDBY,0,0,0,0,0,0,0,0,0,0,1.12,10.37,,1.2
1,2026-03-07 11:26:18,STANDBY,0,0,0,0,0,0,0,0,0,0,1.16,10.14,,0.8
1,2026-03-07 11:26:18,STANDBY,0,0,0,0,0,0,0,0,0,0,1.16,8.43,,0.9
1,2026-03-07 11:26:18,STANDBY,0,0,0,0,0,0,0,0,0,0,1.19,8.25,,1.1
1,2026-03-07 11:26:18,STANDBY,0,0,0,0,0,0,0,0,0,0,1.19,9.68,,1.2
1,2026-03-07 11:26:19,STANDBY,0,0,0,0,0,0,0,0,0,0,1.17,12.61,,1.0
1,2026-03-07 11:26:19,STANDBY,0,0,0,0,0,0,0,0,0,0,1.18,9.99,,1.3
1,2026-03-07 11:26:19,STANDBY,0,0,0,0,0,0,0,0,0,0,1.22,8.33,,1.0
1,2026-03-07 11:26:19,STANDBY,0,0,0,0,0,0,0,0,0,0,1.23,8.92,,1.0
1,2026-03-07 11:26:19,STANDBY,0,0,0,0,0,0,0,0,0,0,1.23,11.06,,1.1
1,2026-03-07 11:26:19,STANDBY,0,0,0,0,0,0,0,0,0,0,1.31,11.38,,1.3
1,2026-03-07 11:26:19,STANDBY,0,0,0,0,0,0,0,0,0,0,1.32,8.62,,1.3
1,2026-03-07 11:26:19,STANDBY,0,0,0,0,0,0,0,0,0,0,1.37,7.43,,1.1
1,2026-03-07 11:26:19,STANDBY,0,0,0,0,0,0,0,0,0,0,1.37,8.92,,1.1
1,2026-03-07 11:26:20,STANDBY,0,0,0,0,0,0,0,0,0,0,1.40,11.20,,1.0
1,2026-03-07 11:26:20,STANDBY,0,0,0,0,0,0,0,0,0,0,1.41,10.36,,0.7
1,2026-03-07 11:26:20,STANDBY,0,0,0,0,0,0,0,0,0,0,1.45,8.59,,1.0
1,2026-03-07 11:26:20,STANDBY,0,0,0,0,0,0,0,0,0,0,1.44,7.37,,1.3
1,2026-03-07 11:26:20,STANDBY,0,0,0,0,0,0,0,0,0,0,1.45,9.59,,1.1
1,2026-03-07 11:26:20,STANDBY,0,0,0,0,0,0,0,0,0,0,1.46,10.53,,1.3
1,2026-03-07 11:26:20,STANDBY,0,0,0,0,0,0,0,0,0,0,1.49,10.89,,1.0
1,2026-03-07 11:26:20,STANDBY,0,0,0,0,0,0,0,0,0,0,1.48,9.35,,1.1
1,2026-03-07 11:26:20,STANDBY,0,0,0,0,0,0,0,0,0,0,1.39,8.72,,1.1
1,2026-03-07 11:26:21,STANDBY,0,0,0,0,0,0,0,0,0,0,1.34,10.00,,1.0
1,2026-03-07 11:26:21,STANDBY,0,0,0,0,0,0,0,0,0,0,1.34,11.13,,1.1
1,2026-03-07 11:26:21,STANDBY,0,0,0,0,0,0,0,0,0,0,1.33,10.83,,0.9
1,2026-03-07 11:26:21,STANDBY,0,0,0,0,0,0,0,0,0,0,1.34,9.07,,1.1
1,2026-03-07 11:26:21,STANDBY,0,0,0,0,0,0,0,0,0,0,1.31,9.70,,1.2
1,2026-03-07 11:26:21,STANDBY,0,0,0,0,0,0,0,0,0,0,1.31,10.35,,1.3
1,2026-03-07 11:26:21,STANDBY,0,0,0,0,0,0,0,0,0,0,1.38,10.53,,0.9
1,2026-03-07 11:26:21,STANDBY,0,0,0,0,0,0,0,0,0,0,1.37,9.30,,1.1
1,2026-03-07 11:26:21,STANDBY,0,0,0,0,0,0,0,0,0,0,1.38,8.10,,1.1
1,2026-03-07 11:26:22,STANDBY,0,0,0,0,0,0,0,0,0,0,1.38,10.29,,0.8
1,2026-03-07 11:26:22,STANDBY,0,0,0,0,0,0,0,0,0,0,1.41,11.86,,1.0
1,2026-03-07 11:26:22,STANDBY,0,0,0,0,0,0,0,0,0,0,1.40,9.51,,1.2
1,2026-03-07 11:26:22,STANDBY,0,0,0,0,0,0,0,0,0,0,1.46,7.86,,1.6
1,2026-03-07 11:26:22,STANDBY,0,0,0,0,0,0,0,0,0,0,1.46,7.14,,1.1
1,2026-03-07 11:26:22,STANDBY,0,0,0,0,0,0,0,0,0,0,1.49,8.34,,1.1
1,2026-03-07 11:26:22,STANDBY,0,0,0,0,0,0,0,0,0,0,1.49,11.52,,1.1
1,2026-03-07 11:26:22,STANDBY,0,0,0,0,0,0,0,0,0,0,1.55,10.72,,1.2
1,2026-03-07 11:26:22,STANDBY,0,0,0,0,0,0,0,0,0,0,1.41,8.07,,1.1
1,2026-03-07 11:26:23,STANDBY,0,0,0,0,0,0,0,0,0,0,1.42,9.33,,1.0
1,2026-03-07 11:26:23,STANDBY,0,0,0,0,0,0,0,0,0,0,1.32,9.70,,1.0
1,2026-03-07 11:26:23,STANDBY,0,0,0,0,0,0,0,0,0,0,1.32,10.65,,1.3
1,2026-03-07 11:26:23,STANDBY,0,0,0,0,0,0,0,0,0,0,1.35,9.16,,1.2
1,2026-03-07 11:26:23,STANDBY,0,0,0,0,0,0,0,0,0,0,1.35,7.32,,1.1
1,2026-03-07 11:26:23,STANDBY,0,0,0,0,0,0,0,0,0,0,1.35,8.97,,1.3
1,2026-03-07 11:26:23,STANDBY,0,0,0,0,0,0,0,0,0,0,1.35,11.49,,1.2
1,2026-03-07 11:26:23,STANDBY,0,0,0,0,0,0,0,0,0,0,1.39,11.96,,1.4
1,2026-03-07 11:26:23,STANDBY,0,0,0,0,0,0,0,0,0,0,1.39,8.72,,1.1
1,2026-03-07 11:26:23,STANDBY,0,0,0,0,0,0,0,0,0,0,1.51,7.18,,1.4
1,2026-03-07 11:26:24,STANDBY,0,0,0,0,0,0,0,0,0,0,1.50,9.00,,1.1
1,2026-03-07 11:26:24,STANDBY,0,0,0,0,0,0,0,0,0,0,1.41,11.39,,1.2
1,2026-03-07 11:26:24,STANDBY,0,0,0,0,0,0,0,0,0,0,1.40,10.06,,1.3
1,2026-03-07 11:26:24,STANDBY,0,0,0,0,0,0,0,0,0,0,1.54,8.21,,1.1
1,2026-03-07 11:26:24,STANDBY,0,0,0,0,0,0,0,0,0,0,1.54,7.47,,1.4
1,2026-03-07 11:26:24,STANDBY,0,0,0,0,0,0,0,0,0,0,1.55,10.34,,1.1
1,2026-03-07 11:26:24,STANDBY,0,0,0,0,0,0,0,0,0,0,1.56,12.05,,1.1
1,2026-03-07 11:26:24,STANDBY,0,0,0,0,0,0,0,0,0,0,1.56,10.89,,1.1
1,2026-03-07 11:26:24,STANDBY,0,0,0,0,0,0,0,0,0,0,1.46,8.05,,1.2
1,2026-03-07 11:26:25,STANDBY,0,0,0,0,0,0,0,0,0,0,1.46,8.52,,1.1
1,2026-03-07 11:26:25,STANDBY,0,0,0,0,0,0,0,0,0,0,1.51,10.61,,1.0
1,2026-03-07 11:26:25,STANDBY,0,0,0,0,0,0,0,0,0,0,1.50,10.70,,1.6
1,2026-03-07 11:26:25,STANDBY,0,0,0,0,0,0,0,0,0,0,1.52,9.15,,1.2
1,2026-03-07 11:26:25,STANDBY,0,0,0,0,0,0,0,0,0,0,1.52,7.25,,1.5
1,2026-03-07 11:26:25,STANDBY,0,0,0,0,0,0,0,0,0,0,1.47,9.67,,0.9
1,2026-03-07 11:26:25,STANDBY,0,0,0,0,0,0,0,0,0,0,1.47,11.26,,1.3
1,2026-03-07 11:26:25,STANDBY,0,0,0,0,0,0,0,0,0,0,1.43,10.65,,1.6
1,2026-03-07 11:26:25,STANDBY,0,0,0,0,0,0,0,0,0,0,1.43,8.09,,1.0
1,2026-03-07 11:26:26,STANDBY,0,0,0,0,0,0,0,0,0,0,1.32,7.61,,0.9
1,2026-03-07 11:26:26,STANDBY,0,0,0,0,0,0,0,0,0,0,1.33,10.38,,1.1
1,2026-03-07 11:26:26,STANDBY,0,0,0,0,0,0,0,0,0,0,1.25,10.88,,0.9
1,2026-03-07 11:26:26,STANDBY,0,0,0,0,0,0,0,0,0,0,1.19,10.75,,1.5
1,2026-03-07 11:26:26,STANDBY,0,0,0,0,0,0,0,0,0,0,1.17,7.86,,1.1
1,2026-03-07 11:26:26,STANDBY,0,0,0,0,0,0,0,0,0,0,1.12,8.86,,0.9
1,2026-03-07 11:26:26,STANDBY,0,0,0,0,0,0,0,0,0,0,1.12,10.85,,1.6
1,2026-03-07 11:26:26,STANDBY,0,0,0,0,0,0,0,0,0,0,1.15,11.66,,0.8
1,2026-03-07 11:26:26,STANDBY,0,0,0,0,0,0,0,0,0,0,1.15,8.20,,1.2
1,2026-03-07 11:26:27,STANDBY,0,0,0,0,0,0,0,0,0,0,1.09,8.47,,0.9
1,2026-03-07 11:26:27,STANDBY,0,0,0,0,0,0,0,0,0,0,1.10,327.24,,0.9
1,2026-03-07 11:26:27,STANDBY,0,0,0,0,0,0,0,0,0,0,1.10,12.37,,1.2
1,2026-03-07 11:26:27,STANDBY,0,0,0,0,0,0,0,0,0,0,1.09,9.74,,1.2
1,2026-03-07 11:26:27,STANDBY,0,0,0,0,0,0,0,0,0,0,1.14,7.69,,1.1
1,2026-03-07 11:26:27,STANDBY,0,0,0,0,0,0,0,0,0,0,1.13,10.36,,0.8
1,2026-03-07 11:26:27,STANDBY,0,0,0,0,0,0,0,0,0,0,1.18,9.97,,1.2
1,2026-03-07 11:26:27,STANDBY,0,0,0,0,0,0,0,0,0,0,1.17,8.07,,0.9
1,2026-03-07 11:26:27,STANDBY,0,0,0,0,0,0,0,0,0,0,1.21,6.97,,1.6
1,2026-03-07 11:26:28,STANDBY,0,0,0,0,0,0,0,0,0,0,1.26,7.86,,1.4
1,2026-03-07 11:26:28,STANDBY,0,0,0,0,0,0,0,0,0,0,1.27,12.56,,1.3
1,2026-03-07 11:26:28,STANDBY,0,0,0,0,0,0,0,0,0,0,1.24,9.59,,0.8
1,2026-03-07 11:26:28,STANDBY,0,0,0,0,0,0,0,0,0,0,1.23,7.95,,1.1
1,2026-03-07 11:26:28,STANDBY,0,0,0,0,0,0,0,0,0,0,1.22,8.83,,1.3
1,2026-03-07 11:26:28,STANDBY,0,0,0,0,0,0,0,0,0,0,1.22,11.36,,1.2
1,2026-03-07 11:26:28,STANDBY,0,0,0,0,0,0,0,0,0,0,1.27,11.60,,1.5
1,2026-03-07 11:26:28,STANDBY,0,0,0,0,0,0,0,0,0,0,1.26,8.22,,1.3
1,2026-03-07 11:26:28,STANDBY,0,0,0,0,0,0,0,0,0,0,1.16,7.87,,1.6
1,2026-03-07 11:26:29,STANDBY,0,0,0,0,0,0,0,0,0,0,1.16,10.35,,1.3
1,2026-03-07 11:26:29,STANDBY,0,0,0,0,0,0,0,0,0,0,1.15,12.29,,1.1
1,2026-03-07 11:26:29,STANDBY,0,0,0,0,0,0,0,0,0,0,1.14,9.71,,0.9
1,2026-03-07 11:26:29,STANDBY,0,0,0,0,0,0,0,0,0,0,1.09,6.97,,1.0
1,2026-03-07 11:26:29,STANDBY,0,0,0,0,0,0,0,0,0,0,1.10,8.00,,1.1
1,2026-03-07 11:26:29,STANDBY,0,0,0,0,0,0,0,0,0,0,1.14,10.15,,1.4
1,2026-03-07 11:26:29,STANDBY,0,0,0,0,0,0,0,0,0,0,1.14,12.11,,0.8
1,2026-03-07 11:26:29,STANDBY,0,0,0,0,0,0,0,0,0,0,1.13,9.75,,1.2
1,2026-03-07 11:26:29,STANDBY,0,0,0,0,0,0,0,0,0,0,1.03,8.23,,1.4
1,2026-03-07 11:26:30,STANDBY,0,0,0,0,0,0,0,0,0,0,1.03,10.96,,0.8
1,2026-03-07 11:26:30,STANDBY,0,0,0,0,0,0,0,0,0,0,1.03,11.45,,0.9
1,2026-03-07 11:26:30,STANDBY,0,0,0,0,0,0,0,0,0,0,1.05,10.38,,1.3
1,2026-03-07 11:26:30,STANDBY,0,0,0,0,0,0,0,0,0,0,1.08,7.78,,1.4
1,2026-03-07 11:26:30,STANDBY,0,0,0,0,0,0,0,0,0,0,1.07,7.78,,1.1
1,2026-03-07 11:26:30,STANDBY,0,0,0,0,0,0,0,0,0,0,1.12,9.24,,1.3
1,2026-03-07 11:26:30,STANDBY,0,0,0,0,0,0,0,0,0,0,1.11,9.99,,0.7
1,2026-03-07 11:26:30,STANDBY,0,0,0,0,0,0,0,0,0,0,1.18,9.53,,0.8
1,2026-03-07 11:26:30,STANDBY,0,0,0,0,0,0,0,0,0,0,1.18,9.00,,1.1
1,2026-03-07 11:26:31,STANDBY,0,0,0,0,0,0,0,0,0,0,1.12,10.44,,1.1
1,2026-03-07 11:26:31,STANDBY,0,0,0,0,0,0,0,0,0,0,1.11,10.55,,1.0
1,2026-03-07 11:26:31,STANDBY,0,0,0,0,0,0,0,0,0,0,1.13,9.53,,1.4
1,2026-03-07 11:26:31,STANDBY,0,0,0,0,0,0,0,0,0,0,1.13,7.56,,0.7
1,2026-03-07 11:26:31,STANDBY,0,0,0,0,0,0,0,0,0,0,1.16,9.98,,1.3
1,2026-03-07 11:26:31,STANDBY,0,0,0,0,0,0,0,0,0,0,1.25,10.58,,1.3
1,2026-03-07 11:26:31,STANDBY,0,0,0,0,0,0,0,0,0,0,1.24,10.90,,1.2
1,2026-03-07 11:26:31,STANDBY,0,0,0,0,0,0,0,0,0,0,1.24,7.83,,1.6
1,2026-03-07 11:26:31,STANDBY,0,0,0,0,0,0,0,0,0,0,1.24,8.15,,1.0
1,2026-03-07 11:26:32,STANDBY,0,0,0,0,0,0,0,0,0,0,1.31,10.47,,1.1
1,2026-03-07 11:26:32,STANDBY,0,0,0,0,0,0,0,0,0,0,1.31,11.13,,1.6
1,2026-03-07 11:26:32,STANDBY,0,0,0,0,0,0,0,0,0,0,1.33,9.64,,0.9
1,2026-03-07 11:26:32,STANDBY,0,0,0,0,0,0,0,0,0,0,1.32,7.58,,0.9
1,2026-03-07 11:26:32,STANDBY,0,0,0,0,0,0,0,0,0,0,1.31,10.09,,1.2
1,2026-03-07 11:26:32,STANDBY,0,0,0,0,0,0,0,0,0,0,1.30,11.17,,0.9
1,2026-03-07 11:26:32,STANDBY,0,0,0,0,0,0,0,0,0,0,1.31,11.08,,1.1
1,2026-03-07 11:26:32,STANDBY,0,0,0,0,0,0,0,0,0,0,1.31,6.93,,1.0
1,2026-03-07 11:26:32,STANDBY,0,0,0,0,0,0,0,0,0,0,1.25,8.38,,0.9
1,2026-03-07 11:26:33,STANDBY,0,0,0,0,0,0,0,0,0,0,1.24,10.95,,1.0
1,2026-03-07 11:26:33,STANDBY,0,0,0,0,0,0,0,0,0,0,1.20,12.04,,1.5
1,2026-03-07 11:26:33,STANDBY,0,0,0,0,0,0,0,0,0,0,1.16,8.88,,0.9
1,2026-03-07 11:26:33,STANDBY,0,0,0,0,0,0,0,0,0,0,1.16,7.10,,0.7
1,2026-03-07 11:26:33,STANDBY,0,0,0,0,0,0,0,0,0,0,1.20,10.07,,1.4
1,2026-03-07 11:26:33,STANDBY,0,0,0,0,0,0,0,0,0,0,1.19,11.14,,0.9
1,2026-03-07 11:26:33,STANDBY,0,0,0,0,0,0,0,0,0,0,1.11,10.95,,0.8
1,2026-03-07 11:26:33,STANDBY,0,0,0,0,0,0,0,0,0,0,1.11,7.84,,1.0
1,2026-03-07 11:26:33,STANDBY,0,0,0,0,0,0,0,0,0,0,1.03,8.04,,1.3
1,2026-03-07 11:26:34,STANDBY,0,0,0,0,0,0,0,0,0,0,1.04,11.14,,0.9
1,2026-03-07 11:26:34,STANDBY,0,0,0,0,0,0,0,0,0,0,0.98,11.43,,0.9
1,2026-03-07 11:26:34,STANDBY,0,0,0,0,0,0,0,0,0,0,0.96,9.19,,1.2
1,2026-03-07 11:26:34,STANDBY,0,0,0,0,0,0,0,0,0,0,1.02,7.08,,1.1
1,2026-03-07 11:26:34,STANDBY,0,0,0,0,0,0,0,0,0,0,1.03,10.13,,1.0
1,2026-03-07 11:26:34,STANDBY,0,0,0,0,0,0,0,0,0,0,1.10,12.02,,1.0
1,2026-03-07 11:26:34,STANDBY,0,0,0,0,0,0,0,0,0,0,1.10,10.24,,1.6
1,2026-03-07 11:26:34,STANDBY,0,0,0,0,0,0,0,0,0,0,0.94,6.87,,0.8
1,2026-03-07 11:26:34,STANDBY,0,0,0,0,0,0,0,0,0,0,0.91,8.81,,0.8
1,2026-03-07 11:26:34,STANDBY,0,0,0,0,0,0,0,0,0,0,0.91,12.40,,1.1
1,2026-03-07 11:26:35,STANDBY,0,0,0,0,0,0,0,0,0,0,1.00,10.95,,0.9
1,2026-03-07 11:26:35,STANDBY,0,0,0,0,0,0,0,0,0,0,1.00,7.87,,1.4
1,2026-03-07 11:26:35,STANDBY,0,0,0,0,0,0,0,0,0,0,1.03,6.71,,1.4
1,2026-03-07 11:26:35,STANDBY,0,0,0,0,0,0,0,0,0,0,1.04,10.38,,1.0
1,2026-03-07 11:26:35,STANDBY,0,0,0,0,0,0,0,0,0,0,0.93,12.01,,0.7
1,2026-03-07 11:26:35,STANDBY,0,0,0,0,0,0,0,0,0,0,0.93,10.76,,1.3
1,2026-03-07 11:26:35,STANDBY,0,0,0,0,0,0,0,0,0,0,0.80,6.95,,0.9
1,2026-03-07 11:26:35,STANDBY,0,0,0,0,0,0,0,0,0,0,0.79,7.90,,1.1
1,2026-03-07 11:26:35,STANDBY,0,0,0,0,0,0,0,0,0,0,0.79,11.86,,1.5
1,2026-03-07 11:26:36,STANDBY,0,0,0,0,0,0,0,0,0,0,0.79,12.32,,1.0
1,2026-03-07 11:26:36,STANDBY,0,0,0,0,0,0,0,0,0,0,0.70,8.09,,0.9
1,2026-03-07 11:26:36,STANDBY,0,0,0,0,0,0,0,0,0,0,0.71,6.69,,1.3
1,2026-03-07 11:26:36,STANDBY,0,0,0,0,0,0,0,0,0,0,0.82,10.41,,1.1
1,2026-03-07 11:26:36,STANDBY,0,0,0,0,0,0,0,0,0,0,0.81,11.80,,1.0
1,2026-03-07 11:26:36,STANDBY,0,0,0,0,0,0,0,0,0,0,0.66,10.38,,1.1
1,2026-03-07 11:26:36,STANDBY,0,0,0,0,0,0,0,0,0,0,0.58,7.36,,0.8
1,2026-03-07 11:26:36,STANDBY,0,0,0,0,0,0,0,0,0,0,0.59,7.77,,1.2
1,2026-03-07 11:26:36,STANDBY,0,0,0,0,0,0,0,0,0,0,0.60,11.50,,0.9
1,2026-03-07 11:26:37,STANDBY,0,0,0,0,0,0,0,0,0,0,0.60,12.11,,1.1
1,2026-03-07 11:26:37,STANDBY,0,0,0,0,0,0,0,0,0,0,0.66,8.69,,0.9
1,2026-03-07 11:26:37,STANDBY,0,0,0,0,0,0,0,0,0,0,0.65,6.54,,1.1
1,2026-03-07 11:26:37,STANDBY,0,0,0,0,0,0,0,0,0,0,0.75,10.10,,1.3
1,2026-03-07 11:26:37,STANDBY,0,0,0,0,0,0,0,0,0,0,0.75,11.48,,1.0
1,2026-03-07 11:26:37,STANDBY,0,0,0,0,0,0,0,0,0,0,0.72,10.57,,1.1
1,2026-03-07 11:26:37,STANDBY,0,0,0,0,0,0,0,0,0,0,0.72,7.10,,1.1
1,2026-03-07 11:26:37,STANDBY,0,0,0,0,0,0,0,0,0,0,0.72,7.73,,1.1
1,2026-03-07 11:26:37,STANDBY,0,0,0,0,0,0,0,0,0,0,0.71,11.43,,1.0
1,2026-03-07 11:26:38,STANDBY,0,0,0,0,0,0,0,0,0,0,0.68,12.40,,1.3
1,2026-03-07 11:26:38,STANDBY,0,0,0,0,0,0,0,0,0,0,0.69,9.45,,1.4
1,2026-03-07 11:26:38,STANDBY,0,0,0,0,0,0,0,0,0,0,0.68,6.31,,1.2
1,2026-03-07 11:26:38,STANDBY,0,0,0,0,0,0,0,0,0,0,0.69,8.55,,1.1
1,2026-03-07 11:26:38,STANDBY,0,0,0,0,0,0,0,0,0,0,0.69,11.51,,1.5
1,2026-03-07 11:26:38,STANDBY,0,0,0,0,0,0,0,0,0,0,0.67,11.14,,1.2
1,2026-03-07 11:26:38,STANDBY,0,0,0,0,0,0,0,0,0,0,0.67,8.51,,1.3
1,2026-03-07 11:26:38,STANDBY,0,0,0,0,0,0,0,0,0,0,0.66,7.50,,0.9
1,2026-03-07 11:26:38,STANDBY,0,0,0,0,0,0,0,0,0,0,0.66,10.03,,1.0
1,2026-03-07 11:26:39,STANDBY,0,0,0,0,0,0,0,0,0,0,0.62,11.94,,1.1
1,2026-03-07 11:26:39,STANDBY,0,0,0,0,0,0,0,0,0,0,0.62,9.68,,1.0
1,2026-03-07 11:26:39,STANDBY,0,0,0,0,0,0,0,0,0,0,0.59,7.35,,1.0
1,2026-03-07 11:26:39,STANDBY,0,0,0,0,0,0,0,0,0,0,0.59,9.13,,1.1
1,2026-03-07 11:26:39,STANDBY,0,0,0,0,0,0,0,0,0,0,0.56,11.28,,1.0
1,2026-03-07 11:26:39,STANDBY,0,0,0,0,0,0,0,0,0,0,0.56,11.29,,1.2
1,2026-03-07 11:26:39,STANDBY,0,0,0,0,0,0,0,0,0,0,0.48,8.50,,1.2
1,2026-03-07 11:26:39,STANDBY,0,0,0,0,0,0,0,0,0,0,0.49,7.55,,1.0
1,2026-03-07 11:26:39,STANDBY,0,0,0,0,0,0,0,0,0,0,0.56,9.38,,1.1
1,2026-03-07 11:26:40,STANDBY,0,0,0,0,0,0,0,0,0,0,0.56,11.44,,1.1
1,2026-03-07 11:26:40,STANDBY,0,0,0,0,0,0,0,0,0,0,0.48,11.06,,0.9
1,2026-03-07 11:26:40,STANDBY,0,0,0,0,0,0,0,0,0,0,0.59,7.29,,1.1
1,2026-03-07 11:26:40,STANDBY,0,0,0,0,0,0,0,0,0,0,0.58,7.50,,1.2
1,2026-03-07 11:26:40,STANDBY,0,0,0,0,0,0,0,0,0,0,0.60,9.38,,1.1
1,2026-03-07 11:26:40,STANDBY,0,0,0,0,0,0,0,0,0,0,0.60,11.90,,1.2
1,2026-03-07 11:26:40,STANDBY,0,0,0,0,0,0,0,0,0,0,0.45,10.69,,1.1
1,2026-03-07 11:26:40,STANDBY,0,0,0,0,0,0,0,0,0,0,0.44,8.77,,0.9
1,2026-03-07 11:26:40,STANDBY,0,0,0,0,0,0,0,0,0,0,0.37,6.38,,1.2
1,2026-03-07 11:26:41,STANDBY,0,0,0,0,0,0,0,0,0,0,0.37,7.83,,1.0
1,2026-03-07 11:26:41,STANDBY,0,0,0,0,0,0,0,0,0,0,0.33,9.54,,1.1
1,2026-03-07 11:26:41,STANDBY,0,0,0,0,0,0,0,0,0,0,0.32,10.18,,1.2
1,2026-03-07 11:26:41,STANDBY,0,0,0,0,0,0,0,0,0,0,0.20,9.81,,1.0
1,2026-03-07 11:26:41,STANDBY,0,0,0,0,0,0,0,0,0,0,0.21,10.26,,0.9
1,2026-03-07 11:26:41,STANDBY,0,0,0,0,0,0,0,0,0,0,0.01,11.45,,1.3
1,2026-03-07 11:26:41,STANDBY,0,0,0,0,0,0,0,0,0,0,0.01,10.03,,1.1
1,2026-03-07 11:26:41,STANDBY,0,0,0,0,0,0,0,0,0,0,-0.10,10.08,,1.2
1,2026-03-07 11:26:41,STANDBY,0,0,0,0,0,0,0,0,0,0,-0.28,16.36,,0.8
1,2026-03-07 11:26:42,STANDBY,0,0,0,0,0,0,0,0,0,0,-0.28,9.12,,1.4
1,2026-03-07 11:26:42,STANDBY,0,0,0,0,0,0,0,0,0,0,0.01,9.46,,1.3
1,2026-03-07 11:26:42,STANDBY,0,0,0,0,0,0,0,0,0,0,0.01,9.32,,1.1
1,2026-03-07 11:26:42,STANDBY,0,0,0,0,0,0,0,0,0,0,0.07,9.54,,1.1
1,2026-03-07 11:26:42,STANDBY,0,0,0,0,0,0,0,0,0,0,0.07,9.47,,1.2
1,2026-03-07 11:26:42,STANDBY,0,0,0,0,0,0,0,0,0,0,0.07,9.64,,1.2
1,2026-03-07 11:26:42,STANDBY,0,0,0,0,0,0,0,0,0,0,0.08,9.47,,1.4
1,2026-03-07 11:26:42,STANDBY,0,0,0,0,0,0,0,0,0,0,0.13,9.54,,1.1
1,2026-03-07 11:26:42,STANDBY,0,0,0,0,0,0,0,0,0,0,0.12,9.52,,1.3
1,2026-03-07 11:26:43,STANDBY,0,0,0,0,0,0,0,0,0,0,0.14,9.51,,1.3
1,2026-03-07 11:26:43,STANDBY,0,0,0,0,0,0,0,0,0,0,0.13,9.57,,1.2
1,2026-03-07 11:26:43,STANDBY,0,0,0,0,0,0,0,0,0,0,0.13,9.68,,1.2
1,2026-03-07 11:26:43,STANDBY,0,0,0,0,0,0,0,0,0,0,0.14,9.65,,1.3
1,2026-03-07 11:26:43,STANDBY,0,0,0,0,0,0,0,0,0,0,0.12,9.65,,1.3
1,2026-03-07 11:26:43,STANDBY,0,0,0,0,0,0,0,0,0,0,0.12,9.64,,1.3
1,2026-03-07 11:26:43,STANDBY,0,0,0,0,0,0,0,0,0,0,0.12,9.60,,1.3
1,2026-03-07 11:26:43,STANDBY,0,0,0,0,0,0,0,0,0,0,0.10,9.65,,1.3
1,2026-03-07 11:26:43,STANDBY,0,0,0,0,0,0,0,0,0,0,0.11,9.66,,1.2
1,2026-03-07 11:26:43,STANDBY,0,0,0,0,0,0,0,0,0,0,0.09,9.54,,1.3
1,2026-03-07 11:26:44,STANDBY,0,0,0,0,0,0,0,0,0,0,0.08,9.64,,1.2
1,2026-03-07 11:26:44,STANDBY,0,0,0,0,0,0,0,0,0,0,0.05,9.62,,1.2
1,2026-03-07 11:26:44,STANDBY,0,0,0,0,0,0,0,0,0,0,0.05,9.62,,1.1
1,2026-03-07 11:26:44,STANDBY,0,0,0,0,0,0,0,0,0,0,0.07,9.63,,1.0
1,2026-03-07 11:26:44,STANDBY,0,0,0,0,0,0,0,0,0,0,0.07,9.60,,1.3
1,2026-03-07 11:26:44,STANDBY,0,0,0,0,0,0,0,0,0,0,0.07,9.65,,0.9
1,2026-03-07 11:26:44,STANDBY,0,0,0,0,0,0,0,0,0,0,0.08,9.63,,1.2
1,2026-03-07 11:26:44,STANDBY,0,0,0,0,0,0,0,0,0,0,0.11,9.65,,1.0
1,2026-03-07 11:26:44,STANDBY,0,0,0,0,0,0,0,0,0,0,0.11,9.62,,1.3
1,2026-03-07 11:26:45,STANDBY,0,0,0,0,0,0,0,0,0,0,0.10,9.77,,1.2
1,2026-03-07 11:26:45,STANDBY,0,0,0,0,0,0,0,0,0,0,0.10,9.65,,1.1
1,2026-03-07 11:26:45,STANDBY,0,0,0,0,0,0,0,0,0,0,0.10,9.66,,1.3
1,2026-03-07 11:26:45,STANDBY,0,0,0,0,0,0,0,0,0,0,0.06,9.83,,1.1
1,2026-03-07 11:26:45,STANDBY,0,0,0,0,0,0,0,0,0,0,0.06,9.62,,1.4
1,2026-03-07 11:26:45,STANDBY,0,0,0,0,0,0,0,0,0,0,-0.00,9.64,,1.3
1,2026-03-07 11:26:45,STANDBY,0,0,0,0,0,0,0,0,0,0,-0.00,9.61,,1.0
1,2026-03-07 11:26:45,STANDBY,0,0,0,0,0,0,0,0,0,0,-0.02,9.63,,1.1
1,2026-03-07 11:26:45,STANDBY,0,0,0,0,0,0,0,0,0,0,-0.02,9.63,,1.1
1,2026-03-07 11:26:46,STANDBY,0,0,0,0,0,0,0,0,0,0,-0.05,9.62,,1.1
1,2026-03-07 11:26:46,STANDBY,0,0,0,0,0,0,0,0,0,0,-0.06,9.64,,1.2
1,2026-03-07 11:26:46,STANDBY,0,0,0,0,0,0,0,0,0,0,-0.09,9.65,,1.2
1,2026-03-07 11:26:46,STANDBY,0,0,0,0,0,0,0,0,0,0,-0.08,9.64,,1.2
1,2026-03-07 11:26:46,STANDBY,0,0,0,0,0,0,0,0,0,0,-0.08,9.65,,1.1
1,2026-03-07 11:26:46,STANDBY,0,0,0,0,0,0,0,0,0,0,-0.08,9.65,,1.2
1,2026-03-07 11:26:46,STANDBY,0,0,0,0,0,0,0,0,0,0,-0.07,9.64,,1.4
1,2026-03-07 11:26:46,STANDBY,0,0,0,0,0,0,0,0,0,0,-0.08,9.60,,1.0
1,2026-03-07 11:26:46,STANDBY,0,0,0,0,0,0,0,0,0,0,-0.07,9.66,,1.0
1,2026-03-07 11:26:47,STANDBY,0,0,0,0,0,0,0,0,0,0,-0.07,9.65,,1.4
1,2026-03-07 11:26:47,STANDBY,0,0,0,0,0,0,0,0,0,0,-0.07,9.64,,1.0
1,2026-03-07 11:26:47,STANDBY,0,0,0,0,0,0,0,0,0,0,-0.03,9.64,,1.2
1,2026-03-07 11:26:47,STANDBY,0,0,0,0,0,0,0,0,0,0,-0.03,9.65,,1.1
1,2026-03-07 11:26:47,STANDBY,0,0,0,0,0,0,0,0,0,0,-0.02,9.65,,1.0
1,2026-03-07 11:26:47,STANDBY,0,0,0,0,0,0,0,0,0,0,-0.02,9.64,,1.3
1,2026-03-07 11:26:47,STANDBY,0,0,0,0,0,0,0,0,0,0,-0.00,9.64,,1.2
1,2026-03-07 11:26:47,STANDBY,0,0,0,0,0,0,0,0,0,0,-0.01,9.64,,1.2
1,2026-03-07 11:26:47,STANDBY,0,0,0,0,0,0,0,0,0,0,-0.04,9.64,,1.2
1,2026-03-07 11:26:48,STANDBY,0,0,0,0,0,0,0,0,0,0,-0.04,9.66,,1.2
1,2026-03-07 11:26:48,STANDBY,0,0,0,0,0,0,0,0,0,0,-0.09,9.63,,1.1
1,2026-03-07 11:26:48,STANDBY,0,0,0,0,0,0,0,0,0,0,-0.08,9.63,,1.1
1,2026-03-07 11:26:48,STANDBY,0,0,0,0,0,0,0,0,0,0,-0.13,9.63,,1.2
1,2026-03-07 11:26:48,STANDBY,0,0,0,0,0,0,0,0,0,0,-0.14,9.63,,1.2
1,2026-03-07 11:26:48,STANDBY,0,0,0,0,0,0,0,0,0,0,-0.19,9.64,,1.1
1,2026-03-07 11:26:48,STANDBY,0,0,0,0,0,0,0,0,0,0,-0.19,9.65,,1.2
1,2026-03-07 11:26:48,STANDBY,0,0,0,0,0,0,0,0,0,0,-0.24,9.64,,1.1
1,2026-03-07 11:26:48,STANDBY,0,0,0,0,0,0,0,0,0,0,-0.30,9.64,,1.3
1,2026-03-07 11:26:49,STANDBY,0,0,0,0,0,0,0,0,0,0,-0.30,9.65,,1.3
1,2026-03-07 11:26:49,STANDBY,0,0,0,0,0,0,0,0,0,0,-0.34,9.62,,1.0
1,2026-03-07 11:26:49,STANDBY,0,0,0,0,0,0,0,0,0,0,-0.35,9.64,,1.0
1,2026-03-07 11:26:49,STANDBY,0,0,0,0,0,0,0,0,0,0,-0.36,9.65,,1.0
1,2026-03-07 11:26:49,STANDBY,0,0,0,0,0,0,0,0,0,0,-0.36,9.65,,0.9
1,2026-03-07 11:26:49,STANDBY,0,0,0,0,0,0,0,0,0,0,-0.40,9.66,,1.2
1,2026-03-07 11:26:49,STANDBY,0,0,0,0,0,0,0,0,0,0,-0.40,9.65,,1.3
1,2026-03-07 11:26:49,STANDBY,0,0,0,0,0,0,0,0,0,0,-0.48,9.65,,1.1
1,2026-03-07 11:26:49,STANDBY,0,0,0,0,0,0,0,0,0,0,-0.49,9.63,,0.9
1,2026-03-07 11:26:50,STANDBY,0,0,0,0,0,0,0,0,0,0,-0.58,9.65,,1.3
1,2026-03-07 11:26:50,STANDBY,0,0,0,0,0,0,0,0,0,0,-0.58,9.63,,1.1
1,2026-03-07 11:26:50,STANDBY,0,0,0,0,0,0,0,0,0,0,-0.65,9.63,,1.1
1,2026-03-07 11:26:50,STANDBY,0,0,0,0,0,0,0,0,0,0,-0.65,9.80,,1.0
1,2026-03-07 11:26:50,STANDBY,0,0,0,0,0,0,0,0,0,0,-0.72,9.64,,1.3
1,2026-03-07 11:26:50,STANDBY,0,0,0,0,0,0,0,0,0,0,-0.70,9.63,,1.2
1,2026-03-07 11:26:50,STANDBY,0,0,0,0,0,0,0,0,0,0,-0.71,9.64,,1.3
1,2026-03-07 11:26:50,STANDBY,0,0,0,0,0,0,0,0,0,0,-0.68,9.65,,1.3
1,2026-03-07 11:26:50,STANDBY,0,0,0,0,0,0,0,0,0,0,-0.68,9.65,,1.1
1,2026-03-07 11:26:51,STANDBY,0,0,0,0,0,0,0,0,0,0,-0.61,9.64,,1.1
1,2026-03-07 11:26:51,STANDBY,0,0,0,0,0,0,0,0,0,0,-0.61,9.64,,1.3
1,2026-03-07 11:26:51,STANDBY,0,0,0,0,0,0,0,0,0,0,-0.52,9.65,,1.3
1,2026-03-07 11:26:51,STANDBY,0,0,0,0,0,0,0,0,0,0,-0.52,9.65,,1.3
1,2026-03-07 11:26:51,STANDBY,0,0,0,0,0,0,0,0,0,0,-0.40,9.66,,1.2
1,2026-03-07 11:26:51,STANDBY,0,0,0,0,0,0,0,0,0,0,-0.40,9.65,,1.4
1,2026-03-07 11:26:51,STANDBY,0,0,0,0,0,0,0,0,0,0,-0.30,9.64,,1.3
1,2026-03-07 11:26:51,STANDBY,0,0,0,0,0,0,0,0,0,0,-0.30,9.65,,1.4
1,2026-03-07 11:26:51,STANDBY,0,0,0,0,0,0,0,0,0,0,-0.34,9.63,,1.2
1,2026-03-07 11:26:52,STANDBY,0,0,0,0,0,0,0,0,0,0,-0.34,9.64,,1.1
1,2026-03-07 11:26:52,STANDBY,0,0,0,0,0,0,0,0,0,0,-0.50,9.64,,1.5
1,2026-03-07 11:26:52,STANDBY,0,0,0,0,0,0,0,0,0,0,-0.51,9.65,,1.1
1,2026-03-07 11:26:52,STANDBY,0,0,0,0,0,0,0,0,0,0,-0.59,9.63,,0.8
1,2026-03-07 11:26:52,STANDBY,0,0,0,0,0,0,0,0,0,0,-0.78,9.66,,0.9
1,2026-03-07 11:26:52,STANDBY,0,0,0,0,0,0,0,0,0,0,-0.78,9.65,,1.4
1,2026-03-07 11:26:52,STANDBY,0,0,0,0,0,0,0,0,0,0,-0.73,9.64,,1.0
1,2026-03-07 11:26:52,STANDBY,0,0,0,0,0,0,0,0,0,0,-0.74,9.70,,1.4
1,2026-03-07 11:26:52,STANDBY,0,0,0,0,0,0,0,0,0,0,-0.50,9.75,,1.2
1,2026-03-07 11:26:53,STANDBY,0,0,0,0,0,0,0,0,0,0,-0.50,9.46,,0.9
1,2026-03-07 11:26:53,STANDBY,0,0,0,0,0,0,0,0,0,0,-0.02,9.60,,1.2
1,2026-03-07 11:26:53,STANDBY,0,0,0,0,0,0,0,0,0,0,-0.01,9.56,,1.1
1,2026-03-07 11:26:53,STANDBY,0,0,0,0,0,0,0,0,0,0,0.03,9.77,,1.1
1,2026-03-07 11:26:53,STANDBY,0,0,0,0,0,0,0,0,0,0,0.03,9.70,,1.1
1,2026-03-07 11:26:53,STANDBY,0,0,0,0,0,0,0,0,0,0,-0.12,9.61,,1.2
1,2026-03-07 11:26:53,STANDBY,0,0,0,0,0,0,0,0,0,0,-0.13,9.69,,1.4
1,2026-03-07 11:26:53,STANDBY,0,0,0,0,0,0,0,0,0,0,-0.23,9.61,,1.1
1,2026-03-07 11:26:53,STANDBY,0,0,0,0,0,0,0,0,0,0,-0.23,9.66,,1.0
1,2026-03-07 11:26:54,STANDBY,0,0,0,0,0,0,0,0,0,0,-0.16,9.64,,1.1
1,2026-03-07 11:26:54,STANDBY,0,0,0,0,0,0,0,0,0,0,-0.37,9.61,,1.0
1,2026-03-07 11:26:54,STANDBY,0,0,0,0,0,0,0,0,0,0,-0.37,9.69,,1.1
1,2026-03-07 11:26:54,STANDBY,0,0,0,0,0,0,0,0,0,0,-0.55,9.63,,1.0
1,2026-03-07 11:26:54,STANDBY,0,0,0,0,0,0,0,0,0,0,-0.56,9.50,,1.2
1,2026-03-07 11:26:54,STANDBY,0,0,0,0,0,0,0,0,0,0,-0.55,9.62,,1.2
1,2026-03-07 11:26:54,STANDBY,0,0,0,0,0,0,0,0,0,0,-0.55,9.86,,1.3
1,2026-03-07 11:26:54,STANDBY,0,0,0,0,0,0,0,0,0,0,-0.70,9.79,,1.2
1,2026-03-07 11:26:54,STANDBY,0,0,0,0,0,0,0,0,0,0,-0.71,9.65,,0.9
1,2026-03-07 11:26:54,STANDBY,0,0,0,0,0,0,0,0,0,0,-0.70,9.62,,1.0
1,2026-03-07 11:26:55,STANDBY,0,0,0,0,0,0,0,0,0,0,-0.70,9.63,,1.2
1,2026-03-07 11:26:55,STANDBY,0,0,0,0,0,0,0,0,0,0,-0.54,9.60,,0.9
1,2026-03-07 11:26:55,STANDBY,0,0,0,0,0,0,0,0,0,0,-0.54,9.73,,1.4
1,2026-03-07 11:26:55,STANDBY,0,0,0,0,0,0,0,0,0,0,-0.53,9.75,,1.0
1,2026-03-07 11:26:55,STANDBY,0,0,0,0,0,0,0,0,0,0,-0.54,9.67,,1.0
1,2026-03-07 11:26:55,STANDBY,0,0,0,0,0,0,0,0,0,0,-0.73,9.57,,1.1
1,2026-03-07 11:26:55,STANDBY,0,0,0,0,0,0,0,0,0,0,-0.73,10.16,,1.4
1,2026-03-07 11:26:55,STANDBY,0,0,0,0,0,0,0,0,0,0,-0.79,9.83,,1.3
1,2026-03-07 11:26:55,STANDBY,0,0,0,0,0,0,0,0,0,0,-0.89,9.88,,1.6
1,2026-03-07 11:26:56,STANDBY,0,0,0,0,0,0,0,0,0,0,-0.89,10.11,,1.3
1,2026-03-07 11:26:56,STANDBY,0,0,0,0,0,0,0,0,0,0,-0.81,10.66,,1.3
1,2026-03-07 11:26:56,STANDBY,0,0,0,0,0,0,0,0,0,0,-0.81,11.34,,1.0
1,2026-03-07 11:26:56,STANDBY,0,0,0,0,0,0,0,0,0,0,-0.78,10.32,,0.9
1,2026-03-07 11:26:56,STANDBY,0,0,0,0,0,0,0,0,0,0,-0.78,10.00,,0.8
1,2026-03-07 11:26:56,STANDBY,0,0,0,0,0,0,0,0,0,0,-0.67,11.41,,0.8
1,2026-03-07 11:26:56,STANDBY,0,0,0,0,0,0,0,0,0,0,-0.66,9.33,,1.2
1,2026-03-07 11:26:56,STANDBY,0,0,0,0,0,0,0,0,0,0,-0.73,11.65,,1.1
1,2026-03-07 11:26:56,STANDBY,0,0,0,0,0,0,0,0,0,0,-0.74,11.15,,0.8
1,2026-03-07 11:26:57,STANDBY,0,0,0,0,0,0,0,0,0,0,-0.70,10.01,,1.2
1,2026-03-07 11:26:57,STANDBY,0,0,0,0,0,0,0,0,0,0,-0.70,9.75,,0.9
1,2026-03-07 11:26:57,STANDBY,0,0,0,0,0,0,0,0,0,0,-0.67,10.11,,1.4
1,2026-03-07 11:26:57,STANDBY,0,0,0,0,0,0,0,0,0,0,-0.67,10.03,,1.1
1,2026-03-07 11:26:57,STANDBY,0,0,0,0,0,0,0,0,0,0,-0.39,9.97,,1.4
1,2026-03-07 11:26:57,STANDBY,0,0,0,0,0,0,0,0,0,0,-0.05,10.29,,0.9
1,2026-03-07 11:26:57,STANDBY,0,0,0,0,0,0,0,0,0,0,-0.05,10.29,,1.5
1,2026-03-07 11:26:57,STANDBY,0,0,0,0,0,0,0,0,0,0,0.55,9.24,,1.3
1,2026-03-07 11:26:57,STANDBY,0,0,0,0,0,0,0,0,0,0,0.55,8.09,,1.5
1,2026-03-07 11:26:58,STANDBY,0,0,0,0,0,0,0,0,0,0,0.51,10.17,,1.5
1,2026-03-07 11:26:58,STANDBY,0,0,0,0,0,0,0,0,0,0,0.50,10.02,,1.4
1,2026-03-07 11:26:58,STANDBY,0,0,0,0,0,0,0,0,0,0,0.44,11.04,,1.2
1,2026-03-07 11:26:58,STANDBY,0,0,0,0,0,0,0,0,0,0,0.45,10.85,,1.2
1,2026-03-07 11:26:58,STANDBY,0,0,0,0,0,0,0,0,0,0,0.73,9.42,,1.0
1,2026-03-07 11:26:58,STANDBY,0,0,0,0,0,0,0,0,0,0,0.73,327.10,,1.0
1,2026-03-07 11:26:58,STANDBY,0,0,0,0,0,0,0,0,0,0,1.18,10.32,,1.2
1,2026-03-07 11:26:58,STANDBY,0,0,0,0,0,0,0,0,0,0,1.18,10.74,,1.3
1,2026-03-07 11:26:58,STANDBY,0,0,0,0,0,0,0,0,0,0,0.82,8.18,,1.1
1,2026-03-07 11:26:59,STANDBY,0,0,0,0,0,0,0,0,0,0,0.82,10.01,,1.4
1,2026-03-07 11:26:59,STANDBY,0,0,0,0,0,0,0,0,0,0,1.11,11.08,,1.4
1,2026-03-07 11:26:59,STANDBY,0,0,0,0,0,0,0,0,0,0,1.04,9.11,,1.3
1,2026-03-07 11:26:59,STANDBY,0,0,0,0,0,0,0,0,0,0,1.04,9.42,,1.3
1,2026-03-07 11:26:59,STANDBY,0,0,0,0,0,0,0,0,0,0,1.10,11.21,,1.3
1,2026-03-07 11:26:59,STANDBY,0,0,0,0,0,0,0,0,0,0,1.10,8.63,,1.2
1,2026-03-07 11:26:59,STANDBY,0,0,0,0,0,0,0,0,0,0,1.28,10.09,,1.4
1,2026-03-07 11:26:59,STANDBY,0,0,0,0,0,0,0,0,0,0,1.29,11.04,,1.2
1,2026-03-07 11:26:59,STANDBY,0,0,0,0,0,0,0,0,0,0,1.49,9.54,,1.3
1,2026-03-07 11:27:00,STANDBY,0,0,0,0,0,0,0,0,0,0,1.48,10.14,,1.0
1,2026-03-07 11:27:00,STANDBY,0,0,0,0,0,0,0,0,0,0,2.11,9.92,,1.2
1,2026-03-07 11:27:00,STANDBY,0,0,0,0,0,0,0,0,0,0,2.12,8.24,,1.4
1,2026-03-07 11:27:00,STANDBY,0,0,0,0,0,0,0,0,0,0,2.57,8.81,,1.3
1,2026-03-07 11:27:00,STANDBY,0,0,0,0,0,0,0,0,0,0,2.70,9.93,,1.5
1,2026-03-07 11:27:00,STANDBY,0,0,0,0,0,0,0,0,0,0,2.68,9.77,,1.1
1,2026-03-07 11:27:00,STANDBY,0,0,0,0,0,0,0,0,0,0,2.73,10.00,,1.6
1,2026-03-07 11:27:00,STANDBY,0,0,0,0,0,0,0,0,0,0,2.74,8.58,,1.5
1,2026-03-07 11:27:00,STANDBY,0,0,0,0,0,0,0,0,0,0,3.00,9.73,,1.1
1,2026-03-07 11:27:01,STANDBY,0,0,0,0,0,0,0,0,0,0,3.00,8.55,,1.4
1,2026-03-07 11:27:01,STANDBY,0,0,0,0,0,0,0,0,0,0,3.01,11.38,,1.3
1,2026-03-07 11:27:01,STANDBY,0,0,0,0,0,0,0,0,0,0,2.76,10.38,,1.1
1,2026-03-07 11:27:01,STANDBY,0,0,0,0,0,0,0,0,0,0,2.76,10.49,,1.5
1,2026-03-07 11:27:01,STANDBY,0,0,0,0,0,0,0,0,0,0,2.83,11.58,,1.1
1,2026-03-07 11:27:01,STANDBY,0,0,0,0,0,0,0,0,0,0,2.82,9.90,,1.4
1,2026-03-07 11:27:01,STANDBY,0,0,0,0,0,0,0,0,0,0,3.00,8.42,,1.1
1,2026-03-07 11:27:01,STANDBY,0,0,0,0,0,0,0,0,0,0,3.01,10.25,,1.3
1,2026-03-07 11:27:01,STANDBY,0,0,0,0,0,0,0,0,0,0,3.50,9.03,,1.1
1,2026-03-07 11:27:02,STANDBY,0,0,0,0,0,0,0,0,0,0,3.49,8.55,,1.2
1,2026-03-07 11:27:02,STANDBY,0,0,0,0,0,0,0,0,0,0,3.81,9.92,,1.3
1,2026-03-07 11:27:02,STANDBY,0,0,0,0,0,0,0,0,0,0,3.80,6.08,,1.3
1,2026-03-07 11:27:02,STANDBY,0,0,0,0,0,0,0,0,0,0,3.58,11.31,,1.0
1,2026-03-07 11:27:02,STANDBY,0,0,0,0,0,0,0,0,0,0,3.57,9.81,,1.0
1,2026-03-07 11:27:02,STANDBY,0,0,0,0,0,0,0,0,0,0,3.69,8.50,,1.2
1,2026-03-07 11:27:02,STANDBY,0,0,0,0,0,0,0,0,0,0,3.70,9.39,,1.3
1,2026-03-07 11:27:02,STANDBY,0,0,0,0,0,0,0,0,0,0,4.30,10.40,,1.1
1,2026-03-07 11:27:02,STANDBY,0,0,0,0,0,0,0,0,0,0,4.48,5.77,,1.2
1,2026-03-07 11:27:03,STANDBY,0,0,0,0,0,0,0,0,0,0,4.48,11.26,,1.2
1,2026-03-07 11:27:03,STANDBY,0,0,0,0,0,0,0,0,0,0,4.56,10.48,,1.0
1,2026-03-07 11:27:03,STANDBY,0,0,0,0,0,0,0,0,0,0,4.55,9.52,,1.0
1,2026-03-07 11:27:03,STANDBY,0,0,0,0,0,0,0,0,0,0,4.82,9.79,,1.3
1,2026-03-07 11:27:03,STANDBY,0,0,0,0,0,0,0,0,0,0,4.84,5.97,,1.1
1,2026-03-07 11:27:03,STANDBY,0,0,0,0,0,0,0,0,0,0,5.34,10.93,,1.3
1,2026-03-07 11:27:03,STANDBY,0,0,0,0,0,0,0,0,0,0,5.34,11.38,,0.9
1,2026-03-07 11:27:03,STANDBY,0,0,0,0,0,0,0,0,0,0,5.80,7.56,,1.3
1,2026-03-07 11:27:03,STANDBY,0,0,0,0,0,0,0,0,0,0,5.80,319.18,,1.3
1,2026-03-07 11:27:04,STANDBY,0,0,0,0,0,0,0,0,0,0,6.40,8.13,,1.2
1,2026-03-07 11:27:04,STANDBY,0,0,0,0,0,0,0,0,0,0,6.40,6.73,,1.3
1,2026-03-07 11:27:04,STANDBY,0,0,0,0,0,0,0,0,0,0,6.27,10.30,,1.3
1,2026-03-07 11:27:04,STANDBY,0,0,0,0,0,0,0,0,0,0,6.27,9.33,,1.1
1,2026-03-07 11:27:04,STANDBY,0,0,0,0,0,0,0,0,0,0,6.60,9.50,,0.7
1,2026-03-07 11:27:04,STANDBY,0,0,0,0,0,0,0,0,0,0,6.89,9.17,,1.0
1,2026-03-07 11:27:04,STANDBY,0,0,0,0,0,0,0,0,0,0,6.89,6.25,,1.2
1,2026-03-07 11:27:04,STANDBY,0,0,0,0,0,0,0,0,0,0,7.32,12.56,,1.0
1,2026-03-07 11:27:04,STANDBY,0,0,0,0,0,0,0,0,0,0,7.33,11.05,,0.9
1,2026-03-07 11:27:04,STANDBY,0,0,0,0,0,0,0,0,0,0,7.79,9.13,,1.2
1,2026-03-07 11:27:05,STANDBY,0,0,0,0,0,0,0,0,0,0,7.79,9.58,,0.9
1,2026-03-07 11:27:05,STANDBY,0,0,0,0,0,0,0,0,0,0,7.89,8.26,,1.4
1,2026-03-07 11:27:05,STANDBY,0,0,0,0,0,0,0,0,0,0,7.87,7.83,,1.3
1,2026-03-07 11:27:05,STANDBY,0,0,0,0,0,0,0,0,0,0,8.04,10.36,,1.2
1,2026-03-07 11:27:05,STANDBY,0,0,0,0,0,0,0,0,0,0,8.04,10.79,,1.1
1,2026-03-07 11:27:05,STANDBY,0,0,0,0,0,0,0,0,0,0,7.75,9.12,,1.4
1,2026-03-07 11:27:05,STANDBY,0,0,0,0,0,0,0,0,0,0,7.75,10.39,,0.9
1,2026-03-07 11:27:05,STANDBY,0,0,0,0,0,0,0,0,0,0,7.84,5.52,,1.2
1,2026-03-07 11:27:05,STANDBY,0,0,0,0,0,0,0,0,0,0,7.85,10.59,,1.3
1,2026-03-07 11:27:06,STANDBY,0,0,0,0,0,0,0,0,0,0,7.96,11.74,,1.4
1,2026-03-07 11:27:06,STANDBY,0,0,0,0,0,0,0,0,0,0,8.10,10.14,,1.1
1,2026-03-07 11:27:06,STANDBY,0,0,0,0,0,0,0,0,0,0,8.11,7.77,,1.3
1,2026-03-07 11:27:06,STANDBY,0,0,0,0,0,0,0,0,0,0,8.14,7.34,,0.9
1,2026-03-07 11:27:06,STANDBY,0,0,0,0,0,0,0,0,0,0,8.14,11.48,,1.1
1,2026-03-07 11:27:06,STANDBY,0,0,0,0,0,0,0,0,0,0,8.58,11.45,,1.3
1,2026-03-07 11:27:06,STANDBY,0,0,0,0,0,0,0,0,0,0,8.57,9.57,,1.3
1,2026-03-07 11:27:06,STANDBY,0,0,0,0,0,0,0,0,0,0,8.66,11.20,,1.1
1,2026-03-07 11:27:06,STANDBY,0,0,0,0,0,0,0,0,0,0,8.67,9.05,,1.2
1,2026-03-07 11:27:07,STANDBY,0,0,0,0,0,0,0,0,0,0,8.72,6.71,,1.5
1,2026-03-07 11:27:07,STANDBY,0,0,0,0,0,0,0,0,0,0,8.72,10.93,,0.8
1,2026-03-07 11:27:07,STANDBY,0,0,0,0,0,0,0,0,0,0,8.87,11.92,,1.3
1,2026-03-07 11:27:07,STANDBY,0,0,0,0,0,0,0,0,0,0,8.87,10.70,,1.3
1,2026-03-07 11:27:07,STANDBY,0,0,0,0,0,0,0,0,0,0,8.78,10.73,,1.3
1,2026-03-07 11:27:07,STANDBY,0,0,0,0,0,0,0,0,0,0,8.78,10.55,,1.2
1,2026-03-07 11:27:07,STANDBY,0,0,0,0,0,0,0,0,0,0,8.96,6.53,,1.2
1,2026-03-07 11:27:07,STANDBY,0,0,0,0,0,0,0,0,0,0,8.95,12.05,,1.4
1,2026-03-07 11:27:07,STANDBY,0,0,0,0,0,0,0,0,0,0,9.27,10.51,,1.0
1,2026-03-07 11:27:08,STANDBY,0,0,0,0,0,0,0,0,0,0,9.26,8.74,,1.4
1,2026-03-07 11:27:08,STANDBY,0,0,0,0,0,0,0,0,0,0,9.65,10.27,,1.3
1,2026-03-07 11:27:08,STANDBY,0,0,0,0,0,0,0,0,0,0,9.60,7.70,,1.2
1,2026-03-07 11:27:08,STANDBY,0,0,0,0,0,0,0,0,0,0,9.59,9.15,,1.3
1,2026-03-07 11:27:08,STANDBY,0,0,0,0,0,0,0,0,0,0,9.92,12.58,,1.1
1,2026-03-07 11:27:08,STANDBY,0,0,0,0,0,0,0,0,0,0,9.92,11.15,,1.0
1,2026-03-07 11:27:08,STANDBY,0,0,0,0,0,0,0,0,0,0,10.05,10.25,,0.8
