Phase,Timestamp,State,Lat,Lon,Heading,TargetAngle,Dist,Roll,Pitch,L_Speed,R_Speed,Fix,RelAlt,AccelNorm,AI_CX,ToF_Dist
2,2026-03-07 10:08:06,TURN,30.375271,130.960218,200.4,41.5,43.47,10,25,1.00,0.00,1,0,0,,
2,2026-03-07 10:08:06,TURN,30.375271,130.960218,222.4,41.5,43.47,8,39,0.00,1.00,1,0,0,,
2,2026-03-07 10:08:07,TURN,30.375271,130.960218,255.9,41.5,43.47,-8,42,0.00,1.00,1,0,0,,
2,2026-03-07 10:08:07,TURN,30.375271,130.960218,256.0,41.5,43.47,-12,35,0.00,1.00,1,0,0,,
2,2026-03-07 10:08:07,TURN,30.375271,130.960218,272.9,41.5,43.47,-13,41,0.00,1.00,1,0,0,,
2,2026-03-07 10:08:07,TURN,30.375271,130.960218,280.8,41.5,43.47,-0,40,0.00,1.00,1,0,0,,
2,2026-03-07 10:08:08,TURN,30.375271,130.960218,285.8,41.5,43.47,1,34,0.00,1.00,1,0,0,,
2,2026-03-07 10:08:08,TURN,30.375271,130.960218,289.6,41.5,43.47,2,30,0.00,1.00,1,0,0,,
2,2026-03-07 10:08:08,TURN,30.375271,130.960218,293.1,41.5,43.47,2,23,0.00,1.00,1,0,0,,
2,2026-03-07 10:08:08,TURN,30.375271,130.960218,295.2,41.5,43.47,1,19,0.00,1.00,1,0,0,,
2,2026-03-07 10:08:08,TURN,30.375271,130.960218,296.8,41.5,43.47,1,17,0.00,1.00,1,0,0,,
2,2026-03-07 10:08:09,TURN,30.375271,130.960218,297.3,41.5,43.47,1,17,0.00,1.00,1,0,0,,
2,2026-03-07 10:08:09,TURN,30.375271,130.960218,297.3,41.5,43.47,0,16,0.00,1.00,1,0,0,,
2,2026-03-07 10:08:09,TURN,30.375271,130.960218,297.4,41.5,43.47,0,16,0.00,1.00,1,0,0,,
2,2026-03-07 10:08:09,TURN,30.375271,130.960218,297.8,41.5,43.47,0,16,0.00,1.00,1,0,0,,
2,2026-03-07 10:08:10,TURN,30.375271,130.960218,298.1,41.5,43.47,0,15,0.00,1.00,1,0,0,,
2,2026-03-07 10:08:10,TURN,30.375271,130.960218,298.1,41.4,43.49,0,15,0.00,1.00,1,0,0,,
2,2026-03-07 10:08:10,TURN,30.375271,130.960218,298.1,41.4,43.50,0,15,0.00,1.00,1,0,0,,
2,2026-03-07 10:08:10,TURN,30.375270,130.960218,298.5,41.4,43.52,0,14,0.00,1.00,1,0,0,,
2,2026-03-07 10:08:10,TURN,30.375270,130.960218,298.5,41.4,43.54,-0,14,0.00,1.00,1,0,0,,
2,2026-03-07 10:08:11,TURN,30.375270,130.960218,298.5,41.4,43.55,-0,14,0.00,1.00,1,0,0,,
2,2026-03-07 10:08:11,TURN,30.375270,130.960218,296.4,41.4,43.55,-0,14,0.00,1.00,1,0,0,,
2,2026-03-07 10:08:11,TURN,30.375270,130.960218,295.1,41.4,43.55,-0,14,0.00,1.00,1,0,0,,
2,2026-03-07 10:08:11,TURN,30.375270,130.960218,295.2,41.4,43.55,-0,14,0.00,1.00,1,0,0,,
2,2026-03-07 10:08:12,TURN,30.375270,130.960218,295.2,41.4,43.55,-0,14,0.00,1.00,1,0,0,,
2,2026-03-07 10:08:12,TURN,30.375270,130.960218,295.2,41.4,43.55,-0,14,0.00,1.00,1,0,0,,
2,2026-03-07 10:08:12,TURN,30.375270,130.960218,293.2,41.4,43.55,-0,14,0.00,1.00,1,0,0,,
2,2026-03-07 10:08:12,TURN,30.375270,130.960218,291.6,41.4,43.55,-0,13,0.00,1.00,1,0,0,,
2,2026-03-07 10:08:12,TURN,30.375270,130.960218,291.0,41.4,43.55,-0,13,0.00,1.00,1,0,0,,
2,2026-03-07 10:08:13,TURN,30.375270,130.960218,290.6,41.4,43.55,-0,13,0.00,1.00,1,0,0,,
2,2026-03-07 10:08:13,TURN,30.375270,130.960218,290.4,41.4,43.55,-0,13,0.00,1.00,1,0,0,,
2,2026-03-07 10:08:13,TURN,30.375270,130.960218,290.1,41.4,43.55,-0,13,0.00,1.00,1,0,0,,
2,2026-03-07 10:08:13,TURN,30.375270,130.960218,289.7,41.4,43.55,-0,13,0.00,1.00,1,0,0,,
2,2026-03-07 10:08:14,TURN,30.375270,130.960218,289.7,41.4,43.55,-0,13,0.00,1.00,1,0,0,,
2,2026-03-07 10:08:14,TURN,30.375270,130.960218,289.7,41.4,43.55,-0,13,0.00,1.00,1,0,0,,
2,2026-03-07 10:08:14,TURN,30.375270,130.960218,289.7,41.4,43.55,-0,13,0.00,1.00,1,0,0,,
2,2026-03-07 10:08:14,TURN,30.375270,130.960218,289.7,41.4,43.55,-0,13,0.00,1.00,1,0,0,,
2,2026-03-07 10:08:20,TURN,30.375270,130.960218,278.3,41.4,43.55,-3,11,0.00,1.00,1,0,0,,
2,2026-03-07 10:08:21,TURN,30.375270,130.960218,283.8,41.4,43.58,-2,14,0.00,1.00,1,0,0,,
2,2026-03-07 10:08:21,TURN,30.375270,130.960217,290.5,41.4,43.61,-2,15,0.00,1.00,1,0,0,,
2,2026-03-07 10:08:21,TURN,30.375270,130.960217,292.6,41.5,43.63,-2,16,0.00,1.00,1,0,0,,
2,2026-03-07 10:08:21,TURN,30.375270,130.960216,292.9,41.5,43.66,-2,16,0.00,1.00,1,0,0,,
2,2026-03-07 10:08:22,TURN,30.375270,130.960216,292.9,41.5,43.68,-2,16,0.00,1.00,1,0,0,,
2,2026-03-07 10:08:22,TURN,30.375270,130.960216,292.9,41.5,43.68,-2,16,0.00,1.00,1,0,0,,
2,2026-03-07 10:08:22,TURN,30.375270,130.960216,292.9,41.5,43.68,-2,16,0.00,1.00,1,0,0,,
2,2026-03-07 10:08:22,TURN,30.375270,130.960216,292.8,41.5,43.68,-2,16,0.00,1.00,1,0,0,,
2,2026-03-07 10:08:23,TURN,30.375270,130.960216,292.8,41.5,43.68,-2,16,0.00,1.00,1,0,0,,
2,2026-03-07 10:08:23,TURN,30.375270,130.960216,292.8,41.5,43.68,-2,16,0.00,1.00,1,0,0,,
2,2026-03-07 10:08:23,TURN,30.375270,130.960216,292.8,41.5,43.68,-2,16,0.00,1.00,1,0,0,,
2,2026-03-07 10:08:23,TURN,30.375270,130.960216,292.8,41.5,43.68,-2,16,0.00,1.00,1,0,0,,
2,2026-03-07 10:08:23,TURN,30.375270,130.960216,292.8,41.5,43.68,-2,16,0.00,1.00,1,0,0,,
2,2026-03-07 10:08:24,TURN,30.375270,130.960216,292.8,41.5,43.68,-2,16,0.00,1.00,1,0,0,,
2,2026-03-07 10:08:24,TURN,30.375270,130.960216,292.8,41.5,43.68,-2,16,0.00,1.00,1,0,0,,
2,2026-03-07 10:08:24,TURN,30.375270,130.960216,292.8,41.5,43.68,-2,16,0.00,1.00,1,0,0,,
2,2026-03-07 10:08:30,TURN,30.375270,130.960216,289.4,41.5,43.68,-3,16,0.00,1.00,1,0,0,,
2,2026-03-07 10:08:31,TURN,30.375270,130.960216,292.2,41.5,43.68,-3,16,0.00,1.00,1,0,0,,
2,2026-03-07 10:08:31,TURN,30.375270,130.960216,294.8,41.5,43.68,-3,16,0.00,1.00,1,0,0,,
2,2026-03-07 10:08:31,TURN,30.375270,130.960216,296.0,41.5,43.68,-3,16,0.00,1.00,1,0,0,,
2,2026-03-07 10:08:31,TURN,30.375270,130.960216,296.8,41.5,43.68,-3,16,0.00,1.00,1,0,0,,
2,2026-03-07 10:08:32,TURN,30.375270,130.960216,297.5,41.5,43.68,-2,15,0.00,1.00,1,0,0,,
2,2026-03-07 10:08:32,TURN,30.375270,130.960216,297.5,41.5,43.68,-2,15,0.00,1.00,1,0,0,,
2,2026-03-07 10:08:32,TURN,30.375270,130.960216,297.4,41.5,43.68,-2,15,0.00,1.00,1,0,0,,
2,2026-03-07 10:08:32,TURN,30.375270,130.960216,297.4,41.5,43.68,-3,15,0.00,1.00,1,0,0,,
2,2026-03-07 10:08:32,TURN,30.375270,130.960216,297.4,41.5,43.68,-3,15,0.00,1.00,1,0,0,,
2,2026-03-07 10:08:33,TURN,30.375270,130.960216,297.4,41.5,43.68,-3,15,0.00,1.00,1,0,0,,
2,2026-03-07 10:08:33,TURN,30.375270,130.960216,297.4,41.5,43.68,-3,15,0.00,1.00,1,0,0,,
2,2026-03-07 10:08:33,TURN,30.375270,130.960216,297.4,41.5,43.68,-3,15,0.00,1.00,1,0,0,,
2,2026-03-07 10:08:33,TURN,30.375270,130.960216,297.4,41.5,43.68,-3,15,0.00,1.00,1,0,0,,
2,2026-03-07 10:08:34,TURN,30.375270,130.960216,297.4,41.5,43.68,-3,15,0.00,1.00,1,0,0,,
2,2026-03-07 10:08:34,TURN,30.375270,130.960216,297.4,41.5,43.68,-3,15,0.00,1.00,1,0,0,,
2,2026-03-07 10:08:34,TURN,30.375270,130.960216,297.4,41.5,43.68,-3,15,0.00,1.00,1,0,0,,
2,2026-03-07 10:08:34,TURN,30.375270,130.960216,297.4,41.5,43.68,-3,15,0.00,1.00,1,0,0,,
2,2026-03-07 10:08:34,TURN,30.375270,130.960216,297.4,41.5,43.68,-3,15,0.00,1.00,1,0,0,,
2,2026-03-07 10:08:35,TURN,30.375270,130.960216,297.4,41.6,43.69,-3,15,0.00,1.00,1,0,0,,
2,2026-03-07 10:08:35,TURN,30.375270,130.960216,297.4,41.6,43.71,-3,15,0.00,1.00,1,0,0,,
2,2026-03-07 10:08:41,TURN,30.375270,130.960215,313.0,41.6,43.73,-2,14,0.00,1.00,1,0,0,,
2,2026-03-07 10:08:41,TURN,30.375270,130.960215,317.4,41.6,43.74,-2,14,0.00,1.00,1,0,0,,
2,2026-03-07 10:08:42,TURN,30.375270,130.960215,325.2,41.6,43.74,-2,14,0.00,1.00,1,0,0,,
2,2026-03-07 10:08:42,TURN,30.375270,130.960215,329.6,41.6,43.74,-2,16,0.00,1.00,1,0,0,,
2,2026-03-07 10:08:42,TURN,30.375270,130.960215,332.7,41.6,43.74,-3,16,0.00,1.00,1,0,0,,
2,2026-03-07 10:08:42,TURN,30.375270,130.960215,335.3,41.6,43.74,-3,16,0.00,1.00,1,0,0,,
2,2026-03-07 10:08:42,TURN,30.375270,130.960215,336.5,41.6,43.74,-3,16,0.00,1.00,1,0,0,,
2,2026-03-07 10:08:43,TURN,30.375270,130.960215,337.1,41.7,43.73,-3,16,0.00,1.00,1,0,0,,
2,2026-03-07 10:08:43,TURN,30.375270,130.960215,337.2,41.7,43.71,-3,16,0.00,1.00,1,0,0,,
2,2026-03-07 10:08:43,TURN,30.375271,130.960215,337.2,41.7,43.70,-3,16,0.00,1.00,1,0,0,,
2,2026-03-07 10:08:43,TURN,30.375271,130.960215,337.2,41.7,43.68,-3,16,0.00,1.00,1,0,0,,
2,2026-03-07 10:08:44,TURN,30.375271,130.960215,337.2,41.7,43.66,-3,16,0.00,1.00,1,0,0,,
2,2026-03-07 10:08:44,TURN,30.375271,130.960215,337.2,41.7,43.66,-3,16,0.00,1.00,1,0,0,,
2,2026-03-07 10:08:44,TURN,30.375271,130.960215,337.2,41.7,43.66,-3,16,0.00,1.00,1,0,0,,
2,2026-03-07 10:08:44,TURN,30.375271,130.960215,337.2,41.7,43.66,-3,16,0.00,1.00,1,0,0,,
2,2026-03-07 10:08:44,TURN,30.375271,130.960215,337.2,41.7,43.66,-3,16,0.00,1.00,1,0,0,,
2,2026-03-07 10:08:45,TURN,30.375271,130.960214,337.2,41.8,43.73,-3,16,0.00,1.00,1,0,0,,
2,2026-03-07 10:08:45,TURN,30.375271,130.960213,337.2,41.8,43.80,-3,16,0.00,1.00,1,0,0,,
2,2026-03-07 10:08:45,TURN,30.375270,130.960213,337.2,41.9,43.87,-3,16,0.00,1.00,1,0,0,,
2,2026-03-07 10:08:45,TURN,30.375270,130.960212,337.2,42.0,43.93,-3,16,0.00,1.00,1,0,0,,
2,2026-03-07 10:08:52,TURN,30.375270,130.960211,334.6,42.0,44.00,-3,12,0.00,1.00,1,0,0,,
2,2026-03-07 10:08:52,TURN,30.375270,130.960209,339.2,42.1,44.14,-4,13,0.00,1.00,1,0,0,,
2,2026-03-07 10:08:52,TURN,30.375269,130.960208,341.3,42.2,44.27,-4,14,0.00,1.00,1,0,0,,
2,2026-03-07 10:08:52,TURN,30.375269,130.960206,341.7,42.3,44.41,-4,14,0.00,1.00,1,0,0,,
2,2026-03-07 10:08:53,TURN,30.375268,130.960205,341.8,42.4,44.55,-4,14,0.00,1.00,1,0,0,,
2,2026-03-07 10:08:53,TURN,30.375268,130.960203,341.8,42.6,44.68,-4,14,0.00,1.00,1,0,0,,
2,2026-03-07 10:08:53,TURN,30.375268,130.960203,341.8,42.6,44.68,-4,14,0.00,1.00,1,0,0,,
2,2026-03-07 10:08:53,TURN,30.375268,130.960203,341.8,42.6,44.68,-4,14,0.00,1.00,1,0,0,,
2,2026-03-07 10:08:53,TURN,30.375268,130.960203,341.8,42.6,44.68,-4,14,0.00,1.00,1,0,0,,
2,2026-03-07 10:08:54,TURN,30.375268,130.960203,341.8,42.6,44.68,-4,14,0.00,1.00,1,0,0,,
2,2026-03-07 10:08:54,TURN,30.375268,130.960203,341.8,42.6,44.68,-4,14,0.00,1.00,1,0,0,,
2,2026-03-07 10:08:54,TURN,30.375268,130.960203,341.8,42.6,44.68,-4,14,0.00,1.00,1,0,0,,
2,2026-03-07 10:08:54,TURN,30.375268,130.960203,341.8,42.6,44.68,-4,14,0.00,1.00,1,0,0,,
2,2026-03-07 10:08:55,TURN,30.375268,130.960203,341.8,42.6,44.68,-4,14,0.00,1.00,1,0,0,,
2,2026-03-07 10:08:55,TURN,30.375268,130.960203,341.8,42.6,44.68,-4,14,0.00,1.00,1,0,0,,
2,2026-03-07 10:09:01,TURN,30.375268,130.960203,2.4,42.6,44.68,-1,8,0.00,1.00,1,0,0,,
2,2026-03-07 10:09:01,TURN,30.375268,130.960203,7.1,42.6,44.68,-1,9,0.00,1.00,1,0,0,,
2,2026-03-07 10:09:01,TURN,30.375268,130.960203,11.5,42.6,44.68,-0,11,0.00,1.00,1,0,0,,
2,2026-03-07 10:09:02,TURN,30.375268,130.960203,14.9,42.6,44.68,0,12,0.00,1.00,1,0,0,,
2,2026-03-07 10:09:02,TURN,30.375268,130.960203,17.7,42.6,44.68,1,13,0.00,1.00,1,0,0,,
2,2026-03-07 10:09:02,TURN,30.375268,130.960203,20.1,42.6,44.68,1,13,0.00,1.00,1,0,0,,
2,2026-03-07 10:09:02,TURN,30.375268,130.960203,22.0,42.6,44.68,1,12,0.00,1.00,1,0,0,,
2,2026-03-07 10:09:03,TURN,30.375268,130.960203,23.9,42.6,44.68,1,12,0.00,1.00,1,0,0,,
2,2026-03-07 10:09:03,TURN,30.375268,130.960203,25.9,42.6,44.68,1,12,0.00,1.00,1,0,0,,
2,2026-03-07 10:09:03,TURN,30.375268,130.960203,26.8,42.6,44.68,1,12,0.00,1.00,1,0,0,,
2,2026-03-07 10:09:03,TURN,30.375268,130.960203,27.6,42.6,44.68,1,12,0.00,1.00,1,0,0,,
2,2026-03-07 10:09:03,TURN,30.375268,130.960203,27.6,42.6,44.68,1,12,0.00,1.00,1,0,0,,
2,2026-03-07 10:09:04,TURN,30.375269,130.960202,27.6,42.7,44.61,1,12,0.00,1.00,1,0,0,,
2,2026-03-07 10:09:04,TURN,30.375271,130.960202,27.6,42.9,44.53,1,12,0.00,1.00,1,0,0,,
2,2026-03-07 10:09:04,TURN,30.375272,130.960201,27.6,43.1,44.46,1,12,0.00,1.00,1,0,0,,
2,2026-03-07 10:09:04,TURN,30.375274,130.960201,27.6,43.3,44.38,1,12,0.00,1.00,1,0,0,,
2,2026-03-07 10:09:05,TURN,30.375275,130.960200,27.6,43.5,44.31,1,12,0.00,1.00,1,0,0,,
2,2026-03-07 10:09:05,TURN,30.375275,130.960200,27.6,43.5,44.34,1,12,0.00,1.00,1,0,0,,
2,2026-03-07 10:09:05,TURN,30.375274,130.960200,27.6,43.4,44.37,1,12,0.00,1.00,1,0,0,,
2,2026-03-07 10:09:05,TURN,30.375274,130.960200,27.6,43.4,44.41,1,12,0.00,1.00,1,0,0,,
2,2026-03-07 10:09:05,TURN,30.375273,130.960200,27.6,43.4,44.44,1,12,0.00,1.00,1,0,0,,
2,2026-03-07 10:09:06,TURN,30.375273,130.960200,27.6,43.3,44.47,1,12,0.00,1.00,1,0,0,,
2,2026-03-07 10:09:12,DRIVE,30.375273,130.960200,42.8,43.3,44.47,-2,7,1.00,1.00,1,0,0,,
2,2026-03-07 10:09:12,DRIVE,30.375273,130.960200,43.6,43.3,44.47,-2,10,1.00,1.00,1,0,0,,
2,2026-03-07 10:09:12,DRIVE,30.375273,130.960200,43.9,43.3,44.47,-2,10,1.00,1.00,1,0,0,,
2,2026-03-07 10:09:13,DRIVE,30.375273,130.960200,44.4,43.3,44.47,-2,12,1.00,1.00,1,0,0,,
2,2026-03-07 10:09:13,DRIVE,30.375273,130.960200,45.0,43.3,44.47,-1,15,1.00,1.00,1,0,0,,
2,2026-03-07 10:09:13,DRIVE,30.375273,130.960200,48.0,43.3,44.47,-1,13,1.00,1.00,1,0,0,,
2,2026-03-07 10:09:13,DRIVE,30.375273,130.960200,46.2,43.3,44.47,-2,11,1.00,1.00,1,0,0,,
2,2026-03-07 10:09:14,DRIVE,30.375273,130.960200,48.4,43.3,44.47,-2,9,1.00,1.00,1,0,0,,
2,2026-03-07 10:09:14,DRIVE,30.375273,130.960201,48.2,43.2,44.40,-1,9,1.00,1.00,1,0,0,,
2,2026-03-07 10:09:14,DRIVE,30.375273,130.960202,50.4,43.1,44.34,-2,12,1.00,1.00,1,0,0,,
2,2026-03-07 10:09:14,DRIVE,30.375273,130.960203,51.7,43.0,44.27,-2,13,1.00,1.00,1,0,0,,
2,2026-03-07 10:09:14,DRIVE,30.375273,130.960204,52.5,43.0,44.21,-2,14,1.00,1.00,1,0,0,,
2,2026-03-07 10:09:15,DRIVE,30.375273,130.960206,55.2,42.8,44.07,-2,14,1.00,1.00,1,0,0,,
2,2026-03-07 10:09:15,TURN,30.375274,130.960206,59.2,42.8,44.00,-3,7,1.00,0.00,1,0,0,,
2,2026-03-07 10:09:15,TURN,30.375274,130.960207,58.6,42.8,43.93,-4,9,1.00,0.00,1,0,0,,
2,2026-03-07 10:09:15,TURN,30.375275,130.960207,54.1,42.8,43.86,-4,10,1.00,0.00,1,0,0,,
2,2026-03-07 10:09:16,DRIVE,30.375275,130.960208,49.2,42.8,43.78,-3,7,1.00,1.00,1,0,0,,
2,2026-03-07 10:09:16,DRIVE,30.375276,130.960208,46.9,42.8,43.71,-1,9,1.00,1.00,1,0,0,,
2,2026-03-07 10:09:16,DRIVE,30.375276,130.960209,48.4,42.8,43.63,-1,10,1.00,1.00,1,0,0,,
2,2026-03-07 10:09:16,DRIVE,30.375277,130.960209,49.5,42.8,43.56,-1,11,1.00,1.00,1,0,0,,
2,2026-03-07 10:09:16,DRIVE,30.375277,130.960210,50.7,42.9,43.48,-1,10,1.00,1.00,1,0,0,,
2,2026-03-07 10:09:17,DRIVE,30.375278,130.960210,53.7,42.9,43.41,-2,8,1.00,1.00,1,0,0,,
2,2026-03-07 10:09:17,DRIVE,30.375278,130.960210,55.2,42.9,43.41,-2,10,1.00,1.00,1,0,0,,
2,2026-03-07 10:09:17,DRIVE,30.375278,130.960210,56.9,42.9,43.41,-3,12,1.00,1.00,1,0,0,,
2,2026-03-07 10:09:17,DRIVE,30.375278,130.960210,57.8,42.9,43.41,-3,11,1.00,1.00,1,0,0,,
2,2026-03-07 10:09:18,TURN,30.375278,130.960210,61.8,42.9,43.41,-5,12,1.00,0.00,1,0,0,,
2,2026-03-07 10:09:18,TURN,30.375278,130.960210,55.7,42.9,43.41,-5,6,1.00,0.00,1,0,0,,
2,2026-03-07 10:09:18,DRIVE,30.375278,130.960210,45.2,42.9,43.41,-4,6,1.00,1.00,1,0,0,,
2,2026-03-07 10:09:18,DRIVE,30.375278,130.960210,43.2,42.9,43.41,-3,8,1.00,1.00,1,0,0,,
2,2026-03-07 10:09:18,DRIVE,30.375278,130.960210,46.0,42.9,43.41,-2,11,1.00,1.00,1,0,0,,
2,2026-03-07 10:09:19,DRIVE,30.375278,130.960210,46.7,42.9,43.38,-2,10,1.00,1.00,1,0,0,,
2,2026-03-07 10:09:19,DRIVE,30.375279,130.960210,49.9,43.0,43.34,-1,9,1.00,1.00,1,0,0,,
2,2026-03-07 10:09:19,DRIVE,30.375279,130.960210,50.9,43.0,43.31,-1,13,1.00,1.00,1,0,0,,
2,2026-03-07 10:09:19,DRIVE,30.375280,130.960210,50.4,43.1,43.28,-2,13,1.00,1.00,1,0,0,,
2,2026-03-07 10:09:20,DRIVE,30.375280,130.960210,50.8,43.1,43.25,-2,13,1.00,1.00,1,0,0,,
2,2026-03-07 10:09:20,DRIVE,30.375280,130.960210,51.3,43.1,43.25,-1,11,1.00,1.00,1,0,0,,
2,2026-03-07 10:09:20,DRIVE,30.375280,130.960210,51.8,43.1,43.25,-0,11,1.00,1.00,1,0,0,,
2,2026-03-07 10:09:20,DRIVE,30.375280,130.960210,54.4,43.1,43.25,0,13,1.00,1.00,1,0,0,,
2,2026-03-07 10:09:20,DRIVE,30.375280,130.960210,56.6,43.1,43.25,-0,14,1.00,1.00,1,0,0,,
2,2026-03-07 10:09:21,TURN,30.375280,130.960210,59.2,43.1,43.25,-0,11,1.00,0.00,1,0,0,,
2,2026-03-07 10:09:21,TURN,30.375280,130.960210,55.7,43.1,43.25,-1,12,1.00,0.00,1,0,0,,
2,2026-03-07 10:09:21,TURN,30.375280,130.960210,53.2,43.1,43.25,-1,11,1.00,0.00,1,0,0,,
2,2026-03-07 10:09:21,TURN,30.375280,130.960210,50.6,43.1,43.25,-1,11,1.00,0.00,1,0,0,,
2,2026-03-07 10:09:22,DRIVE,30.375280,130.960210,49.4,43.1,43.25,-1,11,1.00,1.00,1,0,0,,
2,2026-03-07 10:09:22,DRIVE,30.375280,130.960210,50.9,43.1,43.25,-0,13,1.00,1.00,1,0,0,,
2,2026-03-07 10:09:22,DRIVE,30.375280,130.960210,51.2,43.1,43.25,1,14,1.00,1.00,1,0,0,,
2,2026-03-07 10:09:22,DRIVE,30.375280,130.960210,51.9,43.1,43.25,2,14,1.00,1.00,1,0,0,,
2,2026-03-07 10:09:22,DRIVE,30.375280,130.960210,55.1,43.1,43.25,2,12,1.00,1.00,1,0,0,,
2,2026-03-07 10:09:23,TURN,30.375280,130.960210,58.8,43.1,43.25,2,11,1.00,0.00,1,0,0,,
2,2026-03-07 10:09:23,TURN,30.375280,130.960210,52.9,43.1,43.25,2,10,1.00,0.00,1,0,0,,
2,2026-03-07 10:09:23,DRIVE,30.375280,130.960210,49.1,43.1,43.25,1,11,1.00,1.00,1,0,0,,
2,2026-03-07 10:09:23,DRIVE,30.375280,130.960210,50.5,43.1,43.25,2,13,1.00,1.00,1,0,0,,
2,2026-03-07 10:09:24,DRIVE,30.375280,130.960210,53.6,43.1,43.25,1,10,1.00,1.00,1,0,0,,
2,2026-03-07 10:09:24,DRIVE,30.375280,130.960210,54.1,43.1,43.25,-0,10,1.00,1.00,1,0,0,,
2,2026-03-07 10:09:24,DRIVE,30.375280,130.960210,53.7,43.1,43.25,1,9,1.00,1.00,1,0,0,,
2,2026-03-07 10:09:24,DRIVE,30.375280,130.960210,53.3,43.1,43.25,2,11,1.00,1.00,1,0,0,,
2,2026-03-07 10:09:24,DRIVE,30.375280,130.960210,54.3,43.1,43.25,2,13,1.00,1.00,1,0,0,,
2,2026-03-07 10:09:25,DRIVE,30.375280,130.960210,54.8,43.1,43.25,2,14,1.00,1.00,1,0,0,,
2,2026-03-07 10:09:25,DRIVE,30.375280,130.960210,56.1,43.1,43.25,2,13,1.00,1.00,1,0,0,,
2,2026-03-07 10:09:25,TURN,30.375280,130.960210,60.8,43.1,43.25,1,13,1.00,0.00,1,0,0,,
2,2026-03-07 10:09:25,TURN,30.375280,130.960210,60.6,43.1,43.25,-1,10,1.00,0.00,1,0,0,,
2,2026-03-07 10:09:26,TURN,30.375280,130.960210,58.9,43.1,43.25,-1,11,1.00,0.00,1,0,0,,
2,2026-03-07 10:09:26,TURN,30.375280,130.960210,58.8,43.1,43.25,-1,10,1.00,0.00,1,0,0,,
2,2026-03-07 10:09:26,TURN,30.375280,130.960210,58.8,43.1,43.25,-1,10,1.00,0.00,1,0,0,,
2,2026-03-07 10:09:26,TURN,30.375280,130.960210,58.8,43.1,43.25,-1,10,1.00,0.00,1,0,0,,
2,2026-03-07 10:09:26,TURN,30.375280,130.960210,58.8,43.1,43.25,-1,10,1.00,0.00,1,0,0,,
2,2026-03-07 10:09:27,TURN,30.375280,130.960210,58.8,43.1,43.25,-1,10,1.00,0.00,1,0,0,,
2,2026-03-07 10:09:27,TURN,30.375280,130.960210,58.8,43.1,43.25,-1,10,1.00,0.00,1,0,0,,
2,2026-03-07 10:09:27,TURN,30.375280,130.960210,58.8,43.1,43.25,-1,10,1.00,0.00,1,0,0,,
2,2026-03-07 10:09:27,TURN,30.375280,130.960210,58.8,43.1,43.25,-1,10,1.00,0.00,1,0,0,,
2,2026-03-07 10:09:28,TURN,30.375280,130.960210,58.8,43.1,43.25,-1,10,1.00,0.00,1,0,0,,
2,2026-03-07 10:09:28,TURN,30.375280,130.960210,58.8,43.1,43.22,-1,10,1.00,0.00,1,0,0,,
2,2026-03-07 10:09:28,TURN,30.375280,130.960210,58.8,43.1,43.19,-1,10,1.00,0.00,1,0,0,,
2,2026-03-07 10:09:28,TURN,30.375281,130.960211,58.8,43.1,43.16,-1,10,1.00,0.00,1,0,0,,
2,2026-03-07 10:09:28,TURN,30.375281,130.960211,58.8,43.1,43.13,-1,10,1.00,0.00,1,0,0,,
2,2026-03-07 10:09:35,DRIVE,30.375282,130.960211,40.2,43.2,43.03,2,15,1.00,1.00,1,0,0,,
2,2026-03-07 10:09:35,DRIVE,30.375282,130.960211,41.2,43.2,43.00,1,16,1.00,1.00,1,0,0,,
2,2026-03-07 10:09:35,DRIVE,30.375283,130.960211,44.4,43.3,42.92,-0,13,1.00,1.00,1,0,0,,
2,2026-03-07 10:09:35,DRIVE,30.375284,130.960211,45.8,43.4,42.84,0,10,1.00,1.00,1,0,0,,
2,2026-03-07 10:09:36,DRIVE,30.375285,130.960211,49.0,43.5,42.79,1,12,1.00,1.00,1,0,0,,
2,2026-03-07 10:09:36,DRIVE,30.375285,130.960211,51.2,43.6,42.74,1,13,1.00,1.00,1,0,0,,
2,2026-03-07 10:09:36,DRIVE,30.375286,130.960211,56.7,43.6,42.70,-0,12,1.00,1.00,1,0,0,,
2,2026-03-07 10:09:36,TURN,30.375286,130.960211,58.8,43.6,42.70,-2,12,1.00,0.00,1,0,0,,
2,2026-03-07 10:09:37,TURN,30.375286,130.960211,50.9,43.6,42.70,-2,8,1.00,0.00,1,0,0,,
2,2026-03-07 10:09:37,DRIVE,30.375286,130.960211,42.6,43.6,42.70,-1,5,1.00,1.00,1,0,0,,
2,2026-03-07 10:09:37,DRIVE,30.375286,130.960211,41.7,43.6,42.70,-1,8,1.00,1.00,1,0,0,,
2,2026-03-07 10:09:37,DRIVE,30.375286,130.960211,41.7,43.6,42.70,0,8,1.00,1.00,1,0,0,,
2,2026-03-07 10:09:37,DRIVE,30.375286,130.960211,43.0,43.6,42.70,1,9,1.00,1.00,1,0,0,,
2,2026-03-07 10:09:38,DRIVE,30.375286,130.960211,45.7,43.7,42.68,2,11,1.00,1.00,1,0,0,,
2,2026-03-07 10:09:38,DRIVE,30.375287,130.960211,49.2,43.7,42.66,1,13,1.00,1.00,1,0,0,,
2,2026-03-07 10:09:38,DRIVE,30.375287,130.960210,52.7,43.8,42.64,1,14,1.00,1.00,1,0,0,,
2,2026-03-07 10:09:38,DRIVE,30.375288,130.960210,51.4,43.9,42.62,0,15,1.00,1.00,1,0,0,,
2,2026-03-07 10:09:39,DRIVE,30.375288,130.960210,52.4,43.9,42.60,-0,13,1.00,1.00,1,0,0,,
2,2026-03-07 10:09:39,DRIVE,30.375288,130.960210,56.8,43.9,42.59,-2,11,1.00,1.00,1,0,0,,
2,2026-03-07 10:09:39,DRIVE,30.375288,130.960210,58.5,43.9,42.57,-2,12,1.00,1.00,1,0,0,,
2,2026-03-07 10:09:39,TURN,30.375288,130.960211,61.4,43.9,42.56,-2,8,1.00,0.00,1,0,0,,
2,2026-03-07 10:09:39,TURN,30.375288,130.960211,57.0,43.8,42.55,-2,-6,1.00,0.00,1,0,0,,
2,2026-03-07 10:09:40,DRIVE,30.375288,130.960211,44.9,43.8,42.55,-2,-4,1.00,1.00,1,0,0,,
2,2026-03-07 10:09:40,DRIVE,30.375288,130.960211,43.1,43.9,42.56,-1,8,1.00,1.00,1,0,0,,
2,2026-03-07 10:09:40,DRIVE,30.375288,130.960210,42.0,43.9,42.57,0,9,1.00,1.00,1,0,0,,
2,2026-03-07 10:09:40,DRIVE,30.375288,130.960210,41.4,43.9,42.59,2,10,1.00,1.00,1,0,0,,
2,2026-03-07 10:09:41,DRIVE,30.375288,130.960210,41.0,43.9,42.60,5,9,1.00,1.00,1,0,0,,
2,2026-03-07 10:09:41,DRIVE,30.375288,130.960210,42.6,44.0,42.57,5,12,1.00,1.00,1,0,0,,
2,2026-03-07 10:09:41,DRIVE,30.375289,130.960210,44.8,44.0,42.54,4,10,1.00,1.00,1,0,0,,
2,2026-03-07 10:09:41,DRIVE,30.375289,130.960210,47.9,44.0,42.51,5,12,1.00,1.00,1,0,0,,
2,2026-03-07 10:09:41,DRIVE,30.375290,130.960210,48.5,44.1,42.47,4,11,1.00,1.00,1,0,0,,
2,2026-03-07 10:09:42,DRIVE,30.375290,130.960210,51.8,44.1,42.44,2,8,1.00,1.00,1,0,0,,
2,2026-03-07 10:09:42,DRIVE,30.375290,130.960210,54.9,44.1,42.44,0,7,1.00,1.00,1,0,0,,
2,2026-03-07 10:09:42,DRIVE,30.375290,130.960210,57.7,44.1,42.44,0,10,1.00,1.00,1,0,0,,
2,2026-03-07 10:09:42,TURN,30.375290,130.960210,59.6,44.1,42.44,1,9,1.00,0.00,1,0,0,,
2,2026-03-07 10:09:43,TURN,30.375290,130.960210,56.1,44.1,42.44,0,9,1.00,0.00,1,0,0,,
2,2026-03-07 10:09:43,TURN,30.375290,130.960210,54.8,44.1,42.44,0,10,1.00,0.00,1,0,0,,
2,2026-03-07 10:09:43,TURN,30.375290,130.960210,54.8,44.1,42.44,0,10,1.00,0.00,1,0,0,,
2,2026-03-07 10:09:43,TURN,30.375290,130.960210,54.8,44.1,42.44,0,10,1.00,0.00,1,0,0,,
2,2026-03-07 10:09:43,TURN,30.375290,130.960210,54.8,44.1,42.44,0,10,1.00,0.00,1,0,0,,
2,2026-03-07 10:09:44,TURN,30.375290,130.960210,54.8,44.1,42.44,0,10,1.00,0.00,1,0,0,,
2,2026-03-07 10:09:44,TURN,30.375290,130.960210,54.8,44.1,42.44,0,10,1.00,0.00,1,0,0,,
2,2026-03-07 10:09:44,TURN,30.375290,130.960210,54.8,44.1,42.44,0,10,1.00,0.00,1,0,0,,
2,2026-03-07 10:09:44,TURN,30.375290,130.960210,54.8,44.1,42.44,0,10,1.00,0.00,1,0,0,,
2,2026-03-07 10:09:45,TURN,30.375290,130.960210,54.8,44.1,42.44,0,10,1.00,0.00,1,0,0,,
2,2026-03-07 10:09:45,TURN,30.375290,130.960210,54.8,44.1,42.43,0,10,1.00,0.00,1,0,0,,
2,2026-03-07 10:09:45,TURN,30.375290,130.960210,54.8,44.2,42.41,0,10,1.00,0.00,1,0,0,,
2,2026-03-07 10:09:45,TURN,30.375291,130.960210,54.8,44.2,42.39,0,10,1.00,0.00,1,0,0,,
2,2026-03-07 10:09:45,TURN,30.375291,130.960210,54.8,44.2,42.38,0,10,1.00,0.00,1,0,0,,
2,2026-03-07 10:09:46,TURN,30.375291,130.960210,54.8,44.2,42.36,0,10,1.00,0.00,1,0,0,,
2,2026-03-07 10:09:52,TURN,30.375291,130.960210,59.9,44.2,42.36,-1,8,1.00,0.00,1,0,0,,
2,2026-03-07 10:09:52,TURN,30.375291,130.960210,58.0,44.2,42.32,-1,9,1.00,0.00,1,0,0,,
2,2026-03-07 10:09:52,TURN,30.375292,130.960210,57.9,44.3,42.27,-1,9,1.00,0.00,1,0,0,,
2,2026-03-07 10:09:53,TURN,30.375292,130.960210,57.9,44.3,42.24,-1,9,1.00,0.00,1,0,0,,
2,2026-03-07 10:09:53,TURN,30.375293,130.960210,57.8,44.4,42.21,-1,9,1.00,0.00,1,0,0,,
2,2026-03-07 10:09:53,TURN,30.375293,130.960210,57.8,44.4,42.18,-2,9,1.00,0.00,1,0,0,,
2,2026-03-07 10:09:53,TURN,30.375293,130.960210,57.8,44.4,42.19,-2,9,1.00,0.00,1,0,0,,
2,2026-03-07 10:09:54,TURN,30.375293,130.960210,57.8,44.4,42.20,-2,9,1.00,0.00,1,0,0,,
2,2026-03-07 10:09:54,TURN,30.375293,130.960210,57.8,44.4,42.20,-2,9,1.00,0.00,1,0,0,,
2,2026-03-07 10:09:54,TURN,30.375293,130.960210,57.8,44.4,42.20,-2,9,1.00,0.00,1,0,0,,
2,2026-03-07 10:09:54,TURN,30.375293,130.960210,57.8,44.4,42.20,-2,9,1.00,0.00,1,0,0,,
2,2026-03-07 10:09:54,TURN,30.375293,130.960210,57.8,44.4,42.20,-2,9,1.00,0.00,1,0,0,,
2,2026-03-07 10:09:55,TURN,30.375293,130.960210,57.8,44.4,42.20,-2,9,1.00,0.00,1,0,0,,
2,2026-03-07 10:09:55,TURN,30.375293,130.960210,57.8,44.4,42.20,-2,9,1.00,0.00,1,0,0,,
2,2026-03-07 10:09:55,TURN,30.375293,130.960210,57.8,44.4,42.20,-2,9,1.00,0.00,1,0,0,,
2,2026-03-07 10:10:01,TURN,30.375293,130.960210,24.6,44.4,42.20,-2,13,0.00,1.00,1,0,0,,
2,2026-03-07 10:10:02,TURN,30.375293,130.960210,29.4,44.4,42.23,-1,14,0.00,1.00,1,0,0,,
2,2026-03-07 10:10:02,TURN,30.375292,130.960210,35.0,44.4,42.27,-0,15,0.00,1.00,1,0,0,,
2,2026-03-07 10:10:02,DRIVE,30.375292,130.960210,37.8,44.3,42.30,-0,15,1.00,1.00,1,0,0,,
2,2026-03-07 10:10:02,DRIVE,30.375291,130.960210,37.6,44.3,42.33,-1,16,1.00,1.00,1,0,0,,
2,2026-03-07 10:10:03,DRIVE,30.375291,130.960210,40.2,44.2,42.36,-0,19,1.00,1.00,1,0,0,,
2,2026-03-07 10:10:03,DRIVE,30.375291,130.960210,42.0,44.2,42.36,0,20,1.00,1.00,1,0,0,,
2,2026-03-07 10:10:03,DRIVE,30.375291,130.960210,41.4,44.2,42.36,0,20,1.00,1.00,1,0,0,,
2,2026-03-07 10:10:03,DRIVE,30.375291,130.960210,43.9,44.2,42.36,-1,17,1.00,1.00,1,0,0,,
2,2026-03-07 10:10:03,DRIVE,30.375291,130.960210,44.2,44.2,42.36,-0,11,1.00,1.00,1,0,0,,
2,2026-03-07 10:10:04,DRIVE,30.375291,130.960210,45.5,44.2,42.36,2,11,1.00,1.00,1,0,0,,
2,2026-03-07 10:10:04,TURN,30.375291,130.960210,161.5,44.2,42.36,1,12,1.00,0.00,1,0,0,,
2,2026-03-07 10:10:04,DRIVE,30.375291,130.960210,47.1,44.2,42.36,1,12,1.00,1.00,1,0,0,,
2,2026-03-07 10:10:04,DRIVE,30.375291,130.960210,48.0,44.2,42.36,1,15,1.00,1.00,1,0,0,,
2,2026-03-07 10:10:05,DRIVE,30.375291,130.960210,49.1,44.2,42.36,0,13,1.00,1.00,1,0,0,,
2,2026-03-07 10:10:05,DRIVE,30.375291,130.960210,53.4,44.2,42.38,-1,12,1.00,1.00,1,0,0,,
2,2026-03-07 10:10:05,DRIVE,30.375291,130.960210,55.9,44.2,42.39,-2,12,1.00,1.00,1,0,0,,
2,2026-03-07 10:10:05,DRIVE,30.375290,130.960210,55.8,44.2,42.41,-3,12,1.00,1.00,1,0,0,,
2,2026-03-07 10:10:05,DRIVE,30.375290,130.960210,56.1,44.1,42.43,-2,10,1.00,1.00,1,0,0,,
2,2026-03-07 10:10:06,DRIVE,30.375290,130.960210,56.8,44.2,42.47,0,9,1.00,1.00,1,0,0,,
2,2026-03-07 10:10:06,DRIVE,30.375290,130.960209,58.2,44.2,42.49,-0,10,1.00,1.00,1,0,0,,
2,2026-03-07 10:10:06,TURN,30.375290,130.960209,60.2,44.2,42.52,-0,7,1.00,0.00,1,0,0,,
2,2026-03-07 10:10:06,TURN,30.375290,130.960208,56.4,44.3,42.55,0,2,1.00,0.00,1,0,0,,
2,2026-03-07 10:10:07,TURN,30.375290,130.960208,52.1,44.3,42.58,-0,8,1.00,0.00,1,0,0,,
2,2026-03-07 10:10:07,DRIVE,30.375290,130.960208,51.0,44.3,42.53,-0,8,1.00,1.00,1,0,0,,
2,2026-03-07 10:10:07,DRIVE,30.375290,130.960209,53.4,44.3,42.49,0,11,1.00,1.00,1,0,0,,
2,2026-03-07 10:10:07,DRIVE,30.375291,130.960209,53.8,44.3,42.45,1,11,1.00,1.00,1,0,0,,
2,2026-03-07 10:10:07,DRIVE,30.375291,130.960210,53.3,44.2,42.40,3,10,1.00,1.00,1,0,0,,
2,2026-03-07 10:10:08,DRIVE,30.375291,130.960210,55.3,44.2,42.35,3,10,1.00,1.00,1,0,0,,
2,2026-03-07 10:10:08,DRIVE,30.375291,130.960210,57.6,44.2,42.33,1,9,1.00,1.00,1,0,0,,
2,2026-03-07 10:10:08,DRIVE,30.375291,130.960211,58.3,44.2,42.32,1,12,1.00,1.00,1,0,0,,
2,2026-03-07 10:10:08,TURN,30.375291,130.960211,59.3,44.2,42.31,1,13,1.00,0.00,1,0,0,,
2,2026-03-07 10:10:09,TURN,30.375291,130.960211,54.3,44.1,42.29,1,11,1.00,0.00,1,0,0,,
2,2026-03-07 10:10:09,DRIVE,30.375291,130.960211,48.0,44.1,42.31,1,11,1.00,1.00,1,0,0,,
2,2026-03-07 10:10:09,DRIVE,30.375291,130.960211,48.9,44.1,42.33,2,12,1.00,1.00,1,0,0,,
2,2026-03-07 10:10:09,DRIVE,30.375290,130.960211,48.8,44.1,42.34,3,12,1.00,1.00,1,0,0,,
2,2026-03-07 10:10:09,DRIVE,30.375290,130.960211,51.1,44.0,42.36,2,9,1.00,1.00,1,0,0,,
2,2026-03-07 10:10:10,DRIVE,30.375290,130.960211,53.8,44.0,42.36,0,7,1.00,1.00,1,0,0,,
2,2026-03-07 10:10:10,DRIVE,30.375290,130.960211,55.6,44.1,42.34,0,10,1.00,1.00,1,0,0,,
2,2026-03-07 10:10:10,DRIVE,30.375291,130.960211,55.4,44.1,42.33,1,12,1.00,1.00,1,0,0,,
2,2026-03-07 10:10:10,TURN,30.375291,130.960211,170.2,44.1,42.31,2,12,1.00,0.00,1,0,0,,
2,2026-03-07 10:10:11,TURN,30.375291,130.960211,54.9,44.1,42.29,2,12,1.00,0.00,1,0,0,,
2,2026-03-07 10:10:11,TURN,30.375291,130.960211,53.9,44.1,42.29,2,12,1.00,0.00,1,0,0,,
2,2026-03-07 10:10:11,TURN,30.375291,130.960211,53.9,44.1,42.29,2,12,1.00,0.00,1,0,0,,
2,2026-03-07 10:10:11,TURN,30.375291,130.960211,53.9,44.1,42.29,2,12,1.00,0.00,1,0,0,,
2,2026-03-07 10:10:11,TURN,30.375291,130.960211,53.9,44.1,42.29,2,12,1.00,0.00,1,0,0,,
2,2026-03-07 10:10:12,TURN,30.375291,130.960211,53.9,44.1,42.29,2,12,1.00,0.00,1,0,0,,
2,2026-03-07 10:10:12,TURN,30.375291,130.960211,53.9,44.1,42.29,2,12,1.00,0.00,1,0,0,,
2,2026-03-07 10:10:12,TURN,30.375291,130.960211,53.9,44.1,42.29,2,12,1.00,0.00,1,0,0,,
2,2026-03-07 10:10:12,TURN,30.375291,130.960211,53.9,44.1,42.29,2,12,1.00,0.00,1,0,0,,
2,2026-03-07 10:10:13,TURN,30.375291,130.960211,53.9,44.1,42.29,2,12,1.00,0.00,1,0,0,,
2,2026-03-07 10:10:13,TURN,30.375291,130.960211,53.9,44.1,42.29,2,12,1.00,0.00,1,0,0,,
2,2026-03-07 10:10:13,TURN,30.375291,130.960211,53.9,44.1,42.29,2,12,1.00,0.00,1,0,0,,
2,2026-03-07 10:10:13,TURN,30.375291,130.960211,53.9,44.1,42.29,2,12,1.00,0.00,1,0,0,,
2,2026-03-07 10:10:20,TURN,30.375291,130.960211,53.7,44.1,42.29,3,12,1.00,0.00,1,0,0,,
2,2026-03-07 10:10:20,DRIVE,30.375291,130.960211,50.6,44.1,42.28,3,13,1.00,1.00,1,0,0,,
2,2026-03-07 10:10:20,DRIVE,30.375291,130.960212,52.0,44.0,42.27,3,14,1.00,1.00,1,0,0,,
2,2026-03-07 10:10:20,DRIVE,30.375290,130.960212,54.5,44.0,42.26,3,14,1.00,1.00,1,0,0,,
2,2026-03-07 10:10:20,DRIVE,30.375290,130.960213,55.2,43.9,42.25,3,14,1.00,1.00,1,0,0,,
2,2026-03-07 10:10:21,DRIVE,30.375290,130.960213,55.9,43.8,42.24,3,14,1.00,1.00,1,0,0,,
2,2026-03-07 10:10:21,DRIVE,30.375290,130.960213,57.4,43.8,42.24,4,14,1.00,1.00,1,0,0,,
2,2026-03-07 10:10:25,TURN,30.375290,130.960213,76.7,43.8,42.24,1,-12,1.00,0.00,1,0,0,,
2,2026-03-07 10:10:25,TURN,30.375290,130.960213,72.5,43.8,42.24,1,-6,1.00,0.00,1,0,0,,
2,2026-03-07 10:10:25,TURN,30.375290,130.960213,68.9,43.8,42.24,1,-2,1.00,0.00,1,0,0,,
2,2026-03-07 10:10:25,TURN,30.375290,130.960213,67.4,43.8,42.22,0,-1,1.00,0.00,1,0,0,,
2,2026-03-07 10:10:25,TURN,30.375290,130.960214,67.4,43.8,42.19,0,-1,1.00,0.00,1,0,0,,
2,2026-03-07 10:10:26,TURN,30.375290,130.960214,67.4,43.7,42.16,0,-1,1.00,0.00,1,0,0,,
2,2026-03-07 10:10:26,TURN,30.375290,130.960215,67.4,43.7,42.14,0,-1,1.00,0.00,1,0,0,,
2,2026-03-07 10:10:26,TURN,30.375290,130.960215,67.4,43.7,42.11,0,-1,1.00,0.00,1,0,0,,
2,2026-03-07 10:10:26,TURN,30.375290,130.960215,67.4,43.7,42.11,0,-1,1.00,0.00,1,0,0,,
2,2026-03-07 10:10:27,TURN,30.375290,130.960215,67.4,43.7,42.11,0,-1,1.00,0.00,1,0,0,,
2,2026-03-07 10:10:27,TURN,30.375290,130.960215,67.4,43.7,42.09,0,-1,1.00,0.00,1,0,0,,
2,2026-03-07 10:10:27,TURN,30.375290,130.960215,67.4,43.7,42.08,0,-1,1.00,0.00,1,0,0,,
2,2026-03-07 10:10:27,TURN,30.375291,130.960215,67.4,43.7,42.06,0,-1,1.00,0.00,1,0,0,,
2,2026-03-07 10:10:27,TURN,30.375291,130.960215,67.4,43.7,42.04,0,-1,1.00,0.00,1,0,0,,
2,2026-03-07 10:10:28,TURN,30.375291,130.960215,67.4,43.8,42.03,0,-1,1.00,0.00,1,0,0,,
2,2026-03-07 10:10:28,TURN,30.375291,130.960215,67.4,43.8,42.03,0,-1,1.00,0.00,1,0,0,,
2,2026-03-07 10:10:28,TURN,30.375291,130.960215,67.4,43.8,42.03,0,-1,1.00,0.00,1,0,0,,
2,2026-03-07 10:10:34,TURN,30.375291,130.960215,86.4,43.8,42.03,-0,5,1.00,0.00,1,0,0,,
2,2026-03-07 10:10:35,TURN,30.375292,130.960215,81.5,43.8,41.95,-0,8,1.00,0.00,1,0,0,,
2,2026-03-07 10:10:35,TURN,30.375293,130.960215,76.4,43.9,41.87,0,5,1.00,0.00,1,0,0,,
2,2026-03-07 10:10:35,TURN,30.375293,130.960216,74.4,44.0,41.80,1,4,1.00,0.00,1,0,0,,
2,2026-03-07 10:10:35,TURN,30.375294,130.960216,73.8,44.0,41.72,1,4,1.00,0.00,1,0,0,,
2,2026-03-07 10:10:36,TURN,30.375295,130.960216,73.8,44.1,41.64,1,4,1.00,0.00,1,0,0,,
2,2026-03-07 10:10:36,TURN,30.375295,130.960216,73.8,44.1,41.63,1,4,1.00,0.00,1,0,0,,
2,2026-03-07 10:10:36,TURN,30.375295,130.960216,73.8,44.1,41.61,1,4,1.00,0.00,1,0,0,,
2,2026-03-07 10:10:36,TURN,30.375296,130.960216,73.8,44.1,41.59,1,4,1.00,0.00,1,0,0,,
2,2026-03-07 10:10:36,TURN,30.375296,130.960216,73.8,44.2,41.58,1,4,1.00,0.00,1,0,0,,
2,2026-03-07 10:10:37,TURN,30.375296,130.960216,73.8,44.2,41.58,1,4,1.00,0.00,1,0,0,,
2,2026-03-07 10:10:37,TURN,30.375296,130.960216,73.8,44.1,41.59,1,4,1.00,0.00,1,0,0,,
2,2026-03-07 10:10:37,TURN,30.375295,130.960216,73.8,44.1,41.61,1,4,1.00,0.00,1,0,0,,
2,2026-03-07 10:10:37,TURN,30.375295,130.960216,73.8,44.1,41.63,1,4,1.00,0.00,1,0,0,,
2,2026-03-07 10:10:38,TURN,30.375295,130.960216,73.8,44.1,41.64,1,4,1.00,0.00,1,0,0,,
2,2026-03-07 10:10:38,TURN,30.375295,130.960216,73.8,44.1,41.64,1,4,1.00,0.00,1,0,0,,
2,2026-03-07 10:10:38,TURN,30.375295,130.960216,73.8,44.1,41.64,1,4,1.00,0.00,1,0,0,,
2,2026-03-07 10:10:44,TURN,30.375295,130.960216,98.2,44.1,41.64,1,11,1.00,0.00,1,0,0,,
2,2026-03-07 10:10:44,TURN,30.375295,130.960216,94.9,44.1,41.64,1,12,1.00,0.00,1,0,0,,
2,2026-03-07 10:10:45,TURN,30.375295,130.960216,93.3,44.1,41.60,1,11,1.00,0.00,1,0,0,,
2,2026-03-07 10:10:45,TURN,30.375295,130.960217,93.3,44.1,41.56,1,11,1.00,0.00,1,0,0,,
2,2026-03-07 10:10:45,TURN,30.375296,130.960217,93.3,44.0,41.51,1,11,1.00,0.00,1,0,0,,
2,2026-03-07 10:10:45,TURN,30.375296,130.960218,0.0,44.0,41.47,0,0,0.00,1.00,1,0,0,,
2,2026-03-07 10:10:46,TURN,30.375296,130.960218,100.2,44.0,41.43,1,10,1.00,0.00,1,0,0,,
2,2026-03-07 10:10:46,TURN,30.375296,130.960218,98.8,44.0,41.43,1,8,1.00,0.00,1,0,0,,
2,2026-03-07 10:10:46,TURN,30.375296,130.960218,96.5,44.0,41.43,1,8,1.00,0.00,1,0,0,,
2,2026-03-07 10:10:46,TURN,30.375296,130.960218,96.5,44.0,41.43,1,8,1.00,0.00,1,0,0,,
2,2026-03-07 10:10:47,TURN,30.375296,130.960218,96.5,44.0,41.43,1,8,1.00,0.00,1,0,0,,
2,2026-03-07 10:10:47,TURN,30.375296,130.960217,96.5,44.1,41.52,1,8,1.00,0.00,1,0,0,,
2,2026-03-07 10:10:47,TURN,30.375296,130.960215,96.5,44.3,41.62,1,8,1.00,0.00,1,0,0,,
2,2026-03-07 10:10:47,TURN,30.375296,130.960214,96.5,44.4,41.71,1,8,1.00,0.00,1,0,0,,
2,2026-03-07 10:10:47,TURN,30.375296,130.960212,96.5,44.5,41.80,1,8,1.00,0.00,1,0,0,,
2,2026-03-07 10:10:48,TURN,30.375296,130.960210,96.5,44.8,41.91,1,8,1.00,0.00,1,0,0,,
2,2026-03-07 10:10:48,TURN,30.375297,130.960210,96.5,44.9,41.92,1,8,1.00,0.00,1,0,0,,
2,2026-03-07 10:10:48,TURN,30.375297,130.960209,96.5,45.0,41.92,1,8,1.00,0.00,1,0,0,,
2,2026-03-07 10:10:48,TURN,30.375298,130.960209,96.5,45.1,41.93,1,8,1.00,0.00,1,0,0,,
2,2026-03-07 10:10:49,TURN,30.375298,130.960208,96.5,45.2,41.94,1,8,1.00,0.00,1,0,0,,
2,2026-03-07 10:10:49,TURN,30.375299,130.960209,96.5,45.1,41.83,1,8,1.00,0.00,1,0,0,,
2,2026-03-07 10:10:49,TURN,30.375299,130.960210,96.5,45.1,41.71,1,8,1.00,0.00,1,0,0,,
2,2026-03-07 10:10:55,TURN,30.375300,130.960212,99.2,45.0,41.48,2,8,1.00,0.00,1,0,0,,
2,2026-03-07 10:10:56,TURN,30.375301,130.960213,97.4,45.0,41.37,2,10,1.00,0.00,1,0,0,,
2,2026-03-07 10:10:56,TURN,30.375304,130.960216,97.4,45.1,40.96,2,9,1.00,0.00,1,0,0,,
2,2026-03-07 10:10:56,TURN,30.375307,130.960218,97.4,45.2,40.54,2,9,1.00,0.00,1,0,0,,
2,2026-03-07 10:10:56,TURN,30.375310,130.960221,97.4,45.3,40.13,2,9,1.00,0.00,1,0,0,,
2,2026-03-07 10:10:56,TURN,30.375313,130.960223,97.4,45.4,39.72,2,9,1.00,0.00,1,0,0,,
2,2026-03-07 10:10:57,TURN,30.375316,130.960226,97.4,45.4,39.31,2,9,1.00,0.00,1,0,0,,
2,2026-03-07 10:10:57,TURN,30.375316,130.960226,97.4,45.4,39.31,2,9,1.00,0.00,1,0,0,,
2,2026-03-07 10:10:57,TURN,30.375316,130.960226,97.4,45.4,39.31,2,9,1.00,0.00,1,0,0,,
2,2026-03-07 10:10:57,TURN,30.375316,130.960226,97.4,45.4,39.31,2,9,1.00,0.00,1,0,0,,
2,2026-03-07 10:10:58,TURN,30.375316,130.960226,97.4,45.4,39.31,2,9,1.00,0.00,1,0,0,,
2,2026-03-07 10:10:58,TURN,30.375316,130.960226,97.4,45.4,39.31,2,9,1.00,0.00,1,0,0,,
2,2026-03-07 10:10:58,TURN,30.375316,130.960226,97.4,45.4,39.31,2,9,1.00,0.00,1,0,0,,
2,2026-03-07 10:10:58,TURN,30.375316,130.960226,97.4,45.4,39.31,2,9,1.00,0.00,1,0,0,,
2,2026-03-07 10:10:58,TURN,30.375316,130.960226,97.4,45.4,39.31,2,9,1.00,0.00,1,0,0,,
2,2026-03-07 10:11:05,TURN,30.375316,130.960226,75.4,45.4,39.31,4,11,1.00,0.00,1,0,0,,
2,2026-03-07 10:11:05,TURN,30.375316,130.960226,72.6,45.4,39.31,4,12,1.00,0.00,1,0,0,,
2,2026-03-07 10:11:05,TURN,30.375316,130.960226,71.4,45.5,39.28,4,12,1.00,0.00,1,0,0,,
2,2026-03-07 10:11:05,TURN,30.375317,130.960226,71.1,45.5,39.25,4,12,1.00,0.00,1,0,0,,
2,2026-03-07 10:11:06,TURN,30.375317,130.960226,71.1,45.6,39.21,4,12,1.00,0.00,1,0,0,,
2,2026-03-07 10:11:06,TURN,30.375318,130.960226,71.1,45.6,39.18,4,12,1.00,0.00,1,0,0,,
2,2026-03-07 10:11:06,TURN,30.375318,130.960226,71.1,45.7,39.15,4,12,1.00,0.00,1,0,0,,
2,2026-03-07 10:11:06,TURN,30.375318,130.960226,71.1,45.7,39.15,4,12,1.00,0.00,1,0,0,,
2,2026-03-07 10:11:07,TURN,30.375318,130.960226,71.1,45.7,39.15,4,12,1.00,0.00,1,0,0,,
2,2026-03-07 10:11:07,TURN,30.375318,130.960226,71.1,45.6,39.12,4,12,1.00,0.00,1,0,0,,
2,2026-03-07 10:11:07,TURN,30.375318,130.960227,71.1,45.6,39.10,4,12,1.00,0.00,1,0,0,,
2,2026-03-07 10:11:07,TURN,30.375318,130.960227,71.1,45.6,39.07,4,12,1.00,0.00,1,0,0,,
2,2026-03-07 10:11:07,TURN,30.375318,130.960228,71.1,45.5,39.04,4,12,1.00,0.00,1,0,0,,
2,2026-03-07 10:11:08,TURN,30.375318,130.960228,71.1,45.5,39.02,4,12,1.00,0.00,1,0,0,,
2,2026-03-07 10:11:08,TURN,30.375318,130.960228,71.1,45.5,39.02,4,12,1.00,0.00,1,0,0,,
2,2026-03-07 10:11:14,DRIVE,30.375318,130.960228,48.4,45.5,39.02,4,15,1.00,1.00,1,0,0,,
2,2026-03-07 10:11:14,DRIVE,30.375318,130.960228,50.4,45.5,39.02,3,18,1.00,1.00,1,0,0,,
2,2026-03-07 10:11:15,DRIVE,30.375318,130.960228,53.7,45.5,39.04,2,17,1.00,1.00,1,0,0,,
2,2026-03-07 10:11:15,DRIVE,30.375318,130.960227,56.6,45.6,39.07,1,16,1.00,1.00,1,0,0,,
2,2026-03-07 10:11:15,DRIVE,30.375318,130.960227,58.4,45.6,39.10,-0,15,1.00,1.00,1,0,0,,
2,2026-03-07 10:11:15,DRIVE,30.375318,130.960226,59.3,45.6,39.12,-0,13,1.00,1.00,1,0,0,,
2,2026-03-07 10:11:16,DRIVE,30.375318,130.960226,59.3,45.7,39.15,0,11,1.00,1.00,1,0,0,,
2,2026-03-07 10:11:16,TURN,30.375318,130.960226,61.8,45.7,39.15,1,11,1.00,0.00,1,0,0,,
2,2026-03-07 10:11:16,TURN,30.375318,130.960226,58.8,45.7,39.15,0,9,1.00,0.00,1,0,0,,
2,2026-03-07 10:11:16,TURN,30.375318,130.960226,57.6,45.7,39.15,0,10,1.00,0.00,1,0,0,,
2,2026-03-07 10:11:16,TURN,30.375318,130.960226,57.6,45.7,39.15,-0,10,1.00,0.00,1,0,0,,
2,2026-03-07 10:11:17,TURN,30.375318,130.960226,57.6,45.7,39.15,-0,10,1.00,0.00,1,0,0,,
2,2026-03-07 10:11:17,TURN,30.375318,130.960226,57.6,45.7,39.15,-0,10,1.00,0.00,1,0,0,,
2,2026-03-07 10:11:17,TURN,30.375318,130.960226,57.6,45.7,39.15,-8,10,1.00,0.00,1,0,0,,
2,2026-03-07 10:11:17,TURN,30.375318,130.960226,57.6,45.7,39.15,-0,10,1.00,0.00,1,0,0,,
2,2026-03-07 10:11:18,TURN,30.375318,130.960226,57.6,45.7,39.15,-0,10,1.00,0.00,1,0,0,,
2,2026-03-07 10:11:18,TURN,30.375318,130.960226,57.6,45.7,39.15,-0,10,1.00,0.00,1,0,0,,
2,2026-03-07 10:11:18,TURN,30.375318,130.960226,57.6,45.7,39.15,-0,10,1.00,0.00,1,0,0,,
2,2026-03-07 10:11:18,TURN,30.375318,130.960226,57.6,45.7,39.15,-0,10,1.00,0.00,1,0,0,,
2,2026-03-07 10:11:18,TURN,30.375318,130.960226,57.6,45.7,39.15,-0,10,1.00,0.00,1,0,0,,
2,2026-03-07 10:11:19,TURN,30.375318,130.960226,57.6,45.7,39.15,-0,10,1.00,0.00,1,0,0,,
2,2026-03-07 10:11:19,TURN,30.375318,130.960226,57.6,45.7,39.15,-0,10,1.00,0.00,1,0,0,,
2,2026-03-07 10:11:19,TURN,30.375318,130.960226,57.6,45.7,39.15,-0,10,1.00,0.00,1,0,0,,
2,2026-03-07 10:11:19,TURN,30.375318,130.960226,57.6,45.7,39.15,-0,10,1.00,0.00,1,0,0,,
2,2026-03-07 10:11:20,TURN,30.375318,130.960226,57.6,45.7,39.15,-0,10,1.00,0.00,1,0,0,,
2,2026-03-07 10:11:20,TURN,30.375318,130.960226,57.6,45.7,39.15,-0,10,1.00,0.00,1,0,0,,
2,2026-03-07 10:11:20,TURN,30.375318,130.960226,57.6,45.7,39.15,-0,10,1.00,0.00,1,0,0,,
2,2026-03-07 10:11:20,TURN,30.375318,130.960226,57.6,45.7,39.15,-0,10,1.00,0.00,1,0,0,,
2,2026-03-07 10:11:26,TURN,30.375318,130.960226,58.0,45.7,39.15,2,9,1.00,0.00,1,0,0,,
2,2026-03-07 10:11:27,TURN,30.375316,130.960226,55.6,45.5,39.28,2,11,1.00,0.00,1,0,0,,
2,2026-03-07 10:11:27,TURN,30.375315,130.960226,55.4,45.3,39.40,2,11,1.00,0.00,1,0,0,,
2,2026-03-07 10:11:27,TURN,30.375313,130.960226,55.4,45.1,39.53,2,11,1.00,0.00,1,0,0,,
2,2026-03-07 10:11:27,TURN,30.375312,130.960226,55.4,44.9,39.65,2,11,1.00,0.00,1,0,0,,
2,2026-03-07 10:11:28,TURN,30.375310,130.960226,55.4,44.8,39.78,2,11,1.00,0.00,1,0,0,,
2,2026-03-07 10:11:28,TURN,30.375310,130.960226,55.4,44.8,39.77,2,11,1.00,0.00,1,0,0,,
2,2026-03-07 10:11:28,TURN,30.375311,130.960225,55.4,44.9,39.77,2,11,1.00,0.00,1,0,0,,
2,2026-03-07 10:11:28,TURN,30.375311,130.960225,54.2,44.9,39.77,1,9,1.00,0.00,1,0,0,,
2,2026-03-07 10:11:29,TURN,30.375311,130.960225,52.4,45.0,39.77,-6,7,1.00,0.00,1,0,0,,
2,2026-03-07 10:11:29,DRIVE,30.375311,130.960225,49.2,45.0,39.77,-6,9,1.00,1.00,1,0,0,,
2,2026-03-07 10:11:29,DRIVE,30.375311,130.960225,44.4,45.0,39.77,-5,10,1.00,1.00,1,0,0,,
2,2026-03-07 10:11:29,DRIVE,30.375311,130.960225,40.7,45.0,39.77,-6,10,1.00,1.00,1,0,0,,
2,2026-03-07 10:11:29,DRIVE,30.375311,130.960225,40.1,45.0,39.77,-6,9,1.00,1.00,1,0,0,,
2,2026-03-07 10:11:30,DRIVE,30.375311,130.960225,40.9,45.0,39.77,-6,9,1.00,1.00,1,0,0,,
2,2026-03-07 10:11:30,DRIVE,30.375311,130.960225,43.9,45.0,39.77,-5,11,1.00,1.00,1,0,0,,
2,2026-03-07 10:11:30,DRIVE,30.375311,130.960225,44.0,45.0,39.77,-4,13,1.00,1.00,1,0,0,,
2,2026-03-07 10:11:30,DRIVE,30.375311,130.960225,44.6,45.0,39.77,-4,14,1.00,1.00,1,0,0,,
2,2026-03-07 10:11:31,DRIVE,30.375311,130.960225,47.2,45.0,39.77,-4,13,1.00,1.00,1,0,0,,
2,2026-03-07 10:11:31,DRIVE,30.375311,130.960225,46.1,45.0,39.77,-4,13,1.00,1.00,1,0,0,,
2,2026-03-07 10:11:31,DRIVE,30.375311,130.960225,48.0,45.0,39.77,-4,13,1.00,1.00,1,0,0,,
2,2026-03-07 10:11:31,DRIVE,30.375311,130.960225,50.8,45.0,39.77,-3,13,1.00,1.00,1,0,0,,
2,2026-03-07 10:11:31,DRIVE,30.375311,130.960225,48.4,45.0,39.77,-3,12,1.00,1.00,1,0,0,,
2,2026-03-07 10:11:32,DRIVE,30.375311,130.960225,48.2,45.0,39.79,-4,13,1.00,1.00,1,0,0,,
2,2026-03-07 10:11:32,DRIVE,30.375311,130.960224,50.2,45.1,39.82,-4,14,1.00,1.00,1,0,0,,
2,2026-03-07 10:11:32,DRIVE,30.375311,130.960224,52.1,45.1,39.85,-4,13,1.00,1.00,1,0,0,,
2,2026-03-07 10:11:32,DRIVE,30.375311,130.960223,50.2,45.1,39.88,-3,13,1.00,1.00,1,0,0,,
2,2026-03-07 10:11:33,DRIVE,30.375311,130.960223,48.1,45.2,39.90,-3,13,1.00,1.00,1,0,0,,
2,2026-03-07 10:11:33,DRIVE,30.375311,130.960223,49.4,45.2,39.90,-3,14,1.00,1.00,1,0,0,,
2,2026-03-07 10:11:33,DRIVE,30.375311,130.960223,52.3,45.2,39.90,-3,14,1.00,1.00,1,0,0,,
2,2026-03-07 10:11:33,DRIVE,30.375311,130.960223,53.2,45.2,39.90,-2,14,1.00,1.00,1,0,0,,
2,2026-03-07 10:11:33,DRIVE,30.375311,130.960223,53.4,45.2,39.90,-3,15,1.00,1.00,1,0,0,,
2,2026-03-07 10:11:34,DRIVE,30.375311,130.960223,53.4,45.2,39.90,-5,16,1.00,1.00,1,0,0,,
2,2026-03-07 10:11:34,DRIVE,30.375311,130.960223,57.9,45.2,39.90,-4,15,1.00,1.00,1,0,0,,
2,2026-03-07 10:11:34,DRIVE,30.375311,130.960223,56.8,45.2,39.90,-5,14,1.00,1.00,1,0,0,,
2,2026-03-07 10:11:34,DRIVE,30.375311,130.960223,58.8,45.2,39.90,-5,15,1.00,1.00,1,0,0,,
2,2026-03-07 10:11:35,DRIVE,30.375311,130.960223,60.1,45.2,39.90,-6,16,1.00,1.00,1,0,0,,
2,2026-03-07 10:11:35,TURN,30.375313,130.960223,64.4,45.3,39.74,-6,16,1.00,0.00,1,0,0,,
2,2026-03-07 10:11:35,TURN,30.375315,130.960224,67.9,45.5,39.57,-5,16,1.00,0.00,1,0,0,,
2,2026-03-07 10:11:35,TURN,30.375316,130.960224,63.4,45.7,39.40,-6,16,1.00,0.00,1,0,0,,
2,2026-03-07 10:11:35,TURN,30.375318,130.960225,62.9,45.8,39.23,-6,15,1.00,0.00,1,0,0,,
2,2026-03-07 10:11:36,TURN,30.375322,130.960226,54.4,46.2,38.87,-7,16,1.00,0.00,1,0,0,,
2,2026-03-07 10:11:36,DRIVE,30.375324,130.960226,52.6,46.4,38.68,-8,16,1.00,1.00,1,0,0,,
2,2026-03-07 10:11:36,TURN,30.375326,130.960227,163.6,46.5,38.48,-6,15,1.00,0.00,1,0,0,,
2,2026-03-07 10:11:36,DRIVE,30.375328,130.960227,49.5,46.7,38.29,-6,13,1.00,1.00,1,0,0,,
2,2026-03-07 10:11:37,DRIVE,30.375330,130.960228,45.4,46.9,38.09,-5,14,1.00,1.00,1,0,0,,
2,2026-03-07 10:11:37,DRIVE,30.375331,130.960229,41.8,47.0,37.93,-8,14,1.00,1.00,1,0,0,,
2,2026-03-07 10:11:37,DRIVE,30.375332,130.960230,45.1,47.0,37.77,-6,14,1.00,1.00,1,0,0,,
2,2026-03-07 10:11:37,DRIVE,30.375334,130.960231,44.2,47.1,37.61,-5,13,1.00,1.00,1,0,0,,
2,2026-03-07 10:11:37,DRIVE,30.375335,130.960232,44.4,47.1,37.45,-6,15,1.00,1.00,1,0,0,,
2,2026-03-07 10:11:38,DRIVE,30.375337,130.960234,48.1,47.2,37.08,-6,15,1.00,1.00,1,0,0,,
2,2026-03-07 10:11:38,DRIVE,30.375339,130.960236,49.4,47.2,36.88,-5,16,1.00,1.00,1,0,0,,
2,2026-03-07 10:11:38,DRIVE,30.375340,130.960237,51.7,47.3,36.67,-3,14,1.00,1.00,1,0,0,,
2,2026-03-07 10:11:38,DRIVE,30.375342,130.960239,49.8,47.3,36.47,-4,14,1.00,1.00,1,0,0,,
2,2026-03-07 10:11:39,DRIVE,30.375343,130.960240,49.1,47.3,36.26,-5,14,1.00,1.00,1,0,0,,
2,2026-03-07 10:11:39,DRIVE,30.375344,130.960241,51.9,47.3,36.10,-5,15,1.00,1.00,1,0,0,,
2,2026-03-07 10:11:39,DRIVE,30.375345,130.960242,53.7,47.4,35.94,-7,16,1.00,1.00,1,0,0,,
2,2026-03-07 10:11:39,DRIVE,30.375346,130.960244,52.8,47.4,35.78,-5,15,1.00,1.00,1,0,0,,
2,2026-03-07 10:11:39,DRIVE,30.375347,130.960245,51.6,47.4,35.62,-4,14,1.00,1.00,1,0,0,,
2,2026-03-07 10:11:40,DRIVE,30.375348,130.960246,53.3,47.4,35.48,-4,16,1.00,1.00,1,0,0,,
2,2026-03-07 10:11:40,DRIVE,30.375348,130.960246,55.4,47.4,35.49,-7,17,1.00,1.00,1,0,0,,
2,2026-03-07 10:11:40,DRIVE,30.375348,130.960245,59.2,47.4,35.51,-6,17,1.00,1.00,1,0,0,,
2,2026-03-07 10:11:40,DRIVE,30.375348,130.960245,58.9,47.5,35.52,-5,15,1.00,1.00,1,0,0,,
2,2026-03-07 10:11:41,DRIVE,30.375348,130.960245,56.9,47.5,35.54,-5,15,1.00,1.00,1,0,0,,
2,2026-03-07 10:11:41,DRIVE,30.375348,130.960245,56.9,47.5,35.51,-7,15,1.00,1.00,1,0,0,,
2,2026-03-07 10:11:41,DRIVE,30.375349,130.960245,58.2,47.6,35.48,-8,15,1.00,1.00,1,0,0,,
2,2026-03-07 10:11:41,DRIVE,30.375349,130.960245,62.1,47.6,35.45,-5,16,1.00,1.00,1,0,0,,
2,2026-03-07 10:11:41,DRIVE,30.375350,130.960245,60.7,47.7,35.42,-5,14,1.00,1.00,1,0,0,,
2,2026-03-07 10:11:42,DRIVE,30.375350,130.960245,58.5,47.8,35.37,-5,14,1.00,1.00,1,0,0,,
2,2026-03-07 10:11:42,DRIVE,30.375350,130.960245,59.8,47.8,35.36,-7,15,1.00,1.00,1,0,0,,
2,2026-03-07 10:11:42,DRIVE,30.375351,130.960245,61.8,47.8,35.34,-10,14,1.00,1.00,1,0,0,,
2,2026-03-07 10:11:42,TURN,30.375351,130.960245,65.9,47.8,35.33,-8,14,1.00,0.00,1,0,0,,
2,2026-03-07 10:11:43,TURN,30.375351,130.960245,64.4,47.9,35.31,-7,13,1.00,0.00,1,0,0,,
2,2026-03-07 10:11:43,TURN,30.375351,130.960245,62.1,47.9,35.31,-6,11,1.00,0.00,1,0,0,,
2,2026-03-07 10:11:43,DRIVE,30.375351,130.960245,53.3,47.9,35.31,-9,15,1.00,1.00,1,0,0,,
2,2026-03-07 10:11:43,DRIVE,30.375351,130.960245,57.1,47.9,35.31,-8,15,1.00,1.00,1,0,0,,
2,2026-03-07 10:11:43,DRIVE,30.375351,130.960245,55.6,47.9,35.31,-8,14,1.00,1.00,1,0,0,,
2,2026-03-07 10:11:44,DRIVE,30.375351,130.960245,54.9,47.9,35.28,-6,12,1.00,1.00,1,0,0,,
2,2026-03-07 10:11:44,DRIVE,30.375352,130.960245,47.2,48.0,35.25,-10,13,1.00,1.00,1,0,0,,
2,2026-03-07 10:11:44,DRIVE,30.375352,130.960245,45.6,48.0,35.22,-10,13,1.00,1.00,1,0,0,,
2,2026-03-07 10:11:44,DRIVE,30.375353,130.960245,43.2,48.1,35.19,-10,14,1.00,1.00,1,0,0,,
2,2026-03-07 10:11:45,DRIVE,30.375353,130.960245,43.1,48.1,35.16,-11,24,1.00,1.00,1,0,0,,
2,2026-03-07 10:11:45,DRIVE,30.375353,130.960245,45.4,48.1,35.16,-8,17,1.00,1.00,1,0,0,,
2,2026-03-07 10:11:45,DRIVE,30.375353,130.960245,45.2,48.1,35.16,-6,14,1.00,1.00,1,0,0,,
2,2026-03-07 10:11:45,DRIVE,30.375353,130.960245,40.2,48.1,35.16,-8,15,1.00,1.00,1,0,0,,
2,2026-03-07 10:11:45,DRIVE,30.375353,130.960245,40.2,48.1,35.16,-10,16,1.00,1.00,1,0,0,,
2,2026-03-07 10:11:46,DRIVE,30.375353,130.960245,41.7,48.2,35.16,-11,16,1.00,1.00,1,0,0,,
2,2026-03-07 10:11:46,DRIVE,30.375354,130.960244,43.8,48.3,35.16,-7,14,1.00,1.00,1,0,0,,
2,2026-03-07 10:11:46,DRIVE,30.375354,130.960244,39.6,48.4,35.16,-6,12,1.00,1.00,1,0,0,,
2,2026-03-07 10:11:46,DRIVE,30.375355,130.960243,36.9,48.5,35.16,-6,14,1.00,1.00,1,0,0,,
2,2026-03-07 10:11:47,DRIVE,30.375355,130.960243,36.5,48.6,35.16,-7,15,1.00,1.00,1,0,0,,
2,2026-03-07 10:11:47,DRIVE,30.375355,130.960243,38.8,48.6,35.16,-8,15,1.00,1.00,1,0,0,,
2,2026-03-07 10:11:47,DRIVE,30.375355,130.960243,43.5,48.6,35.16,-6,14,1.00,1.00,1,0,0,,
2,2026-03-07 10:11:47,DRIVE,30.375355,130.960243,45.8,48.6,35.16,-4,13,1.00,1.00,1,0,0,,
2,2026-03-07 10:11:47,DRIVE,30.375355,130.960243,45.8,48.6,35.16,-5,14,1.00,1.00,1,0,0,,
2,2026-03-07 10:11:48,DRIVE,30.375355,130.960243,50.8,48.6,35.14,-5,14,1.00,1.00,1,0,0,,
2,2026-03-07 10:11:48,DRIVE,30.375355,130.960243,52.2,48.7,35.13,-9,15,1.00,1.00,1,0,0,,
2,2026-03-07 10:11:48,DRIVE,30.375356,130.960243,55.6,48.7,35.11,-7,14,1.00,1.00,1,0,0,,
2,2026-03-07 10:11:48,DRIVE,30.375356,130.960243,52.9,48.7,35.10,-6,13,1.00,1.00,1,0,0,,
2,2026-03-07 10:11:49,DRIVE,30.375356,130.960243,48.6,48.8,35.08,-7,14,1.00,1.00,1,0,0,,
2,2026-03-07 10:11:49,DRIVE,30.375356,130.960243,48.4,48.8,35.08,-8,15,1.00,1.00,1,0,0,,
2,2026-03-07 10:11:49,DRIVE,30.375356,130.960243,50.6,48.8,35.08,-9,15,1.00,1.00,1,0,0,,
2,2026-03-07 10:11:49,DRIVE,30.375356,130.960243,55.2,48.8,35.08,-9,16,1.00,1.00,1,0,0,,
2,2026-03-07 10:11:49,DRIVE,30.375356,130.960243,55.3,48.8,35.08,-8,16,1.00,1.00,1,0,0,,
2,2026-03-07 10:11:50,DRIVE,30.375357,130.960243,49.2,49.0,34.98,-7,16,1.00,1.00,1,0,0,,
2,2026-03-07 10:11:50,DRIVE,30.375359,130.960243,49.6,49.1,34.88,-8,17,1.00,1.00,1,0,0,,
2,2026-03-07 10:11:50,DRIVE,30.375360,130.960243,48.2,49.3,34.78,-11,17,1.00,1.00,1,0,0,,
2,2026-03-07 10:11:50,DRIVE,30.375362,130.960243,53.4,49.5,34.68,-10,17,1.00,1.00,1,0,0,,
2,2026-03-07 10:11:51,DRIVE,30.375363,130.960243,53.4,49.7,34.58,-9,16,1.00,1.00,1,0,0,,
2,2026-03-07 10:11:51,DRIVE,30.375364,130.960243,52.6,49.9,34.48,-6,15,1.00,1.00,1,0,0,,
2,2026-03-07 10:11:51,DRIVE,30.375366,130.960243,51.5,50.1,34.38,-8,16,1.00,1.00,1,0,0,,
2,2026-03-07 10:11:51,DRIVE,30.375367,130.960243,53.4,50.3,34.28,-9,16,1.00,1.00,1,0,0,,
2,2026-03-07 10:11:51,DRIVE,30.375369,130.960243,53.2,50.5,34.18,-11,16,1.00,1.00,1,0,0,,
2,2026-03-07 10:11:52,DRIVE,30.375371,130.960244,56.9,50.8,33.96,-7,16,1.00,1.00,1,0,0,,
2,2026-03-07 10:11:52,DRIVE,30.375372,130.960244,53.1,50.9,33.85,-5,14,1.00,1.00,1,0,0,,
2,2026-03-07 10:11:52,DRIVE,30.375373,130.960245,51.1,51.0,33.73,-6,16,1.00,1.00,1,0,0,,
2,2026-03-07 10:11:52,DRIVE,30.375374,130.960245,51.0,51.1,33.62,-8,15,1.00,1.00,1,0,0,,
2,2026-03-07 10:11:53,DRIVE,30.375375,130.960246,51.2,51.2,33.50,-10,15,1.00,1.00,1,0,0,,
2,2026-03-07 10:11:53,DRIVE,30.375376,130.960247,56.7,51.2,33.37,-8,16,1.00,1.00,1,0,0,,
2,2026-03-07 10:11:53,DRIVE,30.375377,130.960248,56.5,51.3,33.25,-7,15,1.00,1.00,1,0,0,,
2,2026-03-07 10:11:53,DRIVE,30.375378,130.960248,54.0,51.4,33.12,-9,15,1.00,1.00,1,0,0,,
2,2026-03-07 10:11:53,DRIVE,30.375379,130.960249,55.1,51.4,32.99,-8,15,1.00,1.00,1,0,0,,
2,2026-03-07 10:11:54,DRIVE,30.375381,130.960251,55.8,51.5,32.74,-11,17,1.00,1.00,1,0,0,,
2,2026-03-07 10:11:54,DRIVE,30.375381,130.960252,60.1,51.5,32.62,-9,18,1.00,1.00,1,0,0,,
2,2026-03-07 10:11:54,DRIVE,30.375382,130.960253,58.1,51.4,32.51,-8,16,1.00,1.00,1,0,0,,
2,2026-03-07 10:11:54,DRIVE,30.375382,130.960254,52.1,51.4,32.39,-8,16,1.00,1.00,1,0,0,,
2,2026-03-07 10:11:55,DRIVE,30.375383,130.960255,53.8,51.4,32.27,-9,17,1.00,1.00,1,0,0,,
2,2026-03-07 10:11:55,DRIVE,30.375384,130.960256,58.1,51.6,32.13,-10,17,1.00,1.00,1,0,0,,
2,2026-03-07 10:11:55,DRIVE,30.375386,130.960256,63.4,51.7,31.99,-8,18,1.00,1.00,1,0,0,,
2,2026-03-07 10:11:55,DRIVE,30.375387,130.960257,62.3,51.9,31.85,-8,18,1.00,1.00,1,0,0,,
2,2026-03-07 10:11:55,DRIVE,30.375389,130.960257,60.8,52.0,31.71,-6,16,1.00,1.00,1,0,0,,
2,2026-03-07 10:11:56,DRIVE,30.375391,130.960259,58.1,52.3,31.41,-7,18,1.00,1.00,1,0,0,,
2,2026-03-07 10:11:56,DRIVE,30.375392,130.960260,59.4,52.4,31.25,-9,17,1.00,1.00,1,0,0,,
2,2026-03-07 10:11:56,DRIVE,30.375394,130.960261,63.2,52.5,31.09,-8,18,1.00,1.00,1,0,0,,
2,2026-03-07 10:11:56,DRIVE,30.375395,130.960262,64.1,52.5,30.94,-6,17,1.00,1.00,1,0,0,,
2,2026-03-07 10:11:57,DRIVE,30.375396,130.960263,65.6,52.6,30.78,-5,15,1.00,1.00,1,0,0,,
2,2026-03-07 10:11:57,DRIVE,30.375397,130.960264,61.8,52.7,30.64,-7,17,1.00,1.00,1,0,0,,
2,2026-03-07 10:11:57,DRIVE,30.375398,130.960265,59.5,52.7,30.49,-9,16,1.00,1.00,1,0,0,,
2,2026-03-07 10:11:57,DRIVE,30.375399,130.960266,62.7,52.8,30.35,-11,18,1.00,1.00,1,0,0,,
2,2026-03-07 10:11:57,DRIVE,30.375400,130.960267,67.1,52.9,30.20,-8,18,1.00,1.00,1,0,0,,
2,2026-03-07 10:11:58,DRIVE,30.375402,130.960269,66.2,52.9,29.89,-7,15,1.00,1.00,1,0,0,,
2,2026-03-07 10:11:58,DRIVE,30.375403,130.960271,63.6,52.9,29.71,-7,18,1.00,1.00,1,0,0,,
2,2026-03-07 10:11:58,DRIVE,30.375404,130.960272,65.1,53.0,29.54,-11,19,1.00,1.00,1,0,0,,
2,2026-03-07 10:11:58,TURN,30.375405,130.960274,68.9,53.0,29.36,-13,19,1.00,0.00,1,0,0,,
2,2026-03-07 10:11:59,TURN,30.375407,130.960277,71.4,53.0,28.94,-9,16,1.00,0.00,1,0,0,,
2,2026-03-07 10:11:59,TURN,30.375409,130.960279,66.0,53.0,28.70,-7,15,1.00,0.00,1,0,0,,
2,2026-03-07 10:11:59,DRIVE,30.375410,130.960281,60.0,53.0,28.45,-8,19,1.00,1.00,1,0,0,,
2,2026-03-07 10:11:59,DRIVE,30.375412,130.960283,54.6,53.1,28.20,-13,21,1.00,1.00,1,0,0,,
2,2026-03-07 10:12:00,DRIVE,30.375413,130.960285,56.2,53.1,27.96,-15,22,1.00,1.00,1,0,0,,
2,2026-03-07 10:12:00,DRIVE,30.375414,130.960286,62.6,53.2,27.79,-10,22,1.00,1.00,1,0,0,,
2,2026-03-07 10:12:00,DRIVE,30.375416,130.960287,60.3,53.4,27.62,-8,19,1.00,1.00,1,0,0,,
2,2026-03-07 10:12:00,DRIVE,30.375417,130.960288,58.6,53.5,27.45,-8,18,1.00,1.00,1,0,0,,
2,2026-03-07 10:12:00,DRIVE,30.375419,130.960289,58.8,53.6,27.28,-10,19,1.00,1.00,1,0,0,,
2,2026-03-07 10:12:01,DRIVE,30.375421,130.960291,59.6,53.9,26.96,-13,17,1.00,1.00,1,0,0,,
2,2026-03-07 10:12:01,DRIVE,30.375422,130.960292,68.1,53.9,26.82,-11,19,1.00,1.00,1,0,0,,
2,2026-03-07 10:12:01,DRIVE,30.375423,130.960293,68.6,54.0,26.68,-8,16,1.00,1.00,1,0,0,,
2,2026-03-07 10:12:01,TURN,30.375424,130.960294,69.6,54.1,26.53,-7,14,1.00,0.00,1,0,0,,
2,2026-03-07 10:12:02,TURN,30.375425,130.960295,67.4,54.2,26.39,-9,16,1.00,0.00,1,0,0,,
2,2026-03-07 10:12:02,TURN,30.375426,130.960296,64.1,54.2,26.31,-13,18,1.00,0.00,1,0,0,,
2,2026-03-07 10:12:02,TURN,30.375426,130.960296,62.9,54.2,26.22,-16,19,1.00,0.00,1,0,0,,
2,2026-03-07 10:12:02,TURN,30.375427,130.960297,64.4,54.3,26.13,-13,19,1.00,0.00,1,0,0,,
2,2026-03-07 10:12:02,TURN,30.375427,130.960297,63.0,54.3,26.05,-11,16,1.00,0.00,1,0,0,,
2,2026-03-07 10:12:03,TURN,30.375429,130.960298,62.0,54.4,25.89,-10,17,1.00,0.00,1,0,0,,
2,2026-03-07 10:12:03,TURN,30.375429,130.960299,63.9,54.5,25.82,-12,18,1.00,0.00,1,0,0,,
2,2026-03-07 10:12:03,DRIVE,30.375430,130.960299,61.1,54.6,25.75,-17,20,1.00,1.00,1,0,0,,
2,2026-03-07 10:12:03,DRIVE,30.375430,130.960300,63.7,54.7,25.68,-17,21,1.00,1.00,1,0,0,,
2,2026-03-07 10:12:04,DRIVE,30.375431,130.960300,66.1,54.7,25.61,-15,20,1.00,1.00,1,0,0,,
2,2026-03-07 10:12:04,DRIVE,30.375432,130.960300,59.8,54.9,25.55,-14,19,1.00,1.00,1,0,0,,
2,2026-03-07 10:12:04,TURN,30.375433,130.960300,72.2,55.0,25.48,-6,17,1.00,0.00,1,0,0,,
2,2026-03-07 10:12:04,TURN,30.375433,130.960301,90.7,55.1,25.41,-2,13,1.00,0.00,1,0,0,,
2,2026-03-07 10:12:04,TURN,30.375434,130.960301,95.8,55.3,25.35,-2,14,1.00,0.00,1,0,0,,
2,2026-03-07 10:12:05,TURN,30.375436,130.960301,97.9,55.5,25.21,-4,15,1.00,0.00,1,0,0,,
2,2026-03-07 10:12:05,TURN,30.375436,130.960302,88.1,55.6,25.14,-10,16,1.00,0.00,1,0,0,,
2,2026-03-07 10:12:05,TURN,30.375437,130.960302,74.2,55.7,25.07,-12,19,1.00,0.00,1,0,0,,
2,2026-03-07 10:12:05,TURN,30.375437,130.960303,66.4,55.7,25.00,-10,21,1.00,0.00,1,0,0,,
2,2026-03-07 10:12:06,DRIVE,30.375438,130.960303,55.1,55.8,24.93,-11,21,1.00,1.00,1,0,0,,
2,2026-03-07 10:12:06,DRIVE,30.375439,130.960304,49.3,55.8,24.82,-13,21,1.00,1.00,1,0,0,,
2,2026-03-07 10:12:06,DRIVE,30.375439,130.960305,49.4,55.8,24.70,-16,18,1.00,1.00,1,0,0,,
2,2026-03-07 10:12:06,DRIVE,30.375440,130.960306,56.3,55.8,24.58,-16,16,1.00,1.00,1,0,0,,
2,2026-03-07 10:12:06,DRIVE,30.375440,130.960307,63.6,55.8,24.47,-11,18,1.00,1.00,1,0,0,,
2,2026-03-07 10:12:07,DRIVE,30.375442,130.960309,63.4,55.9,24.25,-11,16,1.00,1.00,1,0,0,,
2,2026-03-07 10:12:07,DRIVE,30.375443,130.960309,62.0,56.0,24.15,-11,17,1.00,1.00,1,0,0,,
2,2026-03-07 10:12:07,DRIVE,30.375443,130.960310,61.0,56.1,24.06,-13,16,1.00,1.00,1,0,0,,
2,2026-03-07 10:12:07,DRIVE,30.375444,130.960310,65.6,56.2,23.96,-15,14,1.00,1.00,1,0,0,,
2,2026-03-07 10:12:08,DRIVE,30.375445,130.960311,70.5,56.3,23.86,-18,16,1.00,1.00,1,0,0,,
2,2026-03-07 10:12:08,TURN,30.375446,130.960311,72.2,56.5,23.76,-16,12,1.00,0.00,1,0,0,,
2,2026-03-07 10:12:08,DRIVE,30.375447,130.960312,63.8,56.8,23.65,-16,1,1.00,1.00,1,0,0,,
2,2026-03-07 10:12:08,DRIVE,30.375449,130.960312,58.0,57.0,23.55,-18,-2,1.00,1.00,1,0,0,,
2,2026-03-07 10:12:08,DRIVE,30.375450,130.960313,52.8,57.2,23.44,-22,-0,1.00,1.00,1,0,0,,
2,2026-03-07 10:12:09,DRIVE,30.375452,130.960313,53.2,57.7,23.22,-18,5,1.00,1.00,1,0,0,,
2,2026-03-07 10:12:09,DRIVE,30.375454,130.960314,50.9,58.0,23.11,-13,6,1.00,1.00,1,0,0,,
2,2026-03-07 10:12:09,DRIVE,30.375455,130.960314,47.9,58.3,22.99,-10,8,1.00,1.00,1,0,0,,
2,2026-03-07 10:12:09,DRIVE,30.375457,130.960315,50.6,58.5,22.88,-1,9,1.00,1.00,1,0,0,,
2,2026-03-07 10:12:10,DRIVE,30.375458,130.960315,51.8,58.8,22.76,1,14,1.00,1.00,1,0,0,,
2,2026-03-07 10:12:10,DRIVE,30.375459,130.960315,54.1,59.0,22.69,-0,15,1.00,1.00,1,0,0,,
2,2026-03-07 10:12:10,DRIVE,30.375460,130.960315,56.1,59.2,22.62,1,14,1.00,1.00,1,0,0,,
2,2026-03-07 10:12:10,DRIVE,30.375461,130.960316,56.0,59.5,22.54,1,15,1.00,1.00,1,0,0,,
2,2026-03-07 10:12:10,DRIVE,30.375462,130.960316,58.0,59.7,22.47,3,15,1.00,1.00,1,0,0,,
2,2026-03-07 10:12:11,DRIVE,30.375464,130.960316,63.1,60.1,22.31,3,13,1.00,1.00,1,0,0,,
2,2026-03-07 10:12:11,DRIVE,30.375465,130.960317,67.5,60.3,22.22,3,14,1.00,1.00,1,0,0,,
2,2026-03-07 10:12:11,DRIVE,30.375466,130.960317,68.6,60.5,22.13,4,13,1.00,1.00,1,0,0,,
2,2026-03-07 10:12:11,DRIVE,30.375467,130.960318,68.6,60.7,22.04,4,14,1.00,1.00,1,0,0,,
2,2026-03-07 10:12:12,DRIVE,30.375468,130.960318,71.6,60.9,21.96,4,14,1.00,1.00,1,0,0,,
2,2026-03-07 10:12:12,DRIVE,30.375468,130.960318,74.9,60.9,21.92,4,12,1.00,1.00,1,0,0,,
2,2026-03-07 10:12:12,TURN,30.375468,130.960319,76.9,60.8,21.89,5,11,1.00,0.00,1,0,0,,
2,2026-03-07 10:12:12,TURN,30.375468,130.960319,72.8,60.8,21.86,5,10,1.00,0.00,1,0,0,,
2,2026-03-07 10:12:12,TURN,30.375468,130.960320,68.6,60.7,21.82,4,13,1.00,0.00,1,0,0,,
2,2026-03-07 10:12:13,DRIVE,30.375468,130.960320,64.9,60.6,21.77,4,13,1.00,1.00,1,0,0,,
2,2026-03-07 10:12:13,TURN,30.375468,130.960320,177.9,60.6,21.75,5,13,1.00,0.00,1,0,0,,
2,2026-03-07 10:12:13,DRIVE,30.375468,130.960321,65.3,60.6,21.74,4,13,1.00,1.00,1,0,0,,
2,2026-03-07 10:12:13,DRIVE,30.375468,130.960321,64.7,60.6,21.72,4,16,1.00,1.00,1,0,0,,
2,2026-03-07 10:12:14,DRIVE,30.375468,130.960321,65.5,60.5,21.70,3,18,1.00,1.00,1,0,0,,
2,2026-03-07 10:12:14,DRIVE,30.375468,130.960321,64.8,60.4,21.69,4,16,1.00,1.00,1,0,0,,
2,2026-03-07 10:12:14,DRIVE,30.375467,130.960322,68.3,60.2,21.68,3,13,1.00,1.00,1,0,0,,
2,2026-03-07 10:12:14,DRIVE,30.375467,130.960322,67.5,60.1,21.67,3,12,1.00,1.00,1,0,0,,
2,2026-03-07 10:12:14,DRIVE,30.375466,130.960323,67.6,59.9,21.66,5,11,1.00,1.00,1,0,0,,
2,2026-03-07 10:12:15,DRIVE,30.375466,130.960324,68.4,59.7,21.60,5,12,1.00,1.00,1,0,0,,
2,2026-03-07 10:12:15,DRIVE,30.375466,130.960324,72.4,59.6,21.55,3,11,1.00,1.00,1,0,0,,
2,2026-03-07 10:12:15,DRIVE,30.375466,130.960325,71.9,59.5,21.50,5,12,1.00,1.00,1,0,0,,
2,2026-03-07 10:12:15,DRIVE,30.375466,130.960325,72.5,59.5,21.45,6,16,1.00,1.00,1,0,0,,
2,2026-03-07 10:12:16,DRIVE,30.375466,130.960326,72.9,59.4,21.40,6,16,1.00,1.00,1,0,0,,
2,2026-03-07 10:12:16,TURN,30.375465,130.960326,75.3,59.2,21.43,5,14,1.00,0.00,1,0,0,,
2,2026-03-07 10:12:16,TURN,30.375465,130.960326,70.6,59.1,21.47,4,12,1.00,0.00,1,0,0,,
2,2026-03-07 10:12:16,DRIVE,30.375464,130.960326,65.1,58.9,21.50,3,13,1.00,1.00,1,0,0,,
2,2026-03-07 10:12:16,DRIVE,30.375464,130.960326,66.8,58.8,21.54,4,14,1.00,1.00,1,0,0,,
2,2026-03-07 10:12:17,DRIVE,30.375463,130.960326,71.3,58.6,21.57,3,10,1.00,1.00,1,0,0,,
2,2026-03-07 10:12:17,DRIVE,30.375463,130.960326,71.7,58.6,21.57,5,12,1.00,1.00,1,0,0,,
2,2026-03-07 10:12:17,DRIVE,30.375463,130.960326,73.6,58.6,21.57,4,12,1.00,1.00,1,0,0,,
2,2026-03-07 10:12:17,TURN,30.375463,130.960326,75.3,58.6,21.57,4,9,1.00,0.00,1,0,0,,
2,2026-03-07 10:12:18,TURN,30.375463,130.960326,69.1,58.6,21.57,3,6,1.00,0.00,1,0,0,,
2,2026-03-07 10:12:18,DRIVE,30.375463,130.960326,60.9,58.5,21.60,3,10,1.00,1.00,1,0,0,,
2,2026-03-07 10:12:18,DRIVE,30.375462,130.960326,60.2,58.4,21.62,3,12,1.00,1.00,1,0,0,,
